City-State,id,city,city_ascii,state_id,City-State,state_name,county_fips,county_name,lat,lng,population,population_proper,density,source,incorporated,timezone,zips
Moline Acres-MO,1840008595,Moline Acres,Moline Acres,MO,Moline Acres-MO,Missouri,29189,St. Louis,38.7456,-90.243,2406,2406,1581,polygon,TRUE,America/Chicago,63136 63137
Kissee Mills-MO,1840025750,Kissee Mills,Kissee Mills,MO,Kissee Mills-MO,Missouri,29213,Taney,36.6694,-93.0473,,,34.9,polygon,FALSE,America/Chicago,65653 65680
Byrnes Mill-MO,1840007504,Byrnes Mill,Byrnes Mill,MO,Byrnes Mill-MO,Missouri,29099,Jefferson,38.4396,-90.5742,2929,2929,219,polygon,TRUE,America/Chicago,63025 63051
Post Oak-MO,1840032130,Post Oak,Post Oak,MO,Post Oak-MO,Missouri,29101,Johnson,38.5689,-93.751,,,8.8,point,FALSE,America/Chicago,64761
Lakeshire-MO,1840008600,Lakeshire,Lakeshire,MO,Lakeshire-MO,Missouri,29189,St. Louis,38.5399,-90.3384,1415,1415,2451,polygon,TRUE,America/Chicago,63123
Edinburg-MO,1840025560,Edinburg,Edinburg,MO,Edinburg-MO,Missouri,29079,Grundy,40.0811,-93.6898,,,66,polygon,FALSE,America/Chicago,64683
Worland-MO,1840032115,Worland,Worland,MO,Worland-MO,Missouri,29013,Bates,38.1878,-94.5919,,,31.7,point,FALSE,America/Chicago,64779
Villa Ridge-MO,1840007474,Villa Ridge,Villa Ridge,MO,Villa Ridge-MO,Missouri,29071,Franklin,38.468,-90.885,,,232.3,polygon,FALSE,America/Chicago,63089
Taneyville-MO,1840013059,Taneyville,Taneyville,MO,Taneyville-MO,Missouri,29213,Taney,36.738,-93.0352,391,391,319,polygon,TRUE,America/Chicago,65759
Machens-MO,1840032240,Machens,Machens,MO,Machens-MO,Missouri,29183,St. Charles,38.9031,-90.3323,,,2.6,point,FALSE,America/Chicago,63301
Meadville-MO,1840008403,Meadville,Meadville,MO,Meadville-MO,Missouri,29115,Linn,39.7882,-93.2992,444,444,317,polygon,TRUE,America/Chicago,64659
Doe Run-MO,1840025695,Doe Run,Doe Run,MO,Doe Run-MO,Missouri,29187,St. Francois,37.7455,-90.4994,,,285.7,polygon,FALSE,America/Chicago,63601 63637
Bolivar-MO,1840007578,Bolivar,Bolivar,MO,Bolivar-MO,Missouri,29167,Polk,37.6057,-93.4174,10133,10795,503,polygon,TRUE,America/Chicago,65613
Wayland-MO,1840010402,Wayland,Wayland,MO,Wayland-MO,Missouri,29045,Clark,40.3963,-91.5754,494,494,283,polygon,TRUE,America/Chicago,63430 63472
Leawood-MO,1840013044,Leawood,Leawood,MO,Leawood-MO,Missouri,29145,Newton,37.0334,-94.4947,680,680,213,polygon,TRUE,America/Chicago,64804
Pleasant Hill-MO,1840009786,Pleasant Hill,Pleasant Hill,MO,Pleasant Hill-MO,Missouri,29037,Cass,38.8061,-94.2654,8376,8444,406,polygon,TRUE,America/Chicago,64080
Cross Keys-MO,1840032233,Cross Keys,Cross Keys,MO,Cross Keys-MO,Missouri,29189,St. Louis,38.8089,-90.2987,,,1241.7,point,FALSE,America/Chicago,63033
Burgess-MO,1840009888,Burgess,Burgess,MO,Burgess-MO,Missouri,29011,Barton,37.5562,-94.6152,55,55,287,polygon,TRUE,America/Chicago,64769
Cole Camp-MO,1840007495,Cole Camp,Cole Camp,MO,Cole Camp-MO,Missouri,29015,Benton,38.4595,-93.2025,1114,1114,330,polygon,TRUE,America/Chicago,65325
Martinsburg-MO,1840009618,Martinsburg,Martinsburg,MO,Martinsburg-MO,Missouri,29007,Audrain,39.101,-91.6476,307,307,443,polygon,TRUE,America/Chicago,65264
Farley-MO,1840012629,Farley,Farley,MO,Farley-MO,Missouri,29165,Platte,39.2888,-94.8285,290,290,90,polygon,TRUE,America/Chicago,64079 64028
Castle Point-MO,1840006125,Castle Point,Castle Point,MO,Castle Point-MO,Missouri,29189,St. Louis,38.7573,-90.2487,,,2249.8,polygon,FALSE,America/Chicago,63136
Louisiana-MO,1840009676,Louisiana,Louisiana,MO,Louisiana-MO,Missouri,29163,Pike,39.4413,-91.0626,3014,3281,404,polygon,TRUE,America/Chicago,63353
Humansville-MO,1840007579,Humansville,Humansville,MO,Humansville-MO,Missouri,29167,Polk,37.795,-93.5765,1035,1035,340,polygon,TRUE,America/Chicago,65674
Pomona-MO,1840025742,Pomona,Pomona,MO,Pomona-MO,Missouri,29091,Howell,36.8671,-91.9134,,,141.8,polygon,FALSE,America/Chicago,65789
Ellington-MO,1840008734,Ellington,Ellington,MO,Ellington-MO,Missouri,29179,Reynolds,37.2365,-90.9719,962,962,269,polygon,TRUE,America/Chicago,63638
Lake Lafayette-MO,1840008527,Lake Lafayette,Lake Lafayette,MO,Lake Lafayette-MO,Missouri,29107,Lafayette,38.9487,-93.9714,322,322,194,polygon,TRUE,America/Chicago,64076
Skidmore-MO,1840009417,Skidmore,Skidmore,MO,Skidmore-MO,Missouri,29147,Nodaway,40.2878,-95.0796,269,269,310,polygon,TRUE,America/Chicago,64487
Hoover-MO,1840032065,Hoover,Hoover,MO,Hoover-MO,Missouri,29165,Platte,39.3689,-94.6669,,,190.5,point,FALSE,America/Chicago,64089
Columbia-MO,1840007391,Columbia,Columbia,MO,Columbia-MO,Missouri,29019,Boone,38.9475,-92.3263,138675,120612,721,polygon,TRUE,America/Chicago,65202 65203 65201 65215 65205 65211 65212 65216 65217 65218
Parkville-MO,1840009590,Parkville,Parkville,MO,Parkville-MO,Missouri,29165,Platte,39.2004,-94.7222,6514,6514,170,polygon,TRUE,America/Chicago,64152
Monroe City-MO,1840008451,Monroe City,Monroe City,MO,Monroe City-MO,Missouri,29137,Monroe,39.6542,-91.7328,2441,2441,312,polygon,TRUE,America/Chicago,63456
Verona-MO,1840010883,Verona,Verona,MO,Verona-MO,Missouri,29109,Lawrence,36.9631,-93.7936,604,604,268,polygon,TRUE,America/Chicago,65769
Bolckow-MO,1840007267,Bolckow,Bolckow,MO,Bolckow-MO,Missouri,29003,Andrew,40.1152,-94.8213,189,189,224,polygon,TRUE,America/Chicago,64427
Plato-MO,1840012999,Plato,Plato,MO,Plato-MO,Missouri,29215,Texas,37.5029,-92.22,109,109,112,polygon,TRUE,America/Chicago,65552
Fremont-MO,1840025740,Fremont,Fremont,MO,Fremont-MO,Missouri,29035,Carter,36.9523,-91.1623,,,170.6,polygon,FALSE,America/Chicago,63941
Mound City-MO,1840008382,Mound City,Mound City,MO,Mound City-MO,Missouri,29087,Holt,40.1365,-95.2337,1049,1049,325,polygon,TRUE,America/Chicago,64470
Corder-MO,1840007386,Corder,Corder,MO,Corder-MO,Missouri,29107,Lafayette,39.0991,-93.639,399,399,432,polygon,TRUE,America/Chicago,64021
Ashburn-MO,1840010625,Ashburn,Ashburn,MO,Ashburn-MO,Missouri,29163,Pike,39.5458,-91.172,,,74.9,polygon,TRUE,America/Chicago,63433
Coffman-MO,1840032033,Coffman,Coffman,MO,Coffman-MO,Missouri,29186,Ste. Genevieve,37.7845,-90.1943,,,5.1,point,FALSE,America/Chicago,63670
High Ridge-MO,1840006233,High Ridge,High Ridge,MO,High Ridge-MO,Missouri,29099,Jefferson,38.4609,-90.534,,,471.9,polygon,FALSE,America/Chicago,63049
Avilla-MO,1840009913,Avilla,Avilla,MO,Avilla-MO,Missouri,29097,Jasper,37.1938,-94.1298,126,126,248,polygon,TRUE,America/Chicago,64833
Cowgill-MO,1840007319,Cowgill,Cowgill,MO,Cowgill-MO,Missouri,29025,Caldwell,39.5603,-93.9257,181,181,292,polygon,TRUE,America/Chicago,64637
Stotts City-MO,1840009919,Stotts City,Stotts City,MO,Stotts City-MO,Missouri,29109,Lawrence,37.1018,-93.9483,220,220,165,polygon,TRUE,America/Chicago,65756
Shirley-MO,1840032215,Shirley,Shirley,MO,Shirley-MO,Missouri,29221,Washington,37.915,-90.9193,,,11.6,point,FALSE,America/Chicago,63664
Atlanta-MO,1840007271,Atlanta,Atlanta,MO,Atlanta-MO,Missouri,29121,Macon,39.8985,-92.4799,371,371,418,polygon,TRUE,America/Chicago,63530
Hartshorn-MO,1840032062,Hartshorn,Hartshorn,MO,Hartshorn-MO,Missouri,29215,Texas,37.2648,-91.6704,,,11.4,point,FALSE,America/Chicago,65479
Saint Thomas-MO,1840010766,Saint Thomas,Saint Thomas,MO,Saint Thomas-MO,Missouri,29051,Cole,38.367,-92.216,276,276,108,polygon,TRUE,America/Chicago,65076
Easton-MO,1840008441,Easton,Easton,MO,Easton-MO,Missouri,29021,Buchanan,39.7226,-94.6404,237,237,154,polygon,TRUE,America/Chicago,64443
Wortham-MO,1840025698,Wortham,Wortham,MO,Wortham-MO,Missouri,29187,St. Francois,37.8401,-90.6076,,,140.6,polygon,FALSE,America/Chicago,63601
Bixby-MO,1840032179,Bixby,Bixby,MO,Bixby-MO,Missouri,29093,Iron,37.6603,-91.1151,,,23.2,point,FALSE,America/Chicago,65439
Holland-MO,1840010903,Holland,Holland,MO,Holland-MO,Missouri,29155,Pemiscot,36.0571,-89.8705,215,215,497,polygon,TRUE,America/Chicago,63853
Montrose-MO,1840008644,Montrose,Montrose,MO,Montrose-MO,Missouri,29083,Henry,38.2587,-93.9827,371,371,251,polygon,TRUE,America/Chicago,64770
Centralia-MO,1840007392,Centralia,Centralia,MO,Centralia-MO,Missouri,29019,Boone,39.2107,-92.1344,3969,4192,563,polygon,TRUE,America/Chicago,65240
Lakeland-MO,1840032165,Lakeland,Lakeland,MO,Lakeland-MO,Missouri,29131,Miller,38.222,-92.631,,,48.5,point,FALSE,America/Chicago,65049
Laurie-MO,1840012865,Laurie,Laurie,MO,Laurie-MO,Missouri,29141,Morgan,38.208,-92.8253,934,934,65,polygon,TRUE,America/Chicago,65037 65038
Barnhart-MO,1840006237,Barnhart,Barnhart,MO,Barnhart-MO,Missouri,29099,Jefferson,38.336,-90.4046,,,278.6,polygon,FALSE,America/Chicago,63012 63057
Chesterfield-MO,1840007446,Chesterfield,Chesterfield,MO,Chesterfield-MO,Missouri,29189,St. Louis,38.6588,-90.5805,47659,47659,578,polygon,TRUE,America/Chicago,63017 63005 63006
Hannibal-MO,1840007306,Hannibal,Hannibal,MO,Hannibal-MO,Missouri,29127,Marion,39.7097,-91.3936,18361,17808,436,polygon,TRUE,America/Chicago,63401
Ash Grove-MO,1840007615,Ash Grove,Ash Grove,MO,Ash Grove-MO,Missouri,29077,Greene,37.3177,-93.581,1450,1450,460,polygon,TRUE,America/Chicago,65604
Avondale-MO,1840007371,Avondale,Avondale,MO,Avondale-MO,Missouri,29047,Clay,39.1546,-94.5453,461,461,1290,polygon,TRUE,America/Chicago,64117
Exeter-MO,1840008796,Exeter,Exeter,MO,Exeter-MO,Missouri,29009,Barry,36.6707,-93.9399,773,773,377,polygon,TRUE,America/Chicago,65647
Wilderness-MO,1840032222,Wilderness,Wilderness,MO,Wilderness-MO,Missouri,29149,Oregon,36.7889,-91.1921,,,1.4,point,FALSE,America/Chicago,63941
Chain of Rocks-MO,1840010691,Chain of Rocks,Chain of Rocks,MO,Chain of Rocks-MO,Missouri,29113,Lincoln,38.9155,-90.8021,97,97,223,polygon,TRUE,America/Chicago,63369
Flordell Hills-MO,1840008585,Flordell Hills,Flordell Hills,MO,Flordell Hills-MO,Missouri,29189,St. Louis,38.7174,-90.265,805,805,2801,polygon,TRUE,America/Chicago,63136
Theodosia-MO,1840013061,Theodosia,Theodosia,MO,Theodosia-MO,Missouri,29153,Ozark,36.5807,-92.6638,257,257,72,polygon,TRUE,America/Chicago,65761
Brooklyn Heights-MO,1840009914,Brooklyn Heights,Brooklyn Heights,MO,Brooklyn Heights-MO,Missouri,29097,Jasper,37.1694,-94.3856,99,99,333,polygon,TRUE,America/Chicago,64836
Pontiac-MO,1840025751,Pontiac,Pontiac,MO,Pontiac-MO,Missouri,29153,Ozark,36.5165,-92.6037,,,33.3,polygon,FALSE,America/Chicago,65729
Ironton-MO,1840008716,Ironton,Ironton,MO,Ironton-MO,Missouri,29093,Iron,37.5984,-90.6378,2520,1377,395,polygon,TRUE,America/Chicago,63650
Competition-MO,1840032187,Competition,Competition,MO,Competition-MO,Missouri,29105,Laclede,37.4837,-92.4291,,,9.6,point,FALSE,America/Chicago,65470
Aldrich-MO,1840010854,Aldrich,Aldrich,MO,Aldrich-MO,Missouri,29167,Polk,37.5489,-93.5512,80,80,190,polygon,TRUE,America/Chicago,65601
Goodnight-MO,1840012991,Goodnight,Goodnight,MO,Goodnight-MO,Missouri,29167,Polk,37.4516,-93.2311,18,18,9,polygon,TRUE,America/Chicago,65725
Eldon-MO,1840008659,Eldon,Eldon,MO,Eldon-MO,Missouri,29131,Miller,38.3511,-92.5767,4630,4643,503,polygon,TRUE,America/Chicago,65026
Shoal Creek Estates-MO,1840010893,Shoal Creek Estates,Shoal Creek Estates,MO,Shoal Creek Estates-MO,Missouri,29145,Newton,37.0173,-94.4933,97,97,328,polygon,TRUE,America/Chicago,64804
Vinita Terrace-MO,1840012829,Vinita Terrace,Vinita Terrace,MO,Vinita Terrace-MO,Missouri,29189,St. Louis,38.6849,-90.3296,276,276,1827,polygon,TRUE,America/Chicago,63114 63133
Hunnewell-MO,1840007305,Hunnewell,Hunnewell,MO,Hunnewell-MO,Missouri,29205,Shelby,39.6679,-91.8588,177,177,110,polygon,TRUE,America/Chicago,63443
Republic-MO,1840009906,Republic,Republic,MO,Republic-MO,Missouri,29077,Greene,37.145,-93.4448,16116,16116,405,polygon,TRUE,America/Chicago,65738 65619 65802
Fidelity-MO,1840010876,Fidelity,Fidelity,MO,Fidelity-MO,Missouri,29097,Jasper,37.0817,-94.3096,256,256,102,polygon,TRUE,America/Chicago,64836
Syracuse-MO,1840009650,Syracuse,Syracuse,MO,Syracuse-MO,Missouri,29141,Morgan,38.6696,-92.8763,171,171,176,polygon,TRUE,America/Chicago,65354
Branson-MO,1840007659,Branson,Branson,MO,Branson-MO,Missouri,29213,Taney,36.6504,-93.2636,24603,11430,213,polygon,TRUE,America/Chicago,65616 65615
Windsor-MO,1840010791,Windsor,Windsor,MO,Windsor-MO,Missouri,29083,Henry,38.5319,-93.5227,2474,2785,444,polygon,TRUE,America/Chicago,65360
Winchester-MO,1840010747,Winchester,Winchester,MO,Winchester-MO,Missouri,29189,St. Louis,38.5897,-90.5261,1526,1526,2386,polygon,TRUE,America/Chicago,63021
Lone Jack-MO,1840009679,Lone Jack,Lone Jack,MO,Lone Jack-MO,Missouri,29095,Jackson,38.8725,-94.174,1160,1160,119,polygon,TRUE,America/Chicago,64086 64070
Oakwood Park-MO,1840012680,Oakwood Park,Oakwood Park,MO,Oakwood Park-MO,Missouri,29047,Clay,39.2047,-94.5738,197,197,1135,polygon,TRUE,America/Chicago,64118
Curryville-MO,1840007343,Curryville,Curryville,MO,Curryville-MO,Missouri,29163,Pike,39.3458,-91.3412,227,227,319,polygon,TRUE,America/Chicago,63339
Waco-MO,1840010877,Waco,Waco,MO,Waco-MO,Missouri,29097,Jasper,37.247,-94.6003,86,86,129,polygon,TRUE,America/Chicago,64832
Lebanon-MO,1840008711,Lebanon,Lebanon,MO,Lebanon-MO,Missouri,29105,Laclede,37.6718,-92.6603,14274,14709,388,polygon,TRUE,America/Chicago,65536
Tarrants-MO,1840012604,Tarrants,Tarrants,MO,Tarrants-MO,Missouri,29163,Pike,39.3576,-91.1837,,,21.4,polygon,TRUE,America/Chicago,63334
Blackwater-MO,1840007419,Blackwater,Blackwater,MO,Blackwater-MO,Missouri,29053,Cooper,38.9793,-92.9921,164,164,193,polygon,TRUE,America/Chicago,65322
Loma Linda-MO,1840009929,Loma Linda,Loma Linda,MO,Loma Linda-MO,Missouri,29145,Newton,36.9858,-94.5922,786,786,85,polygon,TRUE,America/Chicago,64804
Denver-MO,1840012144,Denver,Denver,MO,Denver-MO,Missouri,29227,Worth,40.3989,-94.3233,37,37,37,polygon,TRUE,America/Chicago,64441
Tiff City-MO,1840032107,Tiff City,Tiff City,MO,Tiff City-MO,Missouri,29119,McDonald,36.6684,-94.6172,,,30.8,point,FALSE,America/Chicago,64831
Forsyth-MO,1840008806,Forsyth,Forsyth,MO,Forsyth-MO,Missouri,29213,Taney,36.6922,-93.1101,7315,2413,400,polygon,TRUE,America/Chicago,65653
Prairie Hill-MO,1840032093,Prairie Hill,Prairie Hill,MO,Prairie Hill-MO,Missouri,29041,Chariton,39.5186,-92.738,,,27.4,point,FALSE,America/Chicago,65281
La Monte-MO,1840008575,La Monte,La Monte,MO,La Monte-MO,Missouri,29159,Pettis,38.7722,-93.4237,1131,1131,386,polygon,TRUE,America/Chicago,65337
Browning-MO,1840005552,Browning,Browning,MO,Browning-MO,Missouri,29115,Linn,40.0348,-93.16,253,253,186,polygon,TRUE,America/Chicago,64630
Wentzville-MO,1840010717,Wentzville,Wentzville,MO,Wentzville-MO,Missouri,29183,St. Charles,38.8165,-90.8671,37395,37395,726,polygon,TRUE,America/Chicago,63385 63346
Willow Springs-MO,1840010888,Willow Springs,Willow Springs,MO,Willow Springs-MO,Missouri,29091,Howell,36.9878,-91.962,2152,2152,235,polygon,TRUE,America/Chicago,65793
Gideon-MO,1840008800,Gideon,Gideon,MO,Gideon-MO,Missouri,29143,New Madrid,36.4489,-89.9128,1022,1022,220,polygon,TRUE,America/Chicago,63848
Bucyrus-MO,1840032150,Bucyrus,Bucyrus,MO,Bucyrus-MO,Missouri,29215,Texas,37.3442,-92.0168,,,8.1,point,FALSE,America/Chicago,65444
Augusta-MO,1840010719,Augusta,Augusta,MO,Augusta-MO,Missouri,29183,St. Charles,38.5684,-90.8807,256,256,108,polygon,TRUE,America/Chicago,63332
Rea-MO,1840009475,Rea,Rea,MO,Rea-MO,Missouri,29003,Andrew,40.0616,-94.7646,50,50,161,polygon,TRUE,America/Chicago,64480
Reynolds-MO,1840032208,Reynolds,Reynolds,MO,Reynolds-MO,Missouri,29179,Reynolds,37.4009,-91.0735,,,18.3,point,FALSE,America/Chicago,63666
Redings Mill-MO,1840013046,Redings Mill,Redings Mill,MO,Redings Mill-MO,Missouri,29145,Newton,37.0196,-94.517,152,152,292,polygon,TRUE,America/Chicago,64804
Lamar-MO,1840008727,Lamar,Lamar,MO,Lamar-MO,Missouri,29011,Barton,37.4944,-94.2785,4303,4363,329,polygon,TRUE,America/Chicago,64759
Neck City-MO,1840008769,Neck City,Neck City,MO,Neck City-MO,Missouri,29097,Jasper,37.2549,-94.4449,186,186,182,polygon,TRUE,America/Chicago,64849
Zion-MO,1840032117,Zion,Zion,MO,Zion-MO,Missouri,29123,Madison,37.4217,-90.3101,,,16,point,FALSE,America/Chicago,63645
Walnut Grove-MO,1840010869,Walnut Grove,Walnut Grove,MO,Walnut Grove-MO,Missouri,29077,Greene,37.4112,-93.548,790,790,491,polygon,TRUE,America/Chicago,65770
Bragg City-MO,1840009951,Bragg City,Bragg City,MO,Bragg City-MO,Missouri,29155,Pemiscot,36.2681,-89.9114,140,140,264,polygon,TRUE,America/Chicago,63827
Tightwad-MO,1840012894,Tightwad,Tightwad,MO,Tightwad-MO,Missouri,29083,Henry,38.3096,-93.5466,67,67,25,polygon,TRUE,America/Chicago,64735
Saint James-MO,1840009850,Saint James,Saint James,MO,Saint James-MO,Missouri,29161,Phelps,38.0013,-91.6154,4028,4119,372,polygon,TRUE,America/Chicago,65559
Diehlstadt-MO,1840013037,Diehlstadt,Diehlstadt,MO,Diehlstadt-MO,Missouri,29201,Scott,36.9593,-89.4324,158,158,821,polygon,TRUE,America/Chicago,63834
Linn-MO,1840009646,Linn,Linn,MO,Linn-MO,Missouri,29151,Osage,38.4788,-91.845,1429,1429,473,polygon,TRUE,America/Chicago,65051
Rocky Ridge Ranch-MO,1840015804,Rocky Ridge Ranch,Rocky Ridge Ranch,MO,Rocky Ridge Ranch-MO,Missouri,29186,Ste. Genevieve,37.9303,-90.2385,,,74.8,point,FALSE,America/Chicago,63628
Oak Ridge-MO,1840009890,Oak Ridge,Oak Ridge,MO,Oak Ridge-MO,Missouri,29031,Cape Girardeau,37.4985,-89.7296,246,246,166,polygon,TRUE,America/Chicago,63755 63769
Hamilton-MO,1840007320,Hamilton,Hamilton,MO,Hamilton-MO,Missouri,29025,Caldwell,39.7426,-94.002,1724,1724,474,polygon,TRUE,America/Chicago,64644
Ferguson-MO,1840008584,Ferguson,Ferguson,MO,Ferguson-MO,Missouri,29189,St. Louis,38.749,-90.2949,20846,20846,1298,polygon,TRUE,America/Chicago,63136 63135
Brownbranch-MO,1840032184,Brownbranch,Brownbranch,MO,Brownbranch-MO,Missouri,29213,Taney,36.7945,-92.8307,,,3.8,point,FALSE,America/Chicago,65608
Sumner-MO,1840010610,Sumner,Sumner,MO,Sumner-MO,Missouri,29041,Chariton,39.656,-93.2434,98,98,167,polygon,TRUE,America/Chicago,64681
Mooresville-MO,1840012459,Mooresville,Mooresville,MO,Mooresville-MO,Missouri,29117,Livingston,39.7468,-93.721,87,87,187,polygon,TRUE,America/Chicago,64664
Lamar Heights-MO,1840008728,Lamar Heights,Lamar Heights,MO,Lamar Heights-MO,Missouri,29011,Barton,37.4936,-94.2956,172,172,84,polygon,TRUE,America/Chicago,64759
McKittrick-MO,1840009696,McKittrick,McKittrick,MO,McKittrick-MO,Missouri,29139,Montgomery,38.7357,-91.4449,57,57,249,polygon,TRUE,America/Chicago,65041
Cedar Hill-MO,1840006238,Cedar Hill,Cedar Hill,MO,Cedar Hill-MO,Missouri,29099,Jefferson,38.3575,-90.6409,,,285.2,polygon,FALSE,America/Chicago,63016
Amity-MO,1840010539,Amity,Amity,MO,Amity-MO,Missouri,29063,DeKalb,39.8684,-94.4354,53,53,118,polygon,TRUE,America/Chicago,64422
Fountain N' Lakes-MO,1840012729,Fountain N' Lakes,Fountain N' Lakes,MO,Fountain N' Lakes-MO,Missouri,29113,Lincoln,38.9689,-90.8493,165,165,446,polygon,TRUE,America/Chicago,63362
Emma-MO,1840008508,Emma,Emma,MO,Emma-MO,Missouri,29195,Saline,38.9751,-93.495,237,237,156,polygon,TRUE,America/Chicago,65327 64020
Hopkins-MO,1840007228,Hopkins,Hopkins,MO,Hopkins-MO,Missouri,29147,Nodaway,40.5512,-94.8171,496,496,267,polygon,TRUE,America/Chicago,64461
Greer-MO,1840032197,Greer,Greer,MO,Greer-MO,Missouri,29149,Oregon,36.7695,-91.3535,,,4.8,point,FALSE,America/Chicago,65606
Breckenridge Hills-MO,1840006127,Breckenridge Hills,Breckenridge Hills,MO,Breckenridge Hills-MO,Missouri,29189,St. Louis,38.7157,-90.3684,4668,4668,2231,polygon,TRUE,America/Chicago,63114 63074
Irwin-MO,1840025726,Irwin,Irwin,MO,Irwin-MO,Missouri,29011,Barton,37.5887,-94.2872,,,95.4,polygon,FALSE,America/Chicago,64759
Millersville-MO,1840032079,Millersville,Millersville,MO,Millersville-MO,Missouri,29031,Cape Girardeau,37.4328,-89.7995,,,47.8,point,FALSE,America/Chicago,63766
Indian Point-MO,1840013051,Indian Point,Indian Point,MO,Indian Point-MO,Missouri,29209,Stone,36.6428,-93.3444,515,515,70,polygon,TRUE,America/Chicago,65616
Sibley-MO,1840012727,Sibley,Sibley,MO,Sibley-MO,Missouri,29095,Jackson,39.1758,-94.201,360,360,133,polygon,TRUE,America/Chicago,64088 64016
Silver Lake-MO,1840032102,Silver Lake,Silver Lake,MO,Silver Lake-MO,Missouri,29157,Perry,37.6837,-89.9901,,,11.8,point,FALSE,America/Chicago,63775
Glover-MO,1840032196,Glover,Glover,MO,Glover-MO,Missouri,29093,Iron,37.4864,-90.6912,,,2.5,point,FALSE,America/Chicago,63620
Town and Country-MO,1840010738,Town and Country,Town and Country,MO,Town and Country-MO,Missouri,29189,St. Louis,38.6317,-90.4791,11113,11113,367,polygon,TRUE,America/Chicago,63017 63141 63131
Montier-MO,1840025737,Montier,Montier,MO,Montier-MO,Missouri,29203,Shannon,36.9817,-91.5749,,,75.6,polygon,FALSE,America/Chicago,65438 65546
Gibson-MO,1840032141,Gibson,Gibson,MO,Gibson-MO,Missouri,29069,Dunklin,36.4412,-90.0309,,,28.4,point,FALSE,America/Chicago,63847
Revere-MO,1840010401,Revere,Revere,MO,Revere-MO,Missouri,29045,Clark,40.4944,-91.6764,75,75,155,polygon,TRUE,America/Chicago,63465
Lake Mykee Town-MO,1840012765,Lake Mykee Town,Lake Mykee Town,MO,Lake Mykee Town-MO,Missouri,29027,Callaway,38.6763,-92.1013,354,354,738,polygon,TRUE,America/Chicago,65043
Lohman-MO,1840009795,Lohman,Lohman,MO,Lohman-MO,Missouri,29051,Cole,38.543,-92.3646,165,165,176,polygon,TRUE,America/Chicago,65053
Haywood City-MO,1840013033,Haywood City,Haywood City,MO,Haywood City-MO,Missouri,29201,Scott,37.0117,-89.6003,203,203,183,polygon,TRUE,America/Chicago,63771
Grandview-MO,1840008532,Grandview,Grandview,MO,Grandview-MO,Missouri,29095,Jackson,38.8802,-94.5227,25190,25190,660,polygon,TRUE,America/Chicago,64030
Rockaway Beach-MO,1840009945,Rockaway Beach,Rockaway Beach,MO,Rockaway Beach-MO,Missouri,29213,Taney,36.7021,-93.1622,864,864,543,polygon,TRUE,America/Chicago,65740
Clark-MO,1840007338,Clark,Clark,MO,Clark-MO,Missouri,29175,Randolph,39.2763,-92.3477,294,294,194,polygon,TRUE,America/Chicago,65243
South Fork-MO,1840025743,South Fork,South Fork,MO,South Fork-MO,Missouri,29091,Howell,36.6311,-91.9602,,,33,polygon,FALSE,America/Chicago,65775
Bucklin-MO,1840007273,Bucklin,Bucklin,MO,Bucklin-MO,Missouri,29115,Linn,39.7837,-92.8879,440,440,143,polygon,TRUE,America/Chicago,64631
Old Monroe-MO,1840009682,Old Monroe,Old Monroe,MO,Old Monroe-MO,Missouri,29113,Lincoln,38.9387,-90.7468,284,284,447,polygon,TRUE,America/Chicago,63369
Briar-MO,1840032183,Briar,Briar,MO,Briar-MO,Missouri,29181,Ripley,36.6484,-90.9718,,,3.6,point,FALSE,America/Chicago,63935
Scott City-MO,1840009923,Scott City,Scott City,MO,Scott City-MO,Missouri,29201,Scott,37.2242,-89.536,5132,4492,368,polygon,TRUE,America/Chicago,63780
Paynesville-MO,1840012603,Paynesville,Paynesville,MO,Paynesville-MO,Missouri,29163,Pike,39.2624,-90.9003,76,76,111,polygon,TRUE,America/Chicago,63344 63336 63330
Gallatin-MO,1840008391,Gallatin,Gallatin,MO,Gallatin-MO,Missouri,29061,Daviess,39.9106,-93.9642,1731,1731,243,polygon,TRUE,America/Chicago,64640
Strasburg-MO,1840009784,Strasburg,Strasburg,MO,Strasburg-MO,Missouri,29037,Cass,38.7598,-94.1648,142,142,282,polygon,TRUE,America/Chicago,64080 64090
Grayson-MO,1840032137,Grayson,Grayson,MO,Grayson-MO,Missouri,29049,Clinton,39.5333,-94.5644,,,19.8,point,FALSE,America/Chicago,64492
High Point-MO,1840032064,High Point,High Point,MO,High Point-MO,Missouri,29135,Moniteau,38.4845,-92.5907,,,13.6,point,FALSE,America/Chicago,65074
Clarksdale-MO,1840007274,Clarksdale,Clarksdale,MO,Clarksdale-MO,Missouri,29063,DeKalb,39.8139,-94.5508,267,267,318,polygon,TRUE,America/Chicago,64430
Dexter-MO,1840007643,Dexter,Dexter,MO,Dexter-MO,Missouri,29207,Stoddard,36.793,-89.9632,9125,7927,469,polygon,TRUE,America/Chicago,63841
Blue Eye-MO,1840009932,Blue Eye,Blue Eye,MO,Blue Eye-MO,Missouri,29209,Stone,36.5149,-93.383,160,160,52,polygon,TRUE,America/Chicago,65611
Glendale-MO,1840008588,Glendale,Glendale,MO,Glendale-MO,Missouri,29189,St. Louis,38.5935,-90.3826,5894,5894,1763,polygon,TRUE,America/Chicago,63122
Quincy-MO,1840032131,Quincy,Quincy,MO,Quincy-MO,Missouri,29085,Hickory,38.0084,-93.4724,,,2.5,point,FALSE,America/Chicago,65774
Shoal Creek Drive-MO,1840013048,Shoal Creek Drive,Shoal Creek Drive,MO,Shoal Creek Drive-MO,Missouri,29145,Newton,37.0371,-94.5229,339,339,276,polygon,TRUE,America/Chicago,64804
Jameson-MO,1840010525,Jameson,Jameson,MO,Jameson-MO,Missouri,29061,Daviess,40.006,-93.9877,130,130,223,polygon,TRUE,America/Chicago,64647
Jennings-MO,1840008596,Jennings,Jennings,MO,Jennings-MO,Missouri,29189,St. Louis,38.723,-90.2643,14755,14755,1526,polygon,TRUE,America/Chicago,63136
Pasadena Hills-MO,1840009746,Pasadena Hills,Pasadena Hills,MO,Pasadena Hills-MO,Missouri,29189,St. Louis,38.7083,-90.2922,914,914,1681,polygon,TRUE,America/Chicago,63121
Wooldridge-MO,1840012767,Wooldridge,Wooldridge,MO,Wooldridge-MO,Missouri,29053,Cooper,38.9066,-92.5215,62,62,393,polygon,TRUE,America/Chicago,65287
Canton-MO,1840007258,Canton,Canton,MO,Canton-MO,Missouri,29111,Lewis,40.1295,-91.5266,2377,2377,401,polygon,TRUE,America/Chicago,63435
Richmond-MO,1840009600,Richmond,Richmond,MO,Richmond-MO,Missouri,29177,Ray,39.2758,-93.9734,5103,5575,354,polygon,TRUE,America/Chicago,64085
Knob Noster-MO,1840008577,Knob Noster,Knob Noster,MO,Knob Noster-MO,Missouri,29101,Johnson,38.7676,-93.5616,2734,2734,366,polygon,TRUE,America/Chicago,65336
Kelso-MO,1840013034,Kelso,Kelso,MO,Kelso-MO,Missouri,29201,Scott,37.1924,-89.5504,605,605,736,polygon,TRUE,America/Chicago,63780 63758
Saint Peters-MO,1840009721,Saint Peters,Saint Peters,MO,Saint Peters-MO,Missouri,29183,St. Charles,38.7825,-90.6061,57289,57289,986,polygon,TRUE,America/Chicago,63376
Wilbur Park-MO,1840012831,Wilbur Park,Wilbur Park,MO,Wilbur Park-MO,Missouri,29189,St. Louis,38.5532,-90.3086,473,473,2754,polygon,TRUE,America/Chicago,63123
Steelville-MO,1840009845,Steelville,Steelville,MO,Steelville-MO,Missouri,29055,Crawford,37.9696,-91.3545,1684,1684,268,polygon,TRUE,America/Chicago,65565
Luray-MO,1840012115,Luray,Luray,MO,Luray-MO,Missouri,29045,Clark,40.4524,-91.8841,94,94,179,polygon,TRUE,America/Chicago,63453
Lockwood-MO,1840009895,Lockwood,Lockwood,MO,Lockwood-MO,Missouri,29057,Dade,37.3867,-93.9579,908,908,361,polygon,TRUE,America/Chicago,65682
Kimmswick-MO,1840008653,Kimmswick,Kimmswick,MO,Kimmswick-MO,Missouri,29099,Jefferson,38.3655,-90.3645,158,158,260,polygon,TRUE,America/Chicago,63053 63052
Caplinger Mills-MO,1840032132,Caplinger Mills,Caplinger Mills,MO,Caplinger Mills-MO,Missouri,29039,Cedar,37.7942,-93.8044,,,49.8,point,FALSE,America/Chicago,65785
Seymour-MO,1840009896,Seymour,Seymour,MO,Seymour-MO,Missouri,29225,Webster,37.1485,-92.7694,1987,1987,277,polygon,TRUE,America/Chicago,65746
Mountain View-MO,1840008791,Mountain View,Mountain View,MO,Mountain View-MO,Missouri,29091,Howell,36.9936,-91.7019,2678,2678,275,polygon,TRUE,America/Chicago,65548
Lake Winnebago-MO,1840008613,Lake Winnebago,Lake Winnebago,MO,Lake Winnebago-MO,Missouri,29037,Cass,38.8234,-94.3612,1160,1160,196,polygon,TRUE,America/Chicago,64080 64034
Belgique-MO,1840032025,Belgique,Belgique,MO,Belgique-MO,Missouri,29157,Perry,37.8376,-89.7812,,,2,point,FALSE,America/Chicago,63775
Corning-MO,1840009457,Corning,Corning,MO,Corning-MO,Missouri,29087,Holt,40.2486,-95.4545,14,14,49,polygon,TRUE,America/Chicago,64437 64446
Nixa-MO,1840008789,Nixa,Nixa,MO,Nixa-MO,Missouri,29043,Christian,37.0456,-93.2962,21201,21201,965,polygon,TRUE,America/Chicago,65714
Gentry-MO,1840012244,Gentry,Gentry,MO,Gentry-MO,Missouri,29075,Gentry,40.3326,-94.4233,71,71,119,polygon,TRUE,America/Chicago,64453
Queen City-MO,1840009412,Queen City,Queen City,MO,Queen City-MO,Missouri,29197,Schuyler,40.4127,-92.5664,590,590,221,polygon,TRUE,America/Chicago,63561
Lathrop-MO,1840008445,Lathrop,Lathrop,MO,Lathrop-MO,Missouri,29049,Clinton,39.5515,-94.3286,2046,2046,442,polygon,TRUE,America/Chicago,64465
Hartville-MO,1840007603,Hartville,Hartville,MO,Hartville-MO,Missouri,29229,Wright,37.2502,-92.512,595,595,352,polygon,TRUE,America/Chicago,65667
La Belle-MO,1840008384,La Belle,La Belle,MO,La Belle-MO,Missouri,29111,Lewis,40.1165,-91.9146,651,651,369,polygon,TRUE,America/Chicago,63447
Roby-MO,1840032209,Roby,Roby,MO,Roby-MO,Missouri,29215,Texas,37.5156,-92.139,,,21.5,point,FALSE,America/Chicago,65557
Brighton-MO,1840032027,Brighton,Brighton,MO,Brighton-MO,Missouri,29167,Polk,37.4578,-93.348,,,61,point,FALSE,America/Chicago,65617
Ozora-MO,1840025693,Ozora,Ozora,MO,Ozora-MO,Missouri,29186,Ste. Genevieve,37.8666,-90.0517,,,14.1,polygon,FALSE,America/Chicago,63673
Glenallen-MO,1840032057,Glenallen,Glenallen,MO,Glenallen-MO,Missouri,29017,Bollinger,37.3171,-90.0282,84,84,564,polygon,TRUE,America/Chicago,63751
Stanberry-MO,1840009436,Stanberry,Stanberry,MO,Stanberry-MO,Missouri,29075,Gentry,40.2166,-94.5381,1181,1181,325,polygon,TRUE,America/Chicago,64489
Ridgeway-MO,1840009420,Ridgeway,Ridgeway,MO,Ridgeway-MO,Missouri,29081,Harrison,40.3781,-93.9379,445,445,141,polygon,TRUE,America/Chicago,64481
Hoberg-MO,1840013030,Hoberg,Hoberg,MO,Hoberg-MO,Missouri,29109,Lawrence,37.0682,-93.8493,56,56,400,polygon,TRUE,America/Chicago,65712
Tunas-MO,1840032108,Tunas,Tunas,MO,Tunas-MO,Missouri,29059,Dallas,37.8498,-93.0277,,,3.2,point,FALSE,America/Chicago,65764
Zalma-MO,1840013010,Zalma,Zalma,MO,Zalma-MO,Missouri,29017,Bollinger,37.1432,-90.0804,89,89,193,polygon,TRUE,America/Chicago,63787
Henley-MO,1840032063,Henley,Henley,MO,Henley-MO,Missouri,29051,Cole,38.3445,-92.3224,,,29.8,point,FALSE,America/Chicago,65040
Union-MO,1840010769,Union,Union,MO,Union-MO,Missouri,29071,Franklin,38.4401,-90.9928,9567,11277,478,polygon,TRUE,America/Chicago,63084
Westboro-MO,1840010411,Westboro,Westboro,MO,Westboro-MO,Missouri,29005,Atchison,40.535,-95.3211,133,133,202,polygon,TRUE,America/Chicago,64498
Rushville-MO,1840010600,Rushville,Rushville,MO,Rushville-MO,Missouri,29021,Buchanan,39.5873,-95.0245,275,275,549,polygon,TRUE,America/Chicago,64484
Highlandville-MO,1840007646,Highlandville,Highlandville,MO,Highlandville-MO,Missouri,29043,Christian,36.9409,-93.283,985,985,75,polygon,TRUE,America/Chicago,65721 65669
Patton-MO,1840032206,Patton,Patton,MO,Patton-MO,Missouri,29017,Bollinger,37.5023,-90.0134,,,33.3,point,FALSE,America/Chicago,63662
Lewistown-MO,1840009458,Lewistown,Lewistown,MO,Lewistown-MO,Missouri,29111,Lewis,40.0847,-91.8137,526,526,422,polygon,TRUE,America/Chicago,63452
Herculaneum-MO,1840007507,Herculaneum,Herculaneum,MO,Herculaneum-MO,Missouri,29099,Jefferson,38.2573,-90.3934,3965,3965,376,polygon,TRUE,America/Chicago,63028 63048
Freeburg-MO,1840012864,Freeburg,Freeburg,MO,Freeburg-MO,Missouri,29151,Osage,38.3163,-91.9223,432,432,199,polygon,TRUE,America/Chicago,65035
Rush Hill-MO,1840012699,Rush Hill,Rush Hill,MO,Rush Hill-MO,Missouri,29007,Audrain,39.2102,-91.7248,153,153,329,polygon,TRUE,America/Chicago,65280
Creighton-MO,1840007461,Creighton,Creighton,MO,Creighton-MO,Missouri,29037,Cass,38.4965,-94.072,346,346,387,polygon,TRUE,America/Chicago,64739
Uplands Park-MO,1840012825,Uplands Park,Uplands Park,MO,Uplands Park-MO,Missouri,29189,St. Louis,38.6926,-90.2829,443,443,2419,polygon,TRUE,America/Chicago,63121
Spickard-MO,1840009453,Spickard,Spickard,MO,Spickard-MO,Missouri,29079,Grundy,40.2432,-93.5923,253,253,154,polygon,TRUE,America/Chicago,64679
Greenfield-MO,1840008740,Greenfield,Greenfield,MO,Greenfield-MO,Missouri,29057,Dade,37.4162,-93.8432,1319,1319,448,polygon,TRUE,America/Chicago,65661
Edina-MO,1840008374,Edina,Edina,MO,Edina-MO,Missouri,29103,Knox,40.168,-92.1732,1112,1112,328,polygon,TRUE,America/Chicago,63537
Elm Point-MO,1840032234,Elm Point,Elm Point,MO,Elm Point-MO,Missouri,29183,St. Charles,38.8181,-90.4871,,,1686.1,point,FALSE,America/Chicago,63301
Butterfield-MO,1840010898,Butterfield,Butterfield,MO,Butterfield-MO,Missouri,29009,Barry,36.7464,-93.9047,461,461,384,polygon,TRUE,America/Chicago,65625 65623
Saint Cloud-MO,1840012950,Saint Cloud,Saint Cloud,MO,Saint Cloud-MO,Missouri,29055,Crawford,38.1732,-91.2127,41,41,12,polygon,TRUE,America/Chicago,65441 63080
Bowling Green-MO,1840007344,Bowling Green,Bowling Green,MO,Bowling Green-MO,Missouri,29163,Pike,39.3447,-91.2031,5533,5510,791,polygon,TRUE,America/Chicago,63334
Pacific-MO,1840009644,Pacific,Pacific,MO,Pacific-MO,Missouri,29071,Franklin,38.4807,-90.7536,10633,7210,463,polygon,TRUE,America/Chicago,63069
Naylor-MO,1840008805,Naylor,Naylor,MO,Naylor-MO,Missouri,29181,Ripley,36.5745,-90.6056,616,616,429,polygon,TRUE,America/Chicago,63953
Westphalia-MO,1840010771,Westphalia,Westphalia,MO,Westphalia-MO,Missouri,29151,Osage,38.4414,-92.0005,390,390,283,polygon,TRUE,America/Chicago,65085 65035
Hartwell-MO,1840025664,Hartwell,Hartwell,MO,Hartwell-MO,Missouri,29083,Henry,38.4331,-93.9342,,,15.6,polygon,FALSE,America/Chicago,64788
Birmingham-MO,1840012674,Birmingham,Birmingham,MO,Birmingham-MO,Missouri,29047,Clay,39.1676,-94.4501,196,196,134,polygon,TRUE,America/Chicago,64161
Sycamore Hills-MO,1840012826,Sycamore Hills,Sycamore Hills,MO,Sycamore Hills-MO,Missouri,29189,St. Louis,38.7013,-90.3489,667,667,1817,polygon,TRUE,America/Chicago,63114
Koshkonong-MO,1840009938,Koshkonong,Koshkonong,MO,Koshkonong-MO,Missouri,29149,Oregon,36.5978,-91.646,210,210,463,polygon,TRUE,America/Chicago,65692
Raymore-MO,1840009787,Raymore,Raymore,MO,Raymore-MO,Missouri,29037,Cass,38.8029,-94.4583,20839,20839,465,polygon,TRUE,America/Chicago,64083
Centerville-MO,1840007597,Centerville,Centerville,MO,Centerville-MO,Missouri,29179,Reynolds,37.4368,-90.9601,189,189,228,polygon,TRUE,America/Chicago,63633
Nevada-MO,1840008690,Nevada,Nevada,MO,Nevada-MO,Missouri,29217,Vernon,37.8445,-94.3492,8660,8224,353,polygon,TRUE,America/Chicago,64772
Keyes Summit-MO,1840032237,Keyes Summit,Keyes Summit,MO,Keyes Summit-MO,Missouri,29189,St. Louis,38.5673,-90.4629,,,179.7,point,FALSE,America/Chicago,63122
Rich Hill-MO,1840009811,Rich Hill,Rich Hill,MO,Rich Hill-MO,Missouri,29013,Bates,38.0959,-94.3633,1332,1332,376,polygon,TRUE,America/Chicago,64779
Seligman-MO,1840009934,Seligman,Seligman,MO,Seligman-MO,Missouri,29009,Barry,36.5231,-93.9387,834,834,258,polygon,TRUE,America/Chicago,65745
Sabula-MO,1840032214,Sabula,Sabula,MO,Sabula-MO,Missouri,29093,Iron,37.4048,-90.6962,,,16.9,point,FALSE,America/Chicago,63620
Denton-MO,1840032041,Denton,Denton,MO,Denton-MO,Missouri,29155,Pemiscot,36.0898,-89.8915,,,24,point,FALSE,America/Chicago,63877
Shoveltown-MO,1840032247,Shoveltown,Shoveltown,MO,Shoveltown-MO,Missouri,29189,St. Louis,38.8156,-90.2807,,,885.8,point,FALSE,America/Chicago,63034
Loch Lloyd-MO,1840032257,Loch Lloyd,Loch Lloyd,MO,Loch Lloyd-MO,Missouri,29037,Cass,38.831,-94.5977,725,725,159,polygon,TRUE,America/Chicago,64012
Ellsinore-MO,1840008786,Ellsinore,Ellsinore,MO,Ellsinore-MO,Missouri,29035,Carter,36.9327,-90.7477,450,450,343,polygon,TRUE,America/Chicago,63937
De Kalb-MO,1840009550,De Kalb,De Kalb,MO,De Kalb-MO,Missouri,29021,Buchanan,39.5883,-94.9236,219,219,331,polygon,TRUE,America/Chicago,64440
Bel-Nor-MO,1840012815,Bel-Nor,Bel-Nor,MO,Bel-Nor-MO,Missouri,29189,St. Louis,38.7017,-90.3179,1466,1466,889,polygon,TRUE,America/Chicago,63121
Annapolis-MO,1840007583,Annapolis,Annapolis,MO,Annapolis-MO,Missouri,29093,Iron,37.3605,-90.6976,342,342,353,polygon,TRUE,America/Chicago,63620
Cassville-MO,1840007654,Cassville,Cassville,MO,Cassville-MO,Missouri,29009,Barry,36.6789,-93.868,4177,3340,400,polygon,TRUE,America/Chicago,65625
Calhoun-MO,1840007491,Calhoun,Calhoun,MO,Calhoun-MO,Missouri,29083,Henry,38.4683,-93.6251,447,447,175,polygon,TRUE,America/Chicago,65323
Utica-MO,1840012460,Utica,Utica,MO,Utica-MO,Missouri,29117,Livingston,39.7455,-93.6287,255,255,113,polygon,TRUE,America/Chicago,64686
Greentop-MO,1840008345,Greentop,Greentop,MO,Greentop-MO,Missouri,29197,Schuyler,40.3508,-92.5657,438,438,206,polygon,TRUE,America/Chicago,63546
Junction City-MO,1840012996,Junction City,Junction City,MO,Junction City-MO,Missouri,29123,Madison,37.5733,-90.2907,330,330,355,polygon,TRUE,America/Chicago,63645
Sunset Hills-MO,1840009742,Sunset Hills,Sunset Hills,MO,Sunset Hills-MO,Missouri,29189,St. Louis,38.531,-90.4088,8497,8497,360,polygon,TRUE,America/Chicago,63128 63127
Golden City-MO,1840008725,Golden City,Golden City,MO,Golden City-MO,Missouri,29011,Barton,37.3931,-94.0942,731,731,272,polygon,TRUE,America/Chicago,64748
Glasgow-MO,1840008519,Glasgow,Glasgow,MO,Glasgow-MO,Missouri,29089,Howard,39.2279,-92.8393,1091,1091,324,polygon,TRUE,America/Chicago,65254
Hume-MO,1840010807,Hume,Hume,MO,Hume-MO,Missouri,29013,Bates,38.0906,-94.5827,325,325,189,polygon,TRUE,America/Chicago,64752
Wittenberg-MO,1840032164,Wittenberg,Wittenberg,MO,Wittenberg-MO,Missouri,29157,Perry,37.6526,-89.5245,,,2,point,FALSE,America/Chicago,63748
Dresden-MO,1840032043,Dresden,Dresden,MO,Dresden-MO,Missouri,29159,Pettis,38.7511,-93.3349,,,85.9,point,FALSE,America/Chicago,65301
Windyville-MO,1840032114,Windyville,Windyville,MO,Windyville-MO,Missouri,29059,Dallas,37.7067,-92.9271,,,5.3,point,FALSE,America/Chicago,65783
Swedeborg-MO,1840032105,Swedeborg,Swedeborg,MO,Swedeborg-MO,Missouri,29169,Pulaski,37.9139,-92.3318,,,57,point,FALSE,America/Chicago,65556
Crystal City-MO,1840007505,Crystal City,Crystal City,MO,Crystal City-MO,Missouri,29099,Jefferson,38.2221,-90.3808,4823,4823,408,polygon,TRUE,America/Chicago,63028 63019
Clayton-MO,1840007439,Clayton,Clayton,MO,Clayton-MO,Missouri,29189,St. Louis,38.6443,-90.3301,16623,16623,2590,polygon,TRUE,America/Chicago,63105
Edgerton-MO,1840008483,Edgerton,Edgerton,MO,Edgerton-MO,Missouri,29165,Platte,39.5022,-94.629,587,587,203,polygon,TRUE,America/Chicago,64444
Carrollton-MO,1840007333,Carrollton,Carrollton,MO,Carrollton-MO,Missouri,29033,Carroll,39.3636,-93.4955,3138,3603,333,polygon,TRUE,America/Chicago,64633
Marionville-MO,1840008779,Marionville,Marionville,MO,Marionville-MO,Missouri,29109,Lawrence,37.0023,-93.636,2197,2197,477,polygon,TRUE,America/Chicago,65705
Urich-MO,1840010790,Urich,Urich,MO,Urich-MO,Missouri,29083,Henry,38.4605,-93.9991,483,483,461,polygon,TRUE,America/Chicago,64788
Airport Drive-MO,1840010879,Airport Drive,Airport Drive,MO,Airport Drive-MO,Missouri,29097,Jasper,37.1405,-94.5162,845,845,162,polygon,TRUE,America/Chicago,64870 64801
Falcon-MO,1840032193,Falcon,Falcon,MO,Falcon-MO,Missouri,29105,Laclede,37.605,-92.3788,,,4.4,point,FALSE,America/Chicago,65470
McCord Bend-MO,1840013053,McCord Bend,McCord Bend,MO,McCord Bend-MO,Missouri,29209,Stone,36.7875,-93.5034,284,284,374,polygon,TRUE,America/Chicago,65656
Gower-MO,1840008444,Gower,Gower,MO,Gower-MO,Missouri,29049,Clinton,39.6129,-94.5947,1498,1498,584,polygon,TRUE,America/Chicago,64454
Cherryville-MO,1840032186,Cherryville,Cherryville,MO,Cherryville-MO,Missouri,29055,Crawford,37.852,-91.2768,,,14.6,point,FALSE,America/Chicago,65446
Bradleyville-MO,1840032182,Bradleyville,Bradleyville,MO,Bradleyville-MO,Missouri,29213,Taney,36.7837,-92.9082,,,7.5,point,TRUE,America/Chicago,65614
Lupus-MO,1840009727,Lupus,Lupus,MO,Lupus-MO,Missouri,29135,Moniteau,38.8459,-92.454,34,34,71,polygon,TRUE,America/Chicago,65046
South Shore-MO,1840032248,South Shore,South Shore,MO,South Shore-MO,Missouri,29183,St. Charles,38.8653,-90.5232,,,61.4,point,FALSE,America/Chicago,63301
Oxly-MO,1840025749,Oxly,Oxly,MO,Oxly-MO,Missouri,29181,Ripley,36.6025,-90.679,,,92.7,polygon,FALSE,America/Chicago,63955
Charlack-MO,1840007445,Charlack,Charlack,MO,Charlack-MO,Missouri,29189,St. Louis,38.7029,-90.3426,1363,1363,1961,polygon,TRUE,America/Chicago,63114
Eureka-MO,1840008582,Eureka,Eureka,MO,Eureka-MO,Missouri,29189,St. Louis,38.5013,-90.6492,11641,10534,381,polygon,TRUE,America/Chicago,63025 63069
Hurdland-MO,1840007254,Hurdland,Hurdland,MO,Hurdland-MO,Missouri,29103,Knox,40.1489,-92.3034,157,157,182,polygon,TRUE,America/Chicago,63547
Chesapeake-MO,1840025738,Chesapeake,Chesapeake,MO,Chesapeake-MO,Missouri,29109,Lawrence,37.1161,-93.6791,,,16.1,polygon,FALSE,America/Chicago,65712
Joplin-MO,1840008771,Joplin,Joplin,MO,Joplin-MO,Missouri,29097,Jasper,37.0766,-94.5016,86144,52195,548,polygon,TRUE,America/Chicago,64804 64801 64802 64803
Dunnegan-MO,1840032151,Dunnegan,Dunnegan,MO,Dunnegan-MO,Missouri,29167,Polk,37.7081,-93.5769,,,79.9,point,FALSE,America/Chicago,65640
Phelps City-MO,1840025542,Phelps City,Phelps City,MO,Phelps City-MO,Missouri,29005,Atchison,40.4006,-95.595,,,12.6,polygon,FALSE,America/Chicago,64482
Oakville-MO,1840006121,Oakville,Oakville,MO,Oakville-MO,Missouri,29189,St. Louis,38.4472,-90.3199,,,1780.8,polygon,FALSE,America/Chicago,63129
Saint Louis-MO,1840001651,Saint Louis,Saint Louis,MO,Saint Louis-MO,Missouri,29510,St. Louis (city),38.6358,-90.2451,2096990,311404,1940,polygon,TRUE,America/Chicago,63110 63111 63112 63113 63115 63116 63118 63120 63107 63106 63104 63103 63102 63101 63109 63108 63155 63139 63137 63143 63147 63145 63150 63151 63156 63157 63158 63160 63163 63164 63166 63167 63169 63171 63177 63178 63179 63180 63182 63188 63195 63197 63199
Pasadena Park-MO,1840012824,Pasadena Park,Pasadena Park,MO,Pasadena Park-MO,Missouri,29189,St. Louis,38.711,-90.2974,456,456,1800,polygon,TRUE,America/Chicago,63121
Lawson-MO,1840008487,Lawson,Lawson,MO,Lawson-MO,Missouri,29177,Ray,39.4359,-94.2154,2406,2406,371,polygon,TRUE,America/Chicago,64062
Truxton-MO,1840012731,Truxton,Truxton,MO,Truxton-MO,Missouri,29113,Lincoln,39.0035,-91.2403,95,95,149,polygon,TRUE,America/Chicago,63381
Brashear-MO,1840005482,Brashear,Brashear,MO,Brashear-MO,Missouri,29001,Adair,40.1483,-92.3789,267,267,294,polygon,TRUE,America/Chicago,63533
Gray Summit-MO,1840006160,Gray Summit,Gray Summit,MO,Gray Summit-MO,Missouri,29071,Franklin,38.4951,-90.8173,,,106.4,polygon,FALSE,America/Chicago,63039 63069 63055
House Springs-MO,1840032066,House Springs,House Springs,MO,House Springs-MO,Missouri,29099,Jefferson,38.4089,-90.5701,,,409.1,point,FALSE,America/Chicago,63051
Wheaton-MO,1840010897,Wheaton,Wheaton,MO,Wheaton-MO,Missouri,29009,Barry,36.7616,-94.057,694,694,527,polygon,TRUE,America/Chicago,64874
Wheeling-MO,1840010562,Wheeling,Wheeling,MO,Wheeling-MO,Missouri,29117,Livingston,39.7861,-93.3862,263,263,316,polygon,TRUE,America/Chicago,64688
Kingdom City-MO,1840012764,Kingdom City,Kingdom City,MO,Kingdom City-MO,Missouri,29027,Callaway,38.9473,-91.939,130,130,27,polygon,TRUE,America/Chicago,65262
Weaubleau-MO,1840010839,Weaubleau,Weaubleau,MO,Weaubleau-MO,Missouri,29085,Hickory,37.8915,-93.5404,401,401,178,polygon,TRUE,America/Chicago,65774
Terre du Lac-MO,1840025697,Terre du Lac,Terre du Lac,MO,Terre du Lac-MO,Missouri,29187,St. Francois,37.9117,-90.6254,,,267.4,point,FALSE,America/Chicago,63628
Plevna-MO,1840025557,Plevna,Plevna,MO,Plevna-MO,Missouri,29103,Knox,39.9765,-92.0852,,,8.4,polygon,FALSE,America/Chicago,63464
Walnut Shade-MO,1840032111,Walnut Shade,Walnut Shade,MO,Walnut Shade-MO,Missouri,29213,Taney,36.7326,-93.1935,,,37.1,point,FALSE,America/Chicago,65771
Belgrade-MO,1840032178,Belgrade,Belgrade,MO,Belgrade-MO,Missouri,29221,Washington,37.7867,-90.8493,,,115,point,FALSE,America/Chicago,63622
Stella-MO,1840010895,Stella,Stella,MO,Stella-MO,Missouri,29145,Newton,36.7624,-94.1908,159,159,390,polygon,TRUE,America/Chicago,64867
Qulin-MO,1840009936,Qulin,Qulin,MO,Qulin-MO,Missouri,29023,Butler,36.5977,-90.2522,449,449,384,polygon,TRUE,America/Chicago,63961
Wood Heights-MO,1840010644,Wood Heights,Wood Heights,MO,Wood Heights-MO,Missouri,29177,Ray,39.3414,-94.1635,697,697,118,polygon,TRUE,America/Chicago,64024
Bunceton-MO,1840007418,Bunceton,Bunceton,MO,Bunceton-MO,Missouri,29053,Cooper,38.7894,-92.7992,350,350,143,polygon,TRUE,America/Chicago,65237
Protem-MO,1840032207,Protem,Protem,MO,Protem-MO,Missouri,29213,Taney,36.529,-92.8588,,,4.4,point,FALSE,America/Chicago,65733
Leslie-MO,1840012860,Leslie,Leslie,MO,Leslie-MO,Missouri,29071,Franklin,38.4179,-91.2312,169,169,383,polygon,TRUE,America/Chicago,63056
Salisbury-MO,1840009559,Salisbury,Salisbury,MO,Salisbury-MO,Missouri,29041,Chariton,39.4233,-92.8026,1544,1544,448,polygon,TRUE,America/Chicago,65281
Pleasant Green-MO,1840032091,Pleasant Green,Pleasant Green,MO,Pleasant Green-MO,Missouri,29053,Cooper,38.8061,-92.9627,,,6.6,point,FALSE,America/Chicago,65276
Irena-MO,1840012143,Irena,Irena,MO,Irena-MO,Missouri,29227,Worth,40.5403,-94.39,17,17,7,polygon,TRUE,America/Chicago,64456
Lake Saint Louis-MO,1840008572,Lake Saint Louis,Lake Saint Louis,MO,Lake Saint Louis-MO,Missouri,29183,St. Charles,38.785,-90.7872,15777,15777,758,polygon,TRUE,America/Chicago,63367
Myrtle-MO,1840032083,Myrtle,Myrtle,MO,Myrtle-MO,Missouri,29149,Oregon,36.5087,-91.2671,,,12.6,point,FALSE,America/Chicago,65778
Grain Valley-MO,1840008531,Grain Valley,Grain Valley,MO,Grain Valley-MO,Missouri,29095,Jackson,39.0166,-94.2086,13684,13684,869,polygon,TRUE,America/Chicago,64029
Yukon-MO,1840032116,Yukon,Yukon,MO,Yukon-MO,Missouri,29215,Texas,37.2731,-91.8482,,,5.7,point,FALSE,America/Chicago,65589
Laddonia-MO,1840008516,Laddonia,Laddonia,MO,Laddonia-MO,Missouri,29007,Audrain,39.2434,-91.6424,507,507,299,polygon,TRUE,America/Chicago,63352
Manchester-MO,1840009739,Manchester,Manchester,MO,Manchester-MO,Missouri,29189,St. Louis,38.5831,-90.5064,18146,18146,1379,polygon,TRUE,America/Chicago,63021 63011
Hayti Heights-MO,1840007671,Hayti Heights,Hayti Heights,MO,Hayti Heights-MO,Missouri,29155,Pemiscot,36.2311,-89.7682,574,574,226,polygon,TRUE,America/Chicago,63851
Rover-MO,1840032175,Rover,Rover,MO,Rover-MO,Missouri,29149,Oregon,36.7217,-91.621,,,5.5,point,FALSE,America/Chicago,65775
Van Buren-MO,1840010884,Van Buren,Van Buren,MO,Van Buren-MO,Missouri,29035,Carter,37.0082,-91.0113,828,828,159,polygon,TRUE,America/Chicago,63965
Lynchburg-MO,1840032201,Lynchburg,Lynchburg,MO,Lynchburg-MO,Missouri,29105,Laclede,37.4931,-92.2943,,,14.5,point,FALSE,America/Chicago,65543
Humphreys-MO,1840012240,Humphreys,Humphreys,MO,Humphreys-MO,Missouri,29211,Sullivan,40.1252,-93.3196,111,111,171,polygon,TRUE,America/Chicago,64646
Dudley-MO,1840008784,Dudley,Dudley,MO,Dudley-MO,Missouri,29207,Stoddard,36.7897,-90.0918,229,229,227,polygon,TRUE,America/Chicago,63936
Affton-MO,1840006124,Affton,Affton,MO,Affton-MO,Missouri,29189,St. Louis,38.5493,-90.3256,,,1867,polygon,FALSE,America/Chicago,63123
Eagle Rock-MO,1840025744,Eagle Rock,Eagle Rock,MO,Eagle Rock-MO,Missouri,29009,Barry,36.5498,-93.7416,,,50.3,polygon,FALSE,America/Chicago,65641
Newark-MO,1840012312,Newark,Newark,MO,Newark-MO,Missouri,29103,Knox,39.9946,-91.9734,90,90,107,polygon,TRUE,America/Chicago,63458
Saint Clement-MO,1840026644,Saint Clement,Saint Clement,MO,Saint Clement-MO,Missouri,29163,Pike,39.2829,-91.2098,,,23.6,polygon,FALSE,America/Chicago,63334
Canalou-MO,1840007656,Canalou,Canalou,MO,Canalou-MO,Missouri,29143,New Madrid,36.754,-89.6865,309,309,592,polygon,TRUE,America/Chicago,63828
Northwoods-MO,1840008593,Northwoods,Northwoods,MO,Northwoods-MO,Missouri,29189,St. Louis,38.7035,-90.2824,4150,4150,2281,polygon,TRUE,America/Chicago,63121
Dixon-MO,1840007557,Dixon,Dixon,MO,Dixon-MO,Missouri,29169,Pulaski,37.9952,-92.0956,1472,1472,544,polygon,TRUE,America/Chicago,65459
North Lilbourn-MO,1840013056,North Lilbourn,North Lilbourn,MO,North Lilbourn-MO,Missouri,29143,New Madrid,36.6018,-89.6221,46,46,102,polygon,TRUE,America/Chicago,63862
Emden-MO,1840032152,Emden,Emden,MO,Emden-MO,Missouri,29205,Shelby,39.7964,-91.8629,,,3,point,FALSE,America/Chicago,63439
Atlas-MO,1840032022,Atlas,Atlas,MO,Atlas-MO,Missouri,29097,Jasper,37.0951,-94.3861,,,21.8,point,FALSE,America/Chicago,64801
Annada-MO,1840010626,Annada,Annada,MO,Annada-MO,Missouri,29163,Pike,39.2622,-90.8287,29,29,183,polygon,TRUE,America/Chicago,63330
Oaks-MO,1840012677,Oaks,Oaks,MO,Oaks-MO,Missouri,29047,Clay,39.197,-94.572,135,135,575,polygon,TRUE,America/Chicago,64118
Brunswick-MO,1840007322,Brunswick,Brunswick,MO,Brunswick-MO,Missouri,29041,Chariton,39.4256,-93.1266,822,822,263,polygon,TRUE,America/Chicago,65236
Eagleville-MO,1840010419,Eagleville,Eagleville,MO,Eagleville-MO,Missouri,29081,Harrison,40.4684,-93.9862,303,303,115,polygon,TRUE,America/Chicago,64442
Jerico Springs-MO,1840012980,Jerico Springs,Jerico Springs,MO,Jerico Springs-MO,Missouri,29039,Cedar,37.6197,-94.0113,230,230,129,polygon,TRUE,America/Chicago,64756
Moundville-MO,1840009861,Moundville,Moundville,MO,Moundville-MO,Missouri,29217,Vernon,37.7646,-94.451,121,121,288,polygon,TRUE,America/Chicago,64771
Richmond Heights-MO,1840009769,Richmond Heights,Richmond Heights,MO,Richmond Heights-MO,Missouri,29189,St. Louis,38.6309,-90.3332,8389,8389,1414,polygon,TRUE,America/Chicago,63117
Waverly-MO,1840010678,Waverly,Waverly,MO,Waverly-MO,Missouri,29107,Lafayette,39.2072,-93.5187,832,832,254,polygon,TRUE,America/Chicago,64096
Lodi-MO,1840032075,Lodi,Lodi,MO,Lodi-MO,Missouri,29223,Wayne,37.2564,-90.4529,,,7.3,point,FALSE,America/Chicago,63964
Wildwood-MO,1840010746,Wildwood,Wildwood,MO,Wildwood-MO,Missouri,29189,St. Louis,38.5798,-90.6697,35756,35756,207,polygon,TRUE,America/Chicago,63025 63021 63011 63040 63038 63069 63005
Iron Gates-MO,1840032067,Iron Gates,Iron Gates,MO,Iron Gates-MO,Missouri,29097,Jasper,37.067,-94.5544,,,621.5,point,FALSE,America/Chicago,64804
La Plata-MO,1840008400,La Plata,La Plata,MO,La Plata-MO,Missouri,29121,Macon,40.0242,-92.4914,1319,1319,320,polygon,TRUE,America/Chicago,63549
Kearney-MO,1840008501,Kearney,Kearney,MO,Kearney-MO,Missouri,29047,Clay,39.3548,-94.3589,8607,9790,293,polygon,TRUE,America/Chicago,64060
Rothville-MO,1840012576,Rothville,Rothville,MO,Rothville-MO,Missouri,29041,Chariton,39.6539,-93.0637,96,96,187,polygon,TRUE,America/Chicago,64676
Tindall-MO,1840010492,Tindall,Tindall,MO,Tindall-MO,Missouri,29079,Grundy,40.1609,-93.6097,77,77,225,polygon,TRUE,America/Chicago,64683
Monticello-MO,1840012352,Monticello,Monticello,MO,Monticello-MO,Missouri,29111,Lewis,40.119,-91.7131,98,98,145,polygon,TRUE,America/Chicago,63457
Gravois Mills-MO,1840010775,Gravois Mills,Gravois Mills,MO,Gravois Mills-MO,Missouri,29141,Morgan,38.3049,-92.8244,143,143,74,polygon,TRUE,America/Chicago,65037
Cape Fair-MO,1840032185,Cape Fair,Cape Fair,MO,Cape Fair-MO,Missouri,29209,Stone,36.7301,-93.5102,,,53.5,point,FALSE,America/Chicago,65624
Brookline-MO,1840032148,Brookline,Brookline,MO,Brookline-MO,Missouri,29077,Greene,37.1634,-93.4202,,,97.9,point,FALSE,America/Chicago,65619
Harris-MO,1840010453,Harris,Harris,MO,Harris-MO,Missouri,29211,Sullivan,40.3062,-93.3504,57,57,142,polygon,TRUE,America/Chicago,64645
Dora-MO,1840032191,Dora,Dora,MO,Dora-MO,Missouri,29153,Ozark,36.777,-92.2174,,,21.7,point,FALSE,America/Chicago,65637
Tallapoosa-MO,1840009940,Tallapoosa,Tallapoosa,MO,Tallapoosa-MO,Missouri,29143,New Madrid,36.5061,-89.817,159,159,137,polygon,TRUE,America/Chicago,63878 63848
Defiance-MO,1840024597,Defiance,Defiance,MO,Defiance-MO,Missouri,29183,St. Charles,38.6327,-90.7846,,,34.6,polygon,FALSE,America/Chicago,63341
Valley Park-MO,1840010740,Valley Park,Valley Park,MO,Valley Park-MO,Missouri,29189,St. Louis,38.5513,-90.4923,6911,6911,652,polygon,TRUE,America/Chicago,63088
Laclede-MO,1840008404,Laclede,Laclede,MO,Laclede-MO,Missouri,29115,Linn,39.7878,-93.1697,323,323,99,polygon,TRUE,America/Chicago,64651
Vandalia-MO,1840010671,Vandalia,Vandalia,MO,Vandalia-MO,Missouri,29007,Audrain,39.308,-91.4892,4007,4275,735,polygon,TRUE,America/Chicago,63382
Missouri City-MO,1840008499,Missouri City,Missouri City,MO,Missouri City-MO,Missouri,29047,Clay,39.2399,-94.3011,279,279,120,polygon,TRUE,America/Chicago,64068 64072
Rutledge-MO,1840010404,Rutledge,Rutledge,MO,Rutledge-MO,Missouri,29199,Scotland,40.314,-92.0876,112,112,325,polygon,TRUE,America/Chicago,63563
Goss-MO,1840015793,Goss,Goss,MO,Goss-MO,Missouri,29137,Monroe,39.5149,-91.9433,0,0,0,polygon,TRUE,America/Chicago,65275
Longtown-MO,1840009872,Longtown,Longtown,MO,Longtown-MO,Missouri,29157,Perry,37.6702,-89.7741,101,101,312,polygon,TRUE,America/Chicago,63775
Ashley-MO,1840025602,Ashley,Ashley,MO,Ashley-MO,Missouri,29163,Pike,39.2537,-91.2239,,,84.1,polygon,FALSE,America/Chicago,63334
Glenaire-MO,1840008497,Glenaire,Glenaire,MO,Glenaire-MO,Missouri,29047,Clay,39.2198,-94.4515,581,581,827,polygon,TRUE,America/Chicago,64068
Miami-MO,1840008510,Miami,Miami,MO,Miami-MO,Missouri,29195,Saline,39.3224,-93.2258,173,173,119,polygon,TRUE,America/Chicago,65344
Bowers Mill-MO,1840032172,Bowers Mill,Bowers Mill,MO,Bowers Mill-MO,Missouri,29109,Lawrence,37.1498,-94.0563,,,39.1,point,FALSE,America/Chicago,64848
Arbela-MO,1840010405,Arbela,Arbela,MO,Arbela-MO,Missouri,29199,Scotland,40.4631,-92.0156,42,42,181,polygon,TRUE,America/Chicago,63432
Middletown-MO,1840009697,Middletown,Middletown,MO,Middletown-MO,Missouri,29139,Montgomery,39.1286,-91.4138,158,158,189,polygon,TRUE,America/Chicago,63359
Merwin-MO,1840012917,Merwin,Merwin,MO,Merwin-MO,Missouri,29013,Bates,38.4041,-94.5908,56,56,147,polygon,TRUE,America/Chicago,64723
Risco-MO,1840009943,Risco,Risco,MO,Risco-MO,Missouri,29143,New Madrid,36.5512,-89.8186,321,321,221,polygon,TRUE,America/Chicago,63874
Rome-MO,1840032211,Rome,Rome,MO,Rome-MO,Missouri,29067,Douglas,36.8414,-92.7735,,,4.7,point,FALSE,America/Chicago,65608
Climax Springs-MO,1840012919,Climax Springs,Climax Springs,MO,Climax Springs-MO,Missouri,29029,Camden,38.1016,-93.0541,,,98.9,polygon,FALSE,America/Chicago,65324
Pagedale-MO,1840009745,Pagedale,Pagedale,MO,Pagedale-MO,Missouri,29189,St. Louis,38.6801,-90.3081,3292,3292,1062,polygon,TRUE,America/Chicago,63133
Normandy-MO,1840008592,Normandy,Normandy,MO,Normandy-MO,Missouri,29189,St. Louis,38.707,-90.3008,4934,4934,1030,polygon,TRUE,America/Chicago,63121
Centertown-MO,1840009634,Centertown,Centertown,MO,Centertown-MO,Missouri,29051,Cole,38.618,-92.409,284,284,115,polygon,TRUE,America/Chicago,65023
New Madrid-MO,1840008803,New Madrid,New Madrid,MO,New Madrid-MO,Missouri,29143,New Madrid,36.5879,-89.5505,3049,2957,254,polygon,TRUE,America/Chicago,63869
Arcola-MO,1840013012,Arcola,Arcola,MO,Arcola-MO,Missouri,29057,Dade,37.5493,-93.8761,54,54,70,polygon,TRUE,America/Chicago,65603
Kewanee-MO,1840032069,Kewanee,Kewanee,MO,Kewanee-MO,Missouri,29143,New Madrid,36.6712,-89.574,,,40.9,point,FALSE,America/Chicago,63860
Cool Valley-MO,1840007440,Cool Valley,Cool Valley,MO,Cool Valley-MO,Missouri,29189,St. Louis,38.7251,-90.3058,1175,1175,955,polygon,TRUE,America/Chicago,63121
Phillipsburg-MO,1840012983,Phillipsburg,Phillipsburg,MO,Phillipsburg-MO,Missouri,29105,Laclede,37.5525,-92.7871,202,202,97,polygon,TRUE,America/Chicago,65722
Liberal-MO,1840008729,Liberal,Liberal,MO,Liberal-MO,Missouri,29011,Barton,37.559,-94.5161,724,724,336,polygon,TRUE,America/Chicago,64762
Middle Grove-MO,1840032078,Middle Grove,Middle Grove,MO,Middle Grove-MO,Missouri,29137,Monroe,39.395,-92.2705,,,40.3,point,FALSE,America/Chicago,65263
Savannah-MO,1840009477,Savannah,Savannah,MO,Savannah-MO,Missouri,29003,Andrew,39.939,-94.8279,5209,5127,609,polygon,TRUE,America/Chicago,64485
Cairo-MO,1840010619,Cairo,Cairo,MO,Cairo-MO,Missouri,29175,Randolph,39.5114,-92.441,289,289,365,polygon,TRUE,America/Chicago,65239
Sikeston-MO,1840009921,Sikeston,Sikeston,MO,Sikeston-MO,Missouri,29201,Scott,36.8875,-89.587,16545,16327,360,polygon,TRUE,America/Chicago,63801
Dillard-MO,1840032190,Dillard,Dillard,MO,Dillard-MO,Missouri,29055,Crawford,37.7367,-91.2043,,,11.2,point,FALSE,America/Chicago,65456
Ford City-MO,1840032136,Ford City,Ford City,MO,Ford City-MO,Missouri,29075,Gentry,40.1117,-94.4647,,,5,point,FALSE,America/Chicago,64463
Fortescue-MO,1840010494,Fortescue,Fortescue,MO,Fortescue-MO,Missouri,29087,Holt,40.0519,-95.3176,29,29,145,polygon,TRUE,America/Chicago,64437
Milan-MO,1840008361,Milan,Milan,MO,Milan-MO,Missouri,29211,Sullivan,40.2031,-93.124,1824,1824,397,polygon,TRUE,America/Chicago,63556
Pollock-MO,1840012241,Pollock,Pollock,MO,Pollock-MO,Missouri,29211,Sullivan,40.3583,-93.0835,84,84,195,polygon,TRUE,America/Chicago,63560
Lake Waukomis-MO,1840008485,Lake Waukomis,Lake Waukomis,MO,Lake Waukomis-MO,Missouri,29165,Platte,39.2308,-94.6386,910,910,1195,polygon,TRUE,America/Chicago,64151
Howes Mill-MO,1840032253,Howes Mill,Howes Mill,MO,Howes Mill-MO,Missouri,29065,Dent,37.6178,-91.2918,,,2.5,point,FALSE,America/Chicago,65440
Tuscumbia-MO,1840010809,Tuscumbia,Tuscumbia,MO,Tuscumbia-MO,Missouri,29131,Miller,38.237,-92.46,206,206,230,polygon,TRUE,America/Chicago,65082
Biehle-MO,1840025714,Biehle,Biehle,MO,Biehle-MO,Missouri,29157,Perry,37.6065,-89.8377,,,51.6,polygon,FALSE,America/Chicago,63775
Polo-MO,1840009556,Polo,Polo,MO,Polo-MO,Missouri,29025,Caldwell,39.5496,-94.0395,540,540,338,polygon,TRUE,America/Chicago,64671
Milo-MO,1840012961,Milo,Milo,MO,Milo-MO,Missouri,29217,Vernon,37.7554,-94.3052,89,89,450,polygon,TRUE,America/Chicago,64767
Leadwood-MO,1840008689,Leadwood,Leadwood,MO,Leadwood-MO,Missouri,29187,St. Francois,37.8618,-90.5892,1184,1184,395,polygon,TRUE,America/Chicago,63653 63601
Oronogo-MO,1840009910,Oronogo,Oronogo,MO,Oronogo-MO,Missouri,29097,Jasper,37.1917,-94.4639,2475,2475,384,polygon,TRUE,America/Chicago,64870 64855
Fruitland-MO,1840032140,Fruitland,Fruitland,MO,Fruitland-MO,Missouri,29031,Cape Girardeau,37.4487,-89.6387,,,202.3,point,FALSE,America/Chicago,63755
Elkton-MO,1840032047,Elkton,Elkton,MO,Elkton-MO,Missouri,29085,Hickory,37.8525,-93.426,,,13.3,point,FALSE,America/Chicago,65650
Old Appleton-MO,1840009891,Old Appleton,Old Appleton,MO,Old Appleton-MO,Missouri,29031,Cape Girardeau,37.5938,-89.7108,87,87,278,polygon,TRUE,America/Chicago,63770 63769
Musicks Ferry-MO,1840032242,Musicks Ferry,Musicks Ferry,MO,Musicks Ferry-MO,Missouri,29189,St. Louis,38.8614,-90.3384,,,158.3,point,FALSE,America/Chicago,63034
Peach Orchard-MO,1840032088,Peach Orchard,Peach Orchard,MO,Peach Orchard-MO,Missouri,29155,Pemiscot,36.3656,-89.934,,,5.5,point,FALSE,America/Chicago,63848
Bertrand-MO,1840007649,Bertrand,Bertrand,MO,Bertrand-MO,Missouri,29133,Mississippi,36.9086,-89.4497,775,775,382,polygon,TRUE,America/Chicago,63823
Willard-MO,1840010870,Willard,Willard,MO,Willard-MO,Missouri,29077,Greene,37.2944,-93.4167,5680,5430,353,polygon,TRUE,America/Chicago,65781 65803
Excello-MO,1840025578,Excello,Excello,MO,Excello-MO,Missouri,29121,Macon,39.6334,-92.4743,,,33.2,polygon,FALSE,America/Chicago,65247
Liberty-MO,1840008502,Liberty,Liberty,MO,Liberty-MO,Missouri,29047,Clay,39.2393,-94.4191,30614,30614,409,polygon,TRUE,America/Chicago,64068 64069
Fair Play-MO,1840008714,Fair Play,Fair Play,MO,Fair Play-MO,Missouri,29167,Polk,37.6331,-93.5769,466,466,441,polygon,TRUE,America/Chicago,65649
Monett-MO,1840008797,Monett,Monett,MO,Monett-MO,Missouri,29009,Barry,36.9219,-93.9263,8617,9027,413,polygon,TRUE,America/Chicago,65708
Frankford-MO,1840008464,Frankford,Frankford,MO,Frankford-MO,Missouri,29163,Pike,39.4934,-91.3209,321,321,236,polygon,TRUE,America/Chicago,63441
Leadington-MO,1840008688,Leadington,Leadington,MO,Leadington-MO,Missouri,29187,St. Francois,37.8344,-90.4808,496,496,213,polygon,TRUE,America/Chicago,63601 63640
Plattsburg-MO,1840009557,Plattsburg,Plattsburg,MO,Plattsburg-MO,Missouri,29049,Clinton,39.5644,-94.4615,2285,2285,245,polygon,TRUE,America/Chicago,64477
Jamestown-MO,1840010723,Jamestown,Jamestown,MO,Jamestown-MO,Missouri,29135,Moniteau,38.7667,-92.4802,395,395,152,polygon,TRUE,America/Chicago,65046
Marthasville-MO,1840008566,Marthasville,Marthasville,MO,Marthasville-MO,Missouri,29219,Warren,38.6309,-91.0572,1181,1181,533,polygon,TRUE,America/Chicago,63357
Laredo-MO,1840008379,Laredo,Laredo,MO,Laredo-MO,Missouri,29079,Grundy,40.0261,-93.448,197,197,276,polygon,TRUE,America/Chicago,64652
Evergreen-MO,1840012982,Evergreen,Evergreen,MO,Evergreen-MO,Missouri,29105,Laclede,37.5486,-92.5961,28,28,1,polygon,TRUE,America/Chicago,65536
Oakland Park-MO,1840032085,Oakland Park,Oakland Park,MO,Oakland Park-MO,Missouri,29097,Jasper,37.1128,-94.4761,,,722.3,point,FALSE,America/Chicago,64801
Millersburg-MO,1840032203,Millersburg,Millersburg,MO,Millersburg-MO,Missouri,29027,Callaway,38.8987,-92.1235,,,48.7,point,FALSE,America/Chicago,65251
Hayti-MO,1840007670,Hayti,Hayti,MO,Hayti-MO,Missouri,29155,Pemiscot,36.2323,-89.7474,3227,2718,457,polygon,TRUE,America/Chicago,63851
Holt-MO,1840007372,Holt,Holt,MO,Holt-MO,Missouri,29047,Clay,39.4552,-94.3372,477,477,410,polygon,TRUE,America/Chicago,64048
Otterville-MO,1840009712,Otterville,Otterville,MO,Otterville-MO,Missouri,29053,Cooper,38.7029,-93.0028,457,457,360,polygon,TRUE,America/Chicago,65348
Lemay-MO,1840006119,Lemay,Lemay,MO,Lemay-MO,Missouri,29189,St. Louis,38.5315,-90.284,,,2593.1,polygon,FALSE,America/Chicago,63125
Grand Falls Plaza-MO,1840010891,Grand Falls Plaza,Grand Falls Plaza,MO,Grand Falls Plaza-MO,Missouri,29145,Newton,37.0355,-94.5379,115,115,464,polygon,TRUE,America/Chicago,64804
Ladue-MO,1840008599,Ladue,Ladue,MO,Ladue-MO,Missouri,29189,St. Louis,38.6378,-90.3815,8583,8583,387,polygon,TRUE,America/Chicago,63124
Pierce City-MO,1840009920,Pierce City,Pierce City,MO,Pierce City-MO,Missouri,29109,Lawrence,36.9465,-94.0032,1297,1297,388,polygon,TRUE,America/Chicago,65723
Libertyville-MO,1840032239,Libertyville,Libertyville,MO,Libertyville-MO,Missouri,29187,St. Francois,37.7037,-90.2882,,,32.5,point,FALSE,America/Chicago,63640
Miramiguoa Park-MO,1840012861,Miramiguoa Park,Miramiguoa Park,MO,Miramiguoa Park-MO,Missouri,29071,Franklin,38.2389,-91.0688,119,119,119,polygon,TRUE,America/Chicago,63080
Arkoe-MO,1840010418,Arkoe,Arkoe,MO,Arkoe-MO,Missouri,29147,Nodaway,40.2596,-94.8291,64,64,181,polygon,TRUE,America/Chicago,64468
Longrun-MO,1840032200,Longrun,Longrun,MO,Longrun-MO,Missouri,29153,Ozark,36.6492,-92.7232,,,1.9,point,FALSE,America/Chicago,65761
Deering-MO,1840032040,Deering,Deering,MO,Deering-MO,Missouri,29155,Pemiscot,36.1909,-89.8829,,,27.6,point,FALSE,America/Chicago,63827
Houstonia-MO,1840007431,Houstonia,Houstonia,MO,Houstonia-MO,Missouri,29159,Pettis,38.8994,-93.3592,221,221,431,polygon,TRUE,America/Chicago,65333
Elkland-MO,1840032046,Elkland,Elkland,MO,Elkland-MO,Missouri,29225,Webster,37.4431,-93.031,,,33.8,point,FALSE,America/Chicago,65644
Marceline-MO,1840008402,Marceline,Marceline,MO,Marceline-MO,Missouri,29115,Linn,39.7166,-92.9473,2129,2129,250,polygon,TRUE,America/Chicago,64658
Napoleon-MO,1840008525,Napoleon,Napoleon,MO,Napoleon-MO,Missouri,29107,Lafayette,39.1293,-94.0857,218,218,48,polygon,TRUE,America/Chicago,64074
Pineville-MO,1840009946,Pineville,Pineville,MO,Pineville-MO,Missouri,29119,McDonald,36.5746,-94.3912,787,787,94,polygon,TRUE,America/Chicago,64854 64856 64831
Commerce-MO,1840013036,Commerce,Commerce,MO,Commerce-MO,Missouri,29201,Scott,37.1584,-89.4467,66,66,73,polygon,TRUE,America/Chicago,63742
Granby-MO,1840008792,Granby,Granby,MO,Granby-MO,Missouri,29145,Newton,36.9181,-94.2607,2124,2124,185,polygon,TRUE,America/Chicago,64844
Iberia-MO,1840007515,Iberia,Iberia,MO,Iberia-MO,Missouri,29131,Miller,38.0886,-92.2962,743,743,325,polygon,TRUE,America/Chicago,65486
Florissant-MO,1840008586,Florissant,Florissant,MO,Florissant-MO,Missouri,29189,St. Louis,38.7996,-90.3269,51776,51776,1582,polygon,TRUE,America/Chicago,63033 63031 63032
Galloway-MO,1840032054,Galloway,Galloway,MO,Galloway-MO,Missouri,29077,Greene,37.1367,-93.238,,,703.6,point,FALSE,America/Chicago,65804
Mine La Motte-MO,1840025728,Mine La Motte,Mine La Motte,MO,Mine La Motte-MO,Missouri,29123,Madison,37.6145,-90.2943,,,21.1,polygon,FALSE,America/Chicago,63645
Frankclay-MO,1840025696,Frankclay,Frankclay,MO,Frankclay-MO,Missouri,29187,St. Francois,37.863,-90.6144,,,183.5,polygon,FALSE,America/Chicago,63601
Mindenmines-MO,1840008726,Mindenmines,Mindenmines,MO,Mindenmines-MO,Missouri,29011,Barton,37.4728,-94.5889,349,349,36,polygon,TRUE,America/Chicago,64769
Siloam Springs-MO,1840032216,Siloam Springs,Siloam Springs,MO,Siloam Springs-MO,Missouri,29091,Howell,36.7956,-92.0754,,,4.7,point,FALSE,America/Chicago,65775
Diamond-MO,1840009928,Diamond,Diamond,MO,Diamond-MO,Missouri,29145,Newton,36.9969,-94.3152,935,935,483,polygon,TRUE,America/Chicago,64840
Clearmont-MO,1840007226,Clearmont,Clearmont,MO,Clearmont-MO,Missouri,29147,Nodaway,40.5079,-95.0328,161,161,383,polygon,TRUE,America/Chicago,64431
Cabool-MO,1840007600,Cabool,Cabool,MO,Cabool-MO,Missouri,29215,Texas,37.1263,-92.1033,2136,2136,213,polygon,TRUE,America/Chicago,65689
Buckner-MO,1840007395,Buckner,Buckner,MO,Buckner-MO,Missouri,29095,Jackson,39.1336,-94.1929,3012,3055,660,polygon,TRUE,America/Chicago,64016
Saint Francisville-MO,1840025540,Saint Francisville,Saint Francisville,MO,Saint Francisville-MO,Missouri,29045,Clark,40.4501,-91.5714,,,5.7,polygon,FALSE,America/Chicago,63430 63465
Fenton-MO,1840008583,Fenton,Fenton,MO,Fenton-MO,Missouri,29189,St. Louis,38.5279,-90.4489,4032,4032,250,polygon,TRUE,America/Chicago,63026 63099
Hollister-MO,1840007660,Hollister,Hollister,MO,Hollister-MO,Missouri,29213,Taney,36.6051,-93.234,4486,4486,259,polygon,TRUE,America/Chicago,65672 65673
Callao-MO,1840007270,Callao,Callao,MO,Callao-MO,Missouri,29121,Macon,39.7624,-92.6238,276,276,210,polygon,TRUE,America/Chicago,63534
Grand Pass-MO,1840012681,Grand Pass,Grand Pass,MO,Grand Pass-MO,Missouri,29195,Saline,39.205,-93.4427,66,66,234,polygon,TRUE,America/Chicago,65339
Buffalo-MO,1840007571,Buffalo,Buffalo,MO,Buffalo-MO,Missouri,29059,Dallas,37.6444,-93.0969,2997,3049,409,polygon,TRUE,America/Chicago,65622
Pine Lawn-MO,1840009768,Pine Lawn,Pine Lawn,MO,Pine Lawn-MO,Missouri,29189,St. Louis,38.6953,-90.2756,3592,3592,2297,polygon,TRUE,America/Chicago,63121 63120
Kirbyville-MO,1840013057,Kirbyville,Kirbyville,MO,Kirbyville-MO,Missouri,29213,Taney,36.6294,-93.1576,218,218,63,polygon,TRUE,America/Chicago,65679 65616
Buell-MO,1840032029,Buell,Buell,MO,Buell-MO,Missouri,29139,Montgomery,39.0342,-91.439,,,20.3,point,FALSE,America/Chicago,63361
Kimberling City-MO,1840008795,Kimberling City,Kimberling City,MO,Kimberling City-MO,Missouri,29209,Stone,36.6441,-93.4239,3056,2312,254,polygon,TRUE,America/Chicago,65686
South Lineville-MO,1840010412,South Lineville,South Lineville,MO,South Lineville-MO,Missouri,29129,Mercer,40.5785,-93.5242,28,28,198,polygon,TRUE,America/Chicago,64661
Clinton-MO,1840007492,Clinton,Clinton,MO,Clinton-MO,Missouri,29083,Henry,38.3716,-93.7679,8581,8844,373,polygon,TRUE,America/Chicago,64735
Saint Robert-MO,1840009866,Saint Robert,Saint Robert,MO,Saint Robert-MO,Missouri,29169,Pulaski,37.8235,-92.1514,5753,5753,283,polygon,TRUE,America/Chicago,65584
Josephville-MO,1840012808,Josephville,Josephville,MO,Josephville-MO,Missouri,29183,St. Charles,38.8295,-90.7872,435,435,70,polygon,TRUE,America/Chicago,63385
Shelbyville-MO,1840009520,Shelbyville,Shelbyville,MO,Shelbyville-MO,Missouri,29205,Shelby,39.8071,-92.0404,525,525,261,polygon,TRUE,America/Chicago,63469
Bel-Ridge-MO,1840012816,Bel-Ridge,Bel-Ridge,MO,Bel-Ridge-MO,Missouri,29189,St. Louis,38.7129,-90.3285,2686,2686,1296,polygon,TRUE,America/Chicago,63121
Hartsburg-MO,1840010687,Hartsburg,Hartsburg,MO,Hartsburg-MO,Missouri,29019,Boone,38.6971,-92.3072,105,105,190,polygon,TRUE,America/Chicago,65039
Mayview-MO,1840008524,Mayview,Mayview,MO,Mayview-MO,Missouri,29107,Lafayette,39.0527,-93.833,208,208,513,polygon,TRUE,America/Chicago,64071
Reeds Spring-MO,1840009931,Reeds Spring,Reeds Spring,MO,Reeds Spring-MO,Missouri,29209,Stone,36.7402,-93.3797,864,864,222,polygon,TRUE,America/Chicago,65737
Sarcoxie-MO,1840009912,Sarcoxie,Sarcoxie,MO,Sarcoxie-MO,Missouri,29097,Jasper,37.0679,-94.1229,1294,1294,414,polygon,TRUE,America/Chicago,64862
Bonne Terre-MO,1840007551,Bonne Terre,Bonne Terre,MO,Bonne Terre-MO,Missouri,29187,St. Francois,37.9209,-90.5425,7147,7147,678,polygon,TRUE,America/Chicago,63628
Bland-MO,1840007472,Bland,Bland,MO,Bland-MO,Missouri,29073,Gasconade,38.3005,-91.6332,519,519,310,polygon,TRUE,America/Chicago,65014
Bellefontaine Neighbors-MO,1840007449,Bellefontaine Neighbors,Bellefontaine Neighbors,MO,Bellefontaine Neighbors-MO,Missouri,29189,St. Louis,38.7529,-90.2278,10702,10702,932,polygon,TRUE,America/Chicago,63136 63137
Grayridge-MO,1840025739,Grayridge,Grayridge,MO,Grayridge-MO,Missouri,29207,Stoddard,36.8247,-89.7819,,,139.5,polygon,FALSE,America/Chicago,63846 63850
Tiffin-MO,1840032250,Tiffin,Tiffin,MO,Tiffin-MO,Missouri,29185,St. Clair,37.955,-93.9383,,,31.1,point,FALSE,America/Chicago,64744
Mountain Grove-MO,1840008744,Mountain Grove,Mountain Grove,MO,Mountain Grove-MO,Missouri,29229,Wright,37.1341,-92.266,4509,4692,451,polygon,TRUE,America/Chicago,65711
Marys Home-MO,1840032123,Marys Home,Marys Home,MO,Marys Home-MO,Missouri,29131,Miller,38.3056,-92.3552,,,26.1,point,FALSE,America/Chicago,65032
Smithton-MO,1840009723,Smithton,Smithton,MO,Smithton-MO,Missouri,29159,Pettis,38.6812,-93.093,560,560,718,polygon,TRUE,America/Chicago,65350
Allenville-MO,1840010861,Allenville,Allenville,MO,Allenville-MO,Missouri,29031,Cape Girardeau,37.2217,-89.7556,119,119,297,polygon,TRUE,America/Chicago,63740
Newburg-MO,1840008680,Newburg,Newburg,MO,Newburg-MO,Missouri,29161,Phelps,37.9167,-91.9003,448,448,284,polygon,TRUE,America/Chicago,65550
Tarkio-MO,1840009413,Tarkio,Tarkio,MO,Tarkio-MO,Missouri,29005,Atchison,40.443,-95.3835,1473,1473,410,polygon,TRUE,America/Chicago,64491
Illmo-MO,1840032143,Illmo,Illmo,MO,Illmo-MO,Missouri,29201,Scott,37.2198,-89.509,,,825.7,point,FALSE,America/Chicago,63780
Bennett Springs-MO,1840025716,Bennett Springs,Bennett Springs,MO,Bennett Springs-MO,Missouri,29105,Laclede,37.7255,-92.8533,,,16.1,polygon,FALSE,America/Chicago,65536
Stotesbury-MO,1840010843,Stotesbury,Stotesbury,MO,Stotesbury-MO,Missouri,29217,Vernon,37.9744,-94.5645,18,18,63,polygon,TRUE,America/Chicago,64752
California-MO,1840007435,California,California,MO,California-MO,Missouri,29135,Moniteau,38.6304,-92.5667,4321,4421,455,polygon,TRUE,America/Chicago,65018 65055
Stillings-MO,1840032176,Stillings,Stillings,MO,Stillings-MO,Missouri,29165,Platte,39.3197,-94.888,,,2.5,point,FALSE,America/Chicago,64079
Renick-MO,1840012601,Renick,Renick,MO,Renick-MO,Missouri,29175,Randolph,39.3419,-92.4109,170,170,330,polygon,TRUE,America/Chicago,65270 65278
Osgood-MO,1840012242,Osgood,Osgood,MO,Osgood-MO,Missouri,29211,Sullivan,40.1973,-93.3498,45,45,95,polygon,TRUE,America/Chicago,64641
Montevallo-MO,1840032080,Montevallo,Montevallo,MO,Montevallo-MO,Missouri,29217,Vernon,37.7262,-94.1083,,,7.8,point,FALSE,America/Chicago,64767
Winfield-MO,1840010690,Winfield,Winfield,MO,Winfield-MO,Missouri,29113,Lincoln,38.9944,-90.7437,1437,1437,866,polygon,TRUE,America/Chicago,63389
Ravenwood-MO,1840010415,Ravenwood,Ravenwood,MO,Ravenwood-MO,Missouri,29147,Nodaway,40.3527,-94.6717,404,404,578,polygon,TRUE,America/Chicago,64479
Hollywood-MO,1840032142,Hollywood,Hollywood,MO,Hollywood-MO,Missouri,29069,Dunklin,36.0542,-90.1862,,,27.2,point,FALSE,America/Chicago,63821
Pilot Grove-MO,1840009713,Pilot Grove,Pilot Grove,MO,Pilot Grove-MO,Missouri,29053,Cooper,38.8736,-92.9126,763,763,700,polygon,TRUE,America/Chicago,65276
Flemington-MO,1840012993,Flemington,Flemington,MO,Flemington-MO,Missouri,29167,Polk,37.8039,-93.5014,148,148,172,polygon,TRUE,America/Chicago,65650
Caledonia-MO,1840010825,Caledonia,Caledonia,MO,Caledonia-MO,Missouri,29221,Washington,37.7643,-90.772,130,130,306,polygon,TRUE,America/Chicago,63631
Lake Spring-MO,1840032071,Lake Spring,Lake Spring,MO,Lake Spring-MO,Missouri,29065,Dent,37.7825,-91.6788,,,4.7,point,FALSE,America/Chicago,65401
Deerfield-MO,1840012960,Deerfield,Deerfield,MO,Deerfield-MO,Missouri,29217,Vernon,37.8386,-94.5078,80,80,303,polygon,TRUE,America/Chicago,64741
Fayette-MO,1840008517,Fayette,Fayette,MO,Fayette-MO,Missouri,29089,Howard,39.147,-92.6857,2661,2695,469,polygon,TRUE,America/Chicago,65248
Merriam Woods-MO,1840013058,Merriam Woods,Merriam Woods,MO,Merriam Woods-MO,Missouri,29213,Taney,36.7181,-93.1715,1769,1769,427,polygon,TRUE,America/Chicago,65740
New Florence-MO,1840008552,New Florence,New Florence,MO,New Florence-MO,Missouri,29139,Montgomery,38.9093,-91.453,724,724,92,polygon,TRUE,America/Chicago,63363
Simmons-MO,1840032103,Simmons,Simmons,MO,Simmons-MO,Missouri,29215,Texas,37.2306,-92.0154,,,17.2,point,FALSE,America/Chicago,65483
Parkdale-MO,1840012908,Parkdale,Parkdale,MO,Parkdale-MO,Missouri,29099,Jefferson,38.4795,-90.5281,171,171,524,polygon,TRUE,America/Chicago,63049
Vibbard-MO,1840032168,Vibbard,Vibbard,MO,Vibbard-MO,Missouri,29177,Ray,39.3806,-94.1463,,,60.6,point,FALSE,America/Chicago,64062
Delta-MO,1840007599,Delta,Delta,MO,Delta-MO,Missouri,29031,Cape Girardeau,37.1974,-89.7392,440,440,431,polygon,TRUE,America/Chicago,63744 63740
Everton-MO,1840008739,Everton,Everton,MO,Everton-MO,Missouri,29057,Dade,37.3429,-93.7024,304,304,340,polygon,TRUE,America/Chicago,65646
Matthews-MO,1840008802,Matthews,Matthews,MO,Matthews-MO,Missouri,29143,New Madrid,36.7584,-89.5688,616,616,121,polygon,TRUE,America/Chicago,63867
Deepwater-MO,1840007494,Deepwater,Deepwater,MO,Deepwater-MO,Missouri,29083,Henry,38.2592,-93.7746,410,410,186,polygon,TRUE,America/Chicago,64740
Hematite-MO,1840032161,Hematite,Hematite,MO,Hematite-MO,Missouri,29099,Jefferson,38.202,-90.481,,,136.6,point,FALSE,America/Chicago,63028
Camdenton-MO,1840007520,Camdenton,Camdenton,MO,Camdenton-MO,Missouri,29029,Camden,38.0121,-92.75,3854,3946,278,polygon,TRUE,America/Chicago,65020
Fortuna-MO,1840032052,Fortuna,Fortuna,MO,Fortuna-MO,Missouri,29135,Moniteau,38.5667,-92.798,,,106.5,point,FALSE,America/Chicago,65034
Conception Junction-MO,1840009419,Conception Junction,Conception Junction,MO,Conception Junction-MO,Missouri,29147,Nodaway,40.2684,-94.6914,187,187,230,polygon,TRUE,America/Chicago,64434
Lincoln-MO,1840009800,Lincoln,Lincoln,MO,Lincoln-MO,Missouri,29015,Benton,38.394,-93.3313,1181,1181,480,polygon,TRUE,America/Chicago,65338
Piney Park-MO,1840032146,Piney Park,Piney Park,MO,Piney Park-MO,Missouri,29071,Franklin,38.3012,-90.9429,,,28.8,point,FALSE,America/Chicago,63077
De Soto-MO,1840007509,De Soto,De Soto,MO,De Soto-MO,Missouri,29099,Jefferson,38.141,-90.5609,7290,6477,581,polygon,TRUE,America/Chicago,63020
Success-MO,1840032219,Success,Success,MO,Success-MO,Missouri,29215,Texas,37.4437,-92.0877,,,48.2,point,FALSE,America/Chicago,65570
Rockville-MO,1840009812,Rockville,Rockville,MO,Rockville-MO,Missouri,29013,Bates,38.071,-94.08,161,161,188,polygon,TRUE,America/Chicago,64780
Bellflower-MO,1840007406,Bellflower,Bellflower,MO,Bellflower-MO,Missouri,29139,Montgomery,39.0036,-91.3521,363,363,250,polygon,TRUE,America/Chicago,63333
Hillsdale-MO,1840012818,Hillsdale,Hillsdale,MO,Hillsdale-MO,Missouri,29189,St. Louis,38.6857,-90.2868,1560,1560,1748,polygon,TRUE,America/Chicago,63121 63133
Scotsdale-MO,1840010805,Scotsdale,Scotsdale,MO,Scotsdale-MO,Missouri,29099,Jefferson,38.3915,-90.5907,223,223,117,polygon,TRUE,America/Chicago,63051
Saint Elizabeth-MO,1840012918,Saint Elizabeth,Saint Elizabeth,MO,Saint Elizabeth-MO,Missouri,29131,Miller,38.256,-92.2665,343,343,127,polygon,TRUE,America/Chicago,65075
Brandsville-MO,1840007650,Brandsville,Brandsville,MO,Brandsville-MO,Missouri,29091,Howell,36.6507,-91.6964,160,160,118,polygon,TRUE,America/Chicago,65775 65688
Fairport-MO,1840032122,Fairport,Fairport,MO,Fairport-MO,Missouri,29063,DeKalb,39.9878,-94.3461,,,26.6,point,FALSE,America/Chicago,64469
Montreal-MO,1840032081,Montreal,Montreal,MO,Montreal-MO,Missouri,29029,Camden,37.9702,-92.588,,,12.6,polygon,FALSE,America/Chicago,65591
Malden-MO,1840009948,Malden,Malden,MO,Malden-MO,Missouri,29069,Dunklin,36.5873,-89.9825,4363,4064,208,polygon,TRUE,America/Chicago,63863
Beverly-MO,1840032171,Beverly,Beverly,MO,Beverly-MO,Missouri,29165,Platte,39.3681,-94.8672,,,24.8,point,FALSE,America/Chicago,64079
Charleston-MO,1840007648,Charleston,Charleston,MO,Charleston-MO,Missouri,29133,Mississippi,36.9179,-89.3344,5674,5727,461,polygon,TRUE,America/Chicago,63834
Parkway-MO,1840012863,Parkway,Parkway,MO,Parkway-MO,Missouri,29071,Franklin,38.3369,-90.9717,439,439,618,polygon,TRUE,America/Chicago,63077
New Cambria-MO,1840008399,New Cambria,New Cambria,MO,New Cambria-MO,Missouri,29121,Macon,39.7765,-92.7515,192,192,110,polygon,TRUE,America/Chicago,63558
Calverton Park-MO,1840010749,Calverton Park,Calverton Park,MO,Calverton Park-MO,Missouri,29189,St. Louis,38.7655,-90.3104,1284,1284,1214,polygon,TRUE,America/Chicago,63135
Battlefield-MO,1840007616,Battlefield,Battlefield,MO,Battlefield-MO,Missouri,29077,Greene,37.119,-93.3683,6050,6050,932,polygon,TRUE,America/Chicago,65619
Whitewater-MO,1840010860,Whitewater,Whitewater,MO,Whitewater-MO,Missouri,29031,Cape Girardeau,37.2368,-89.7978,128,128,230,polygon,TRUE,America/Chicago,63785
Country Life Acres-MO,1840012819,Country Life Acres,Country Life Acres,MO,Country Life Acres-MO,Missouri,29189,St. Louis,38.6225,-90.4551,74,74,259,polygon,TRUE,America/Chicago,63131
Rington-MO,1840032229,Rington,Rington,MO,Rington-MO,Missouri,29069,Dunklin,36.4553,-90.1428,232,232,244,polygon,TRUE,America/Chicago,72464 72454
Concord-MO,1840006126,Concord,Concord,MO,Concord-MO,Missouri,29189,St. Louis,38.5117,-90.3574,,,983,polygon,FALSE,America/Chicago,63128 63123
Craig-MO,1840007257,Craig,Craig,MO,Craig-MO,Missouri,29087,Holt,40.1923,-95.3743,227,227,337,polygon,TRUE,America/Chicago,64437
Windsor Place-MO,1840012766,Windsor Place,Windsor Place,MO,Windsor Place-MO,Missouri,29053,Cooper,38.9342,-92.7032,334,334,143,polygon,TRUE,America/Chicago,65233
Mexico-MO,1840008515,Mexico,Mexico,MO,Mexico-MO,Missouri,29007,Audrain,39.1626,-91.8711,11491,11680,372,polygon,TRUE,America/Chicago,65265
Brownwood-MO,1840032028,Brownwood,Brownwood,MO,Brownwood-MO,Missouri,29207,Stoddard,37.0809,-89.9545,,,56.4,point,FALSE,America/Chicago,63730
Asbury-MO,1840007632,Asbury,Asbury,MO,Asbury-MO,Missouri,29097,Jasper,37.2729,-94.6052,207,207,219,polygon,TRUE,America/Chicago,64832
Caulfield-MO,1840032030,Caulfield,Caulfield,MO,Caulfield-MO,Missouri,29091,Howell,36.6145,-92.1049,,,28.2,point,FALSE,America/Chicago,65626
Loose Creek-MO,1840032119,Loose Creek,Loose Creek,MO,Loose Creek-MO,Missouri,29151,Osage,38.5081,-91.9574,,,24.4,point,FALSE,America/Chicago,65054
Concordia-MO,1840007385,Concordia,Concordia,MO,Concordia-MO,Missouri,29107,Lafayette,38.9877,-93.5683,2385,2385,518,polygon,TRUE,America/Chicago,64020
Bull Creek-MO,1840010900,Bull Creek,Bull Creek,MO,Bull Creek-MO,Missouri,29213,Taney,36.715,-93.2021,617,617,1516,polygon,TRUE,America/Chicago,65616
Bonnots Mill-MO,1840032118,Bonnots Mill,Bonnots Mill,MO,Bonnots Mill-MO,Missouri,29151,Osage,38.5781,-91.9657,,,106.4,point,FALSE,America/Chicago,65016
Homestead-MO,1840012632,Homestead,Homestead,MO,Homestead-MO,Missouri,29177,Ray,39.3632,-94.2006,184,184,447,polygon,TRUE,America/Chicago,64024
Puxico-MO,1840009924,Puxico,Puxico,MO,Puxico-MO,Missouri,29207,Stoddard,36.9507,-90.1587,862,862,499,polygon,TRUE,America/Chicago,63960
Higbee-MO,1840007340,Higbee,Higbee,MO,Higbee-MO,Missouri,29175,Randolph,39.3061,-92.5128,551,551,494,polygon,TRUE,America/Chicago,65257
Excelsior Springs-MO,1840008495,Excelsior Springs,Excelsior Springs,MO,Excelsior Springs-MO,Missouri,29047,Clay,39.3395,-94.2377,11374,11522,427,polygon,TRUE,America/Chicago,64024
Kingsville-MO,1840008576,Kingsville,Kingsville,MO,Kingsville-MO,Missouri,29101,Johnson,38.7437,-94.0697,267,267,348,polygon,TRUE,America/Chicago,64061
Oak Grove Village-MO,1840012862,Oak Grove Village,Oak Grove Village,MO,Oak Grove Village-MO,Missouri,29071,Franklin,38.2279,-91.1493,486,486,295,polygon,TRUE,America/Chicago,63080
Purdy-MO,1840009933,Purdy,Purdy,MO,Purdy-MO,Missouri,29009,Barry,36.8187,-93.9206,1102,1102,659,polygon,TRUE,America/Chicago,65734
Mount Vernon-MO,1840008780,Mount Vernon,Mount Vernon,MO,Mount Vernon-MO,Missouri,29109,Lawrence,37.1055,-93.8196,4537,4553,454,polygon,TRUE,America/Chicago,65712
Clarkson Valley-MO,1840007438,Clarkson Valley,Clarkson Valley,MO,Clarkson Valley-MO,Missouri,29189,St. Louis,38.6257,-90.5945,2628,2628,376,polygon,TRUE,America/Chicago,63005
Philadelphia-MO,1840032089,Philadelphia,Philadelphia,MO,Philadelphia-MO,Missouri,29127,Marion,39.8387,-91.7391,,,89.3,point,FALSE,America/Chicago,63463
Oakwood Manor-MO,1840032086,Oakwood Manor,Oakwood Manor,MO,Oakwood Manor-MO,Missouri,29047,Clay,39.1969,-94.5644,,,1257.3,point,FALSE,America/Chicago,64118
Farber-MO,1840008514,Farber,Farber,MO,Farber-MO,Missouri,29007,Audrain,39.2747,-91.5763,318,318,428,polygon,TRUE,America/Chicago,63345
Jane-MO,1840032135,Jane,Jane,MO,Jane-MO,Missouri,29119,McDonald,36.5404,-94.3079,295,295,38,polygon,TRUE,America/Chicago,64856
Goodman-MO,1840010901,Goodman,Goodman,MO,Goodman-MO,Missouri,29119,McDonald,36.7388,-94.4091,1229,1229,357,polygon,TRUE,America/Chicago,64843
Pickering-MO,1840010413,Pickering,Pickering,MO,Pickering-MO,Missouri,29147,Nodaway,40.4503,-94.8416,151,151,307,polygon,TRUE,America/Chicago,64476
Purcell-MO,1840009911,Purcell,Purcell,MO,Purcell-MO,Missouri,29097,Jasper,37.2433,-94.4394,408,408,362,polygon,TRUE,America/Chicago,64857
Norborne-MO,1840008462,Norborne,Norborne,MO,Norborne-MO,Missouri,29033,Carroll,39.3024,-93.676,672,672,400,polygon,TRUE,America/Chicago,64668
Danville-MO,1840025629,Danville,Danville,MO,Danville-MO,Missouri,29139,Montgomery,38.9126,-91.5324,,,37.3,polygon,FALSE,America/Chicago,63361
Gladden-MO,1840032195,Gladden,Gladden,MO,Gladden-MO,Missouri,29065,Dent,37.4987,-91.4565,,,3.2,point,FALSE,America/Chicago,65560
Mendon-MO,1840008446,Mendon,Mendon,MO,Mendon-MO,Missouri,29041,Chariton,39.5906,-93.1339,165,165,354,polygon,TRUE,America/Chicago,64660
Excelsior Estates-MO,1840012634,Excelsior Estates,Excelsior Estates,MO,Excelsior Estates-MO,Missouri,29177,Ray,39.39,-94.2082,138,138,221,polygon,TRUE,America/Chicago,64062
Pinhook-MO,1840013042,Pinhook,Pinhook,MO,Pinhook-MO,Missouri,29133,Mississippi,36.7381,-89.2695,,,0.3,polygon,TRUE,America/Chicago,63845
Licking-MO,1840009892,Licking,Licking,MO,Licking-MO,Missouri,29215,Texas,37.4992,-91.8617,3116,3116,564,polygon,TRUE,America/Chicago,65542
Olivette-MO,1840009743,Olivette,Olivette,MO,Olivette-MO,Missouri,29189,St. Louis,38.6725,-90.3784,7844,7844,1085,polygon,TRUE,America/Chicago,63132
Rock Hill-MO,1840009770,Rock Hill,Rock Hill,MO,Rock Hill-MO,Missouri,29189,St. Louis,38.6089,-90.3673,4619,4619,1630,polygon,TRUE,America/Chicago,63119 63144
Odessa-MO,1840008526,Odessa,Odessa,MO,Odessa-MO,Missouri,29107,Lafayette,38.9988,-93.9666,5096,5195,489,polygon,TRUE,America/Chicago,64076
Country Club Village-MO,1840032036,Country Club Village,Country Club Village,MO,Country Club Village-MO,Missouri,29003,Andrew,39.8388,-94.8205,2468,2468,243,polygon,TRUE,America/Chicago,64506 64505
Grantwood Village-MO,1840010737,Grantwood Village,Grantwood Village,MO,Grantwood Village-MO,Missouri,29189,St. Louis,38.5509,-90.3532,861,861,401,polygon,TRUE,America/Chicago,63123
New Melle-MO,1840008570,New Melle,New Melle,MO,New Melle-MO,Missouri,29183,St. Charles,38.7185,-90.8839,495,495,115,polygon,TRUE,America/Chicago,63341 63385 63365
Marshfield-MO,1840008742,Marshfield,Marshfield,MO,Marshfield-MO,Missouri,29225,Webster,37.3414,-92.9116,7318,7245,536,polygon,TRUE,America/Chicago,65706
Alton-MO,1840007655,Alton,Alton,MO,Alton-MO,Missouri,29149,Oregon,36.6901,-91.3947,863,863,212,polygon,TRUE,America/Chicago,65606
Norwood Court-MO,1840009773,Norwood Court,Norwood Court,MO,Norwood Court-MO,Missouri,29189,St. Louis,38.7143,-90.2896,958,958,2723,polygon,TRUE,America/Chicago,63121
Murphy-MO,1840006236,Murphy,Murphy,MO,Murphy-MO,Missouri,29099,Jefferson,38.4922,-90.4856,,,325.8,polygon,FALSE,America/Chicago,63049 63026
Belton-MO,1840007463,Belton,Belton,MO,Belton-MO,Missouri,29037,Cass,38.8191,-94.5334,23290,23290,631,polygon,TRUE,America/Chicago,64012
Old Mines-MO,1840032087,Old Mines,Old Mines,MO,Old Mines-MO,Missouri,29221,Washington,38.0153,-90.756,,,63.8,point,FALSE,America/Chicago,63630
Allendale-MO,1840010426,Allendale,Allendale,MO,Allendale-MO,Missouri,29227,Worth,40.4853,-94.2887,50,50,34,polygon,TRUE,America/Chicago,64420
Hale-MO,1840007336,Hale,Hale,MO,Hale-MO,Missouri,29033,Carroll,39.6051,-93.3434,404,404,284,polygon,TRUE,America/Chicago,64643
Rueter-MO,1840032213,Rueter,Rueter,MO,Rueter-MO,Missouri,29213,Taney,36.6084,-92.8691,,,3.9,point,FALSE,America/Chicago,65744
Marquand-MO,1840008731,Marquand,Marquand,MO,Marquand-MO,Missouri,29123,Madison,37.4287,-90.167,208,208,337,polygon,TRUE,America/Chicago,63655
Steele-MO,1840009950,Steele,Steele,MO,Steele-MO,Missouri,29155,Pemiscot,36.0904,-89.846,2051,2051,429,polygon,TRUE,America/Chicago,63877
Higginsville-MO,1840007389,Higginsville,Higginsville,MO,Higginsville-MO,Missouri,29107,Lafayette,39.0665,-93.7268,4480,4651,485,polygon,TRUE,America/Chicago,64037
Brookfield-MO,1840005551,Brookfield,Brookfield,MO,Brookfield-MO,Missouri,29115,Linn,39.7853,-93.0772,4056,4303,388,polygon,TRUE,America/Chicago,64628
Poplar Bluff-MO,1840009935,Poplar Bluff,Poplar Bluff,MO,Poplar Bluff-MO,Missouri,29023,Butler,36.7632,-90.4136,20714,17233,506,polygon,TRUE,America/Chicago,63902 63901
Flint Hill-MO,1840008568,Flint Hill,Flint Hill,MO,Flint Hill-MO,Missouri,29183,St. Charles,38.8639,-90.8686,528,528,83,polygon,TRUE,America/Chicago,63385
Bakersfield-MO,1840013060,Bakersfield,Bakersfield,MO,Bakersfield-MO,Missouri,29153,Ozark,36.5238,-92.1442,236,236,66,polygon,TRUE,America/Chicago,65609
Sheridan-MO,1840010425,Sheridan,Sheridan,MO,Sheridan-MO,Missouri,29227,Worth,40.5172,-94.6139,183,183,363,polygon,TRUE,America/Chicago,64486
Fristoe-MO,1840032053,Fristoe,Fristoe,MO,Fristoe-MO,Missouri,29015,Benton,38.1167,-93.2758,,,10,point,FALSE,America/Chicago,65355
Bronaugh-MO,1840006317,Bronaugh,Bronaugh,MO,Bronaugh-MO,Missouri,29217,Vernon,37.6942,-94.4681,246,246,331,polygon,TRUE,America/Chicago,64728
Morley-MO,1840008783,Morley,Morley,MO,Morley-MO,Missouri,29201,Scott,37.0433,-89.6122,679,679,327,polygon,TRUE,America/Chicago,63767
Cape Girardeau-MO,1840007598,Cape Girardeau,Cape Girardeau,MO,Cape Girardeau-MO,Missouri,29031,Cape Girardeau,37.3107,-89.5595,55253,39628,528,polygon,TRUE,America/Chicago,63703 63701 63702
Weatherby-MO,1840010541,Weatherby,Weatherby,MO,Weatherby-MO,Missouri,29063,DeKalb,39.9093,-94.2419,105,105,343,polygon,TRUE,America/Chicago,64497
East Lynne-MO,1840008609,East Lynne,East Lynne,MO,East Lynne-MO,Missouri,29037,Cass,38.6682,-94.2306,306,306,362,polygon,TRUE,America/Chicago,64080 64743
Benton-MO,1840007638,Benton,Benton,MO,Benton-MO,Missouri,29201,Scott,37.0992,-89.5626,861,861,538,polygon,TRUE,America/Chicago,63736
Ludlow-MO,1840009518,Ludlow,Ludlow,MO,Ludlow-MO,Missouri,29117,Livingston,39.6541,-93.7026,132,132,325,polygon,TRUE,America/Chicago,64656
Vigus-MO,1840032252,Vigus,Vigus,MO,Vigus-MO,Missouri,29189,St. Louis,38.7356,-90.4648,,,354.6,point,FALSE,America/Chicago,63043
Springfield-MO,1840009904,Springfield,Springfield,MO,Springfield-MO,Missouri,29077,Greene,37.1943,-93.2916,287124,167319,787,polygon,TRUE,America/Chicago,65810 65802 65803 65804 65806 65807 65809 65801 65805 65808 65814 65817 65890 65897 65898 65899
Neelys Landing-MO,1840032120,Neelys Landing,Neelys Landing,MO,Neelys Landing-MO,Missouri,29031,Cape Girardeau,37.5023,-89.502,,,4.3,point,FALSE,America/Chicago,63755
Vinita Park-MO,1840010742,Vinita Park,Vinita Park,MO,Vinita Park-MO,Missouri,29189,St. Louis,38.6891,-90.34,1875,1875,1003,polygon,TRUE,America/Chicago,63114 63130
Boonville-MO,1840007420,Boonville,Boonville,MO,Boonville-MO,Missouri,29053,Cooper,38.9598,-92.7524,9388,8462,474,polygon,TRUE,America/Chicago,65233
Emerald Beach-MO,1840013055,Emerald Beach,Emerald Beach,MO,Emerald Beach-MO,Missouri,29009,Barry,36.5755,-93.6711,231,231,124,polygon,TRUE,America/Chicago,65658
Sedalia-MO,1840009724,Sedalia,Sedalia,MO,Sedalia-MO,Missouri,29159,Pettis,38.7043,-93.2349,26302,21489,619,polygon,TRUE,America/Chicago,65301 65302
Northwye-MO,1840032204,Northwye,Northwye,MO,Northwye-MO,Missouri,29161,Phelps,37.975,-91.7557,,,132,point,FALSE,America/Chicago,65401
Quick City-MO,1840032094,Quick City,Quick City,MO,Quick City-MO,Missouri,29101,Johnson,38.5811,-94.0288,,,8.3,point,FALSE,America/Chicago,64040
Washburn-MO,1840010896,Washburn,Washburn,MO,Washburn-MO,Missouri,29009,Barry,36.5888,-93.9655,436,436,188,polygon,TRUE,America/Chicago,65772
Lewis and Clark Village-MO,1840009551,Lewis and Clark Village,Lewis and Clark Village,MO,Lewis and Clark Village-MO,Missouri,29021,Buchanan,39.5375,-95.0506,131,131,82,polygon,TRUE,America/Chicago,64484
Trenton-MO,1840010490,Trenton,Trenton,MO,Trenton-MO,Missouri,29079,Grundy,40.0819,-93.603,5532,5932,355,polygon,TRUE,America/Chicago,64683
Amoret-MO,1840007512,Amoret,Amoret,MO,Amoret-MO,Missouri,29013,Bates,38.2549,-94.5873,184,184,332,polygon,TRUE,America/Chicago,64722
Summersville-MO,1840009893,Summersville,Summersville,MO,Summersville-MO,Missouri,29215,Texas,37.1786,-91.6577,502,502,174,polygon,TRUE,America/Chicago,65571
Saint George-MO,1840032245,Saint George,Saint George,MO,Saint George-MO,Missouri,29189,St. Louis,38.5367,-90.3148,,,2616.9,point,TRUE,America/Chicago,63123
Lakeside-MO,1840008661,Lakeside,Lakeside,MO,Lakeside-MO,Missouri,29131,Miller,38.2041,-92.6223,,,0,polygon,TRUE,America/Chicago,65049
Randolph-MO,1840012676,Randolph,Randolph,MO,Randolph-MO,Missouri,29047,Clay,39.1559,-94.4928,55,55,64,polygon,TRUE,America/Chicago,64161
Beverly Hills-MO,1840007451,Beverly Hills,Beverly Hills,MO,Beverly Hills-MO,Missouri,29189,St. Louis,38.6979,-90.29,559,559,2315,polygon,TRUE,America/Chicago,63121
Kingston-MO,1840008443,Kingston,Kingston,MO,Kingston-MO,Missouri,29025,Caldwell,39.6426,-94.0385,339,339,252,polygon,TRUE,America/Chicago,64650
Cross Timbers-MO,1840007553,Cross Timbers,Cross Timbers,MO,Cross Timbers-MO,Missouri,29085,Hickory,38.0242,-93.2294,212,212,183,polygon,TRUE,America/Chicago,65634
Black Walnut-MO,1840032231,Black Walnut,Black Walnut,MO,Black Walnut-MO,Missouri,29183,St. Charles,38.8734,-90.3712,,,3.6,point,FALSE,America/Chicago,63301
Vandiver-MO,1840012700,Vandiver,Vandiver,MO,Vandiver-MO,Missouri,29007,Audrain,39.1622,-91.8473,72,72,92,polygon,TRUE,America/Chicago,65265
Elmira-MO,1840012633,Elmira,Elmira,MO,Elmira-MO,Missouri,29177,Ray,39.5087,-94.1546,49,49,260,polygon,TRUE,America/Chicago,64062
Truesdale-MO,1840010713,Truesdale,Truesdale,MO,Truesdale-MO,Missouri,29219,Warren,38.8124,-91.122,745,745,224,polygon,TRUE,America/Chicago,63383 63380
Glenwood-MO,1840012131,Glenwood,Glenwood,MO,Glenwood-MO,Missouri,29197,Schuyler,40.5243,-92.5766,197,197,103,polygon,TRUE,America/Chicago,63541
Galena-MO,1840008794,Galena,Galena,MO,Galena-MO,Missouri,29209,Stone,36.8054,-93.4709,422,422,218,polygon,TRUE,America/Chicago,65656
Maysville-MO,1840008405,Maysville,Maysville,MO,Maysville-MO,Missouri,29063,DeKalb,39.8859,-94.3634,1087,1087,366,polygon,TRUE,America/Chicago,64469
Amsterdam-MO,1840007513,Amsterdam,Amsterdam,MO,Amsterdam-MO,Missouri,29013,Bates,38.3493,-94.589,234,234,158,polygon,TRUE,America/Chicago,64723
Thornfield-MO,1840032220,Thornfield,Thornfield,MO,Thornfield-MO,Missouri,29153,Ozark,36.7087,-92.6593,,,22.4,point,FALSE,America/Chicago,65762
Worthington-MO,1840012135,Worthington,Worthington,MO,Worthington-MO,Missouri,29171,Putnam,40.4091,-92.6892,79,79,281,polygon,TRUE,America/Chicago,63567
Bagnell-MO,1840009814,Bagnell,Bagnell,MO,Bagnell-MO,Missouri,29131,Miller,38.2294,-92.6053,95,95,78,polygon,TRUE,America/Chicago,65026
Shelbina-MO,1840009519,Shelbina,Shelbina,MO,Shelbina-MO,Missouri,29205,Shelby,39.693,-92.0396,1623,1623,268,polygon,TRUE,America/Chicago,63468
Halfway-MO,1840012992,Halfway,Halfway,MO,Halfway-MO,Missouri,29167,Polk,37.6189,-93.2387,173,173,31,polygon,TRUE,America/Chicago,65663
Orrick-MO,1840009599,Orrick,Orrick,MO,Orrick-MO,Missouri,29177,Ray,39.2132,-94.1253,807,807,233,polygon,TRUE,America/Chicago,64077
New London-MO,1840008448,New London,New London,MO,New London-MO,Missouri,29173,Ralls,39.5844,-91.3987,970,970,539,polygon,TRUE,America/Chicago,63459
Eolia-MO,1840012602,Eolia,Eolia,MO,Eolia-MO,Missouri,29163,Pike,39.2389,-91.0121,514,514,162,polygon,TRUE,America/Chicago,63344
Leasburg-MO,1840012949,Leasburg,Leasburg,MO,Leasburg-MO,Missouri,29055,Crawford,38.0948,-91.2953,333,333,297,polygon,TRUE,America/Chicago,65535
Paris-MO,1840009565,Paris,Paris,MO,Paris-MO,Missouri,29137,Monroe,39.4773,-92.0039,1174,1174,359,polygon,TRUE,America/Chicago,65275
West Sullivan-MO,1840012951,West Sullivan,West Sullivan,MO,West Sullivan-MO,Missouri,29055,Crawford,38.1921,-91.1918,117,117,124,polygon,TRUE,America/Chicago,65441 63080
Agency-MO,1840010601,Agency,Agency,MO,Agency-MO,Missouri,29021,Buchanan,39.6699,-94.7588,666,666,69,polygon,TRUE,America/Chicago,64401 64507
Clarksville-MO,1840007342,Clarksville,Clarksville,MO,Clarksville-MO,Missouri,29163,Pike,39.3693,-90.9049,431,431,286,polygon,TRUE,America/Chicago,63336
Stoutland-MO,1840009753,Stoutland,Stoutland,MO,Stoutland-MO,Missouri,29029,Camden,37.8136,-92.5143,192,192,122,polygon,TRUE,America/Chicago,65567
Eldridge-MO,1840032045,Eldridge,Eldridge,MO,Eldridge-MO,Missouri,29105,Laclede,37.8298,-92.7491,,,34.9,point,FALSE,America/Chicago,65463
Squires-MO,1840032218,Squires,Squires,MO,Squires-MO,Missouri,29067,Douglas,36.8514,-92.6249,,,6.7,point,FALSE,America/Chicago,65755
Table Rock-MO,1840032226,Table Rock,Table Rock,MO,Table Rock-MO,Missouri,29213,Taney,36.6048,-93.2988,,,633.9,point,FALSE,America/Chicago,65616
Taberville-MO,1840032249,Taberville,Taberville,MO,Taberville-MO,Missouri,29185,St. Clair,38.0084,-93.9947,,,9.8,point,FALSE,America/Chicago,64780
Chilhowee-MO,1840009725,Chilhowee,Chilhowee,MO,Chilhowee-MO,Missouri,29101,Johnson,38.5889,-93.8557,326,326,328,polygon,TRUE,America/Chicago,64733
Pascola-MO,1840013066,Pascola,Pascola,MO,Pascola-MO,Missouri,29155,Pemiscot,36.2673,-89.8258,101,101,244,polygon,TRUE,America/Chicago,63827
Worth-MO,1840012145,Worth,Worth,MO,Worth-MO,Missouri,29227,Worth,40.4045,-94.4465,59,59,90,polygon,TRUE,America/Chicago,64499
Independence-MO,1840008534,Independence,Independence,MO,Independence-MO,Missouri,29095,Jackson,39.0871,-94.3503,117030,117030,580,polygon,TRUE,America/Chicago,64054 64055 64056 64057 64050 64052 64053 64015 64016 64051
Bates City-MO,1840007388,Bates City,Bates City,MO,Bates City-MO,Missouri,29107,Lafayette,39.0047,-94.0659,220,220,78,polygon,TRUE,America/Chicago,64011
Freeman-MO,1840008610,Freeman,Freeman,MO,Freeman-MO,Missouri,29037,Cass,38.6215,-94.5057,487,487,218,polygon,TRUE,America/Chicago,64746
Tecumseh-MO,1840032106,Tecumseh,Tecumseh,MO,Tecumseh-MO,Missouri,29153,Ozark,36.5867,-92.2865,,,12.3,point,FALSE,America/Chicago,65760
Mokane-MO,1840008562,Mokane,Mokane,MO,Mokane-MO,Missouri,29027,Callaway,38.6744,-91.8723,187,187,246,polygon,TRUE,America/Chicago,65059
Decaturville-MO,1840032039,Decaturville,Decaturville,MO,Decaturville-MO,Missouri,29029,Camden,37.9075,-92.6999,,,9,point,FALSE,America/Chicago,65020
Stoutsville-MO,1840012583,Stoutsville,Stoutsville,MO,Stoutsville-MO,Missouri,29137,Monroe,39.548,-91.8573,46,46,21,polygon,TRUE,America/Chicago,65283
Ritchey-MO,1840010889,Ritchey,Ritchey,MO,Ritchey-MO,Missouri,29145,Newton,36.944,-94.1858,83,83,653,polygon,TRUE,America/Chicago,64844
Four Seasons-MO,1840032256,Four Seasons,Four Seasons,MO,Four Seasons-MO,Missouri,29029,Camden,38.1976,-92.7187,4494,2239,191,polygon,TRUE,America/Chicago,65049
Ridgely-MO,1840012631,Ridgely,Ridgely,MO,Ridgely-MO,Missouri,29165,Platte,39.4537,-94.6402,112,112,30,polygon,TRUE,America/Chicago,64444
Newtown-MO,1840009435,Newtown,Newtown,MO,Newtown-MO,Missouri,29211,Sullivan,40.3762,-93.3336,172,172,262,polygon,TRUE,America/Chicago,64667
Granger-MO,1840012116,Granger,Granger,MO,Granger-MO,Missouri,29199,Scotland,40.467,-91.9736,35,35,85,polygon,TRUE,America/Chicago,63432 63442
Latour-MO,1840032129,Latour,Latour,MO,Latour-MO,Missouri,29101,Johnson,38.6345,-94.1022,,,83.2,point,FALSE,America/Chicago,64747
New Court Village-MO,1840032255,New Court Village,New Court Village,MO,New Court Village-MO,Missouri,29111,Lewis,40.1067,-91.8132,,,11,point,FALSE,America/Chicago,63452
Rombauer-MO,1840032210,Rombauer,Rombauer,MO,Rombauer-MO,Missouri,29023,Butler,36.8431,-90.2801,,,117.8,point,FALSE,America/Chicago,63901
Caruthersville-MO,1840007669,Caruthersville,Caruthersville,MO,Caruthersville-MO,Missouri,29155,Pemiscot,36.1814,-89.6664,5442,5801,434,polygon,TRUE,America/Chicago,63830
Coldwater-MO,1840032034,Coldwater,Coldwater,MO,Coldwater-MO,Missouri,29223,Wayne,37.3034,-90.4098,,,34.8,point,FALSE,America/Chicago,63964
Olympian Village-MO,1840009809,Olympian Village,Olympian Village,MO,Olympian Village-MO,Missouri,29099,Jefferson,38.1346,-90.4583,760,760,514,polygon,TRUE,America/Chicago,63020
Green Castle-MO,1840032154,Green Castle,Green Castle,MO,Green Castle-MO,Missouri,29211,Sullivan,40.2625,-92.878,,,312.6,point,TRUE,America/Chicago,63544
Marion-MO,1840032202,Marion,Marion,MO,Marion-MO,Missouri,29051,Cole,38.6909,-92.3663,,,2.9,point,FALSE,America/Chicago,65023
Cave-MO,1840009683,Cave,Cave,MO,Cave-MO,Missouri,29113,Lincoln,39.0214,-91.0483,5,5,2,polygon,TRUE,America/Chicago,63377 63379
Saginaw-MO,1840013047,Saginaw,Saginaw,MO,Saginaw-MO,Missouri,29145,Newton,37.026,-94.4724,310,310,145,polygon,TRUE,America/Chicago,64804 64864
King City-MO,1840008363,King City,King City,MO,King City-MO,Missouri,29075,Gentry,40.0505,-94.5251,1002,1002,279,polygon,TRUE,America/Chicago,64463
Willhoit-MO,1840032223,Willhoit,Willhoit,MO,Willhoit-MO,Missouri,29153,Ozark,36.6834,-92.5068,,,1.2,point,FALSE,America/Chicago,65773
Boschertown-MO,1840032232,Boschertown,Boschertown,MO,Boschertown-MO,Missouri,29183,St. Charles,38.8334,-90.4701,,,24.3,point,FALSE,America/Chicago,63301
Lexington-MO,1840008528,Lexington,Lexington,MO,Lexington-MO,Missouri,29107,Lafayette,39.1798,-93.8695,4371,4584,338,polygon,TRUE,America/Chicago,64067
Creve Coeur-MO,1840007443,Creve Coeur,Creve Coeur,MO,Creve Coeur-MO,Missouri,29189,St. Louis,38.6621,-90.443,18612,18612,696,polygon,TRUE,America/Chicago,63141
Hawk Point-MO,1840007398,Hawk Point,Hawk Point,MO,Hawk Point-MO,Missouri,29113,Lincoln,38.9711,-91.1311,684,684,705,polygon,TRUE,America/Chicago,63349
Richards-MO,1840010841,Richards,Richards,MO,Richards-MO,Missouri,29217,Vernon,37.9104,-94.557,96,96,138,polygon,TRUE,America/Chicago,64778
Olean-MO,1840009816,Olean,Olean,MO,Olean-MO,Missouri,29131,Miller,38.4104,-92.53,131,131,292,polygon,TRUE,America/Chicago,65064
Warrensburg-MO,1840010721,Warrensburg,Warrensburg,MO,Warrensburg-MO,Missouri,29101,Johnson,38.7617,-93.7284,22227,20251,881,polygon,TRUE,America/Chicago,64093
Doolittle-MO,1840007541,Doolittle,Doolittle,MO,Doolittle-MO,Missouri,29161,Phelps,37.9426,-91.8893,599,599,86,polygon,TRUE,America/Chicago,65550 65401
Sweet Springs-MO,1840009614,Sweet Springs,Sweet Springs,MO,Sweet Springs-MO,Missouri,29195,Saline,38.965,-93.4152,1446,1446,335,polygon,TRUE,America/Chicago,65351
Gladstone-MO,1840008496,Gladstone,Gladstone,MO,Gladstone-MO,Missouri,29047,Clay,39.2134,-94.5593,27114,27114,1292,polygon,TRUE,America/Chicago,64119 64118
Bunker-MO,1840007596,Bunker,Bunker,MO,Bunker-MO,Missouri,29179,Reynolds,37.4574,-91.2121,398,398,231,polygon,TRUE,America/Chicago,63629
Rives-MO,1840010902,Rives,Rives,MO,Rives-MO,Missouri,29069,Dunklin,36.0945,-90.0115,61,61,64,polygon,TRUE,America/Chicago,63855
Oak Grove-MO,1840008533,Oak Grove,Oak Grove,MO,Oak Grove-MO,Missouri,29095,Jackson,39.0074,-94.1278,7994,7994,500,polygon,TRUE,America/Chicago,64075
Barretts-MO,1840032230,Barretts,Barretts,MO,Barretts-MO,Missouri,29189,St. Louis,38.5717,-90.4601,,,179.7,point,FALSE,America/Chicago,63122
Saint Paul-MO,1840009720,Saint Paul,Saint Paul,MO,Saint Paul-MO,Missouri,29183,St. Charles,38.8464,-90.741,2195,2195,127,polygon,TRUE,America/Chicago,63366
Leeton-MO,1840008578,Leeton,Leeton,MO,Leeton-MO,Missouri,29101,Johnson,38.5833,-93.6952,555,555,421,polygon,TRUE,America/Chicago,64761
Gilliam-MO,1840010662,Gilliam,Gilliam,MO,Gilliam-MO,Missouri,29195,Saline,39.2328,-93.0041,195,195,303,polygon,TRUE,America/Chicago,65330
Farmington-MO,1840008686,Farmington,Farmington,MO,Farmington-MO,Missouri,29187,St. Francois,37.782,-90.4287,44494,18355,775,polygon,TRUE,America/Chicago,63640
Levasy-MO,1840008539,Levasy,Levasy,MO,Levasy-MO,Missouri,29095,Jackson,39.1363,-94.1307,83,83,53,polygon,TRUE,America/Chicago,64088 64066
Armstrong-MO,1840007378,Armstrong,Armstrong,MO,Armstrong-MO,Missouri,29089,Howard,39.2692,-92.7042,285,285,134,polygon,TRUE,America/Chicago,65230
Dadeville-MO,1840013013,Dadeville,Dadeville,MO,Dadeville-MO,Missouri,29057,Dade,37.4792,-93.6739,229,229,89,polygon,TRUE,America/Chicago,65635
Sullivan-MO,1840009643,Sullivan,Sullivan,MO,Sullivan-MO,Missouri,29071,Franklin,38.2127,-91.1636,9171,7126,342,polygon,TRUE,America/Chicago,63080
Gasconade-MO,1840008619,Gasconade,Gasconade,MO,Gasconade-MO,Missouri,29073,Gasconade,38.6702,-91.5599,212,212,403,polygon,TRUE,America/Chicago,65061 65036
Washington-MO,1840010770,Washington,Washington,MO,Washington-MO,Missouri,29071,Franklin,38.5517,-91.015,14397,14061,582,polygon,TRUE,America/Chicago,63090
Sugar Creek-MO,1840009680,Sugar Creek,Sugar Creek,MO,Sugar Creek-MO,Missouri,29095,Jackson,39.1421,-94.4019,3304,3304,121,polygon,TRUE,America/Chicago,64058 64054 64050 64053
