[
 {
   "City-State": "Highland Acres-DE",
   "id": 1840028616,
   "city": "Highland Acres",
   "city_ascii": "Highland Acres",
   "state_id": "DE",
   "City-State": "Highland Acres-DE",
   "state_name": "Delaware",
   "county_fips": 10001,
   "county_name": "Kent",
   "lat": 39.1164,
   "lng": -75.5217,
   "population": null,
   "population_proper": null,
   "density": 1021.7,
   "source": "polygon",
   "incorporated": false,
   "timezone": "America/New_York",
   "zips": "19901"
 },
 {
   "City-State": "Wyoming-DE",
   "id": 1840005822,
   "city": "Wyoming",
   "city_ascii": "Wyoming",
   "state_id": "DE",
   "City-State": "Wyoming-DE",
   "state_name": "Delaware",
   "county_fips": 10001,
   "county_name": "Kent",
   "lat": 39.1143,
   "lng": -75.5632,
   "population": 1486,
   "population_proper": 1486,
   "density": 541,
   "source": "polygon",
   "incorporated": true,
   "timezone": "America/New_York",
   "zips": "19934"
 },
 {
   "City-State": "Newark-DE",
   "id": 1840005578,
   "city": "Newark",
   "city_ascii": "Newark",
   "state_id": "DE",
   "City-State": "Newark-DE",
   "state_name": "Delaware",
   "county_fips": 10003,
   "county_name": "New Castle",
   "lat": 39.6777,
   "lng": -75.7573,
   "population": 33398,
   "population_proper": 33398,
   "density": 1403,
   "source": "polygon",
   "incorporated": true,
   "timezone": "America/New_York",
   "zips": "19713 19711 19717 19716 19712 19714 19715 19718 19725 19726"
 },
 {
   "City-State": "Talleyville-DE",
   "id": 1840027453,
   "city": "Talleyville",
   "city_ascii": "Talleyville",
   "state_id": "DE",
   "City-State": "Talleyville-DE",
   "state_name": "Delaware",
   "county_fips": 10003,
   "county_name": "New Castle",
   "lat": 39.809,
   "lng": -75.5488,
   "population": null,
   "population_proper": null,
   "density": 509.1,
   "source": "point",
   "incorporated": false,
   "timezone": "America/New_York",
   "zips": "19810"
 },
 {
   "City-State": "Rising Sun-DE",
   "id": 1840027482,
   "city": "Rising Sun",
   "city_ascii": "Rising Sun",
   "state_id": "DE",
   "City-State": "Rising Sun-DE",
   "state_name": "Delaware",
   "county_fips": 10001,
   "county_name": "Kent",
   "lat": 39.1004,
   "lng": -75.5155,
   "population": null,
   "population_proper": null,
   "density": 374.5,
   "source": "point",
   "incorporated": false,
   "timezone": "America/New_York",
   "zips": "19934"
 },
 {
   "City-State": "Fenwick Island-DE",
   "id": 1840006063,
   "city": "Fenwick Island",
   "city_ascii": "Fenwick Island",
   "state_id": "DE",
   "City-State": "Fenwick Island-DE",
   "state_name": "Delaware",
   "county_fips": 10005,
   "county_name": "Sussex",
   "lat": 38.4604,
   "lng": -75.0542,
   "population": 426,
   "population_proper": 426,
   "density": 499,
   "source": "polygon",
   "incorporated": true,
   "timezone": "America/New_York",
   "zips": "19944"
 },
 {
   "City-State": "Roseville Park-DE",
   "id": 1840027451,
   "city": "Roseville Park",
   "city_ascii": "Roseville Park",
   "state_id": "DE",
   "City-State": "Roseville Park-DE",
   "state_name": "Delaware",
   "county_fips": 10003,
   "county_name": "New Castle",
   "lat": 39.6996,
   "lng": -75.713,
   "population": null,
   "population_proper": null,
   "density": 2808,
   "source": "point",
   "incorporated": false,
   "timezone": "America/New_York",
   "zips": "19711"
 },
 {
   "City-State": "Blades-DE",
   "id": 1840006074,
   "city": "Blades",
   "city_ascii": "Blades",
   "state_id": "DE",
   "City-State": "Blades-DE",
   "state_name": "Delaware",
   "county_fips": 10005,
   "county_name": "Sussex",
   "lat": 38.6353,
   "lng": -75.6026,
   "population": 1380,
   "population_proper": 1380,
   "density": 959,
   "source": "polygon",
   "incorporated": true,
   "timezone": "America/New_York",
   "zips": "19973"
 },
 {
   "City-State": "Milford-DE",
   "id": 1840006069,
   "city": "Milford",
   "city_ascii": "Milford",
   "state_id": "DE",
   "City-State": "Milford-DE",
   "state_name": "Delaware",
   "county_fips": 10005,
   "county_name": "Sussex",
   "lat": 38.9095,
   "lng": -75.4232,
   "population": 20683,
   "population_proper": 10979,
   "density": 442,
   "source": "polygon",
   "incorporated": true,
   "timezone": "America/New_York",
   "zips": "19963"
 },
 {
   "City-State": "Stanton-DE",
   "id": 1840027452,
   "city": "Stanton",
   "city_ascii": "Stanton",
   "state_id": "DE",
   "City-State": "Stanton-DE",
   "state_name": "Delaware",
   "county_fips": 10003,
   "county_name": "New Castle",
   "lat": 39.7157,
   "lng": -75.6408,
   "population": null,
   "population_proper": null,
   "density": 456.7,
   "source": "point",
   "incorporated": false,
   "timezone": "America/New_York",
   "zips": "19804"
 },
 {
   "City-State": "Holly Oak-DE",
   "id": 1840027445,
   "city": "Holly Oak",
   "city_ascii": "Holly Oak",
   "state_id": "DE",
   "City-State": "Holly Oak-DE",
   "state_name": "Delaware",
   "county_fips": 10003,
   "county_name": "New Castle",
   "lat": 39.7884,
   "lng": -75.4788,
   "population": null,
   "population_proper": null,
   "density": 2227.8,
   "source": "point",
   "incorporated": false,
   "timezone": "America/New_York",
   "zips": "19809"
 },
 {
   "City-State": "Christiana-DE",
   "id": 1840027441,
   "city": "Christiana",
   "city_ascii": "Christiana",
   "state_id": "DE",
   "City-State": "Christiana-DE",
   "state_name": "Delaware",
   "county_fips": 10003,
   "county_name": "New Castle",
   "lat": 39.6651,
   "lng": -75.6599,
   "population": null,
   "population_proper": null,
   "density": 813.5,
   "source": "point",
   "incorporated": false,
   "timezone": "America/New_York",
   "zips": "19702"
 },
 {
   "City-State": "Bridgeville-DE",
   "id": 1840006075,
   "city": "Bridgeville",
   "city_ascii": "Bridgeville",
   "state_id": "DE",
   "City-State": "Bridgeville-DE",
   "state_name": "Delaware",
   "county_fips": 10005,
   "county_name": "Sussex",
   "lat": 38.7248,
   "lng": -75.6027,
   "population": 3758,
   "population_proper": 2302,
   "density": 191,
   "source": "polygon",
   "incorporated": true,
   "timezone": "America/New_York",
   "zips": "19933"
 },
 {
   "City-State": "Greenwood-DE",
   "id": 1840006066,
   "city": "Greenwood",
   "city_ascii": "Greenwood",
   "state_id": "DE",
   "City-State": "Greenwood-DE",
   "state_name": "Delaware",
   "county_fips": 10005,
   "county_name": "Sussex",
   "lat": 38.8069,
   "lng": -75.5907,
   "population": 1085,
   "population_proper": 1085,
   "density": 579,
   "source": "polygon",
   "incorporated": true,
   "timezone": "America/New_York",
   "zips": "19950"
 },
 {
   "City-State": "Saint Georges-DE",
   "id": 1840028612,
   "city": "Saint Georges",
   "city_ascii": "Saint Georges",
   "state_id": "DE",
   "City-State": "Saint Georges-DE",
   "state_name": "Delaware",
   "county_fips": 10003,
   "county_name": "New Castle",
   "lat": 39.5576,
   "lng": -75.6533,
   "population": null,
   "population_proper": null,
   "density": 329.7,
   "source": "polygon",
   "incorporated": false,
   "timezone": "America/New_York",
   "zips": "19733 19720 19701 19709"
 },
 {
   "City-State": "Edgemoor-DE",
   "id": 1840028608,
   "city": "Edgemoor",
   "city_ascii": "Edgemoor",
   "state_id": "DE",
   "City-State": "Edgemoor-DE",
   "state_name": "Delaware",
   "county_fips": 10003,
   "county_name": "New Castle",
   "lat": 39.7549,
   "lng": -75.5063,
   "population": null,
   "population_proper": null,
   "density": 520.9,
   "source": "polygon",
   "incorporated": false,
   "timezone": "America/New_York",
   "zips": "19809 19802"
 },
 {
   "City-State": "Bethany Beach-DE",
   "id": 1840006072,
   "city": "Bethany Beach",
   "city_ascii": "Bethany Beach",
   "state_id": "DE",
   "City-State": "Bethany Beach-DE",
   "state_name": "Delaware",
   "county_fips": 10005,
   "county_name": "Sussex",
   "lat": 38.5391,
   "lng": -75.066,
   "population": 1194,
   "population_proper": 1194,
   "density": 400,
   "source": "polygon",
   "incorporated": true,
   "timezone": "America/New_York",
   "zips": "19930"
 },
 {
   "City-State": "Ogletown-DE",
   "id": 1840028611,
   "city": "Ogletown",
   "city_ascii": "Ogletown",
   "state_id": "DE",
   "City-State": "Ogletown-DE",
   "state_name": "Delaware",
   "county_fips": 10003,
   "county_name": "New Castle",
   "lat": 39.6782,
   "lng": -75.6974,
   "population": null,
   "population_proper": null,
   "density": 1411.6,
   "source": "point",
   "incorporated": false,
   "timezone": "America/New_York",
   "zips": "19713"
 },
 {
   "City-State": "Middletown-DE",
   "id": 1840005581,
   "city": "Middletown",
   "city_ascii": "Middletown",
   "state_id": "DE",
   "City-State": "Middletown-DE",
   "state_name": "Delaware",
   "county_fips": 10003,
   "county_name": "New Castle",
   "lat": 39.4451,
   "lng": -75.7165,
   "population": 32540,
   "population_proper": 20876,
   "density": 684,
   "source": "polygon",
   "incorporated": true,
   "timezone": "America/New_York",
   "zips": "19709"
 },
 {
   "City-State": "Cheswold-DE",
   "id": 1840005814,
   "city": "Cheswold",
   "city_ascii": "Cheswold",
   "state_id": "DE",
   "City-State": "Cheswold-DE",
   "state_name": "Delaware",
   "county_fips": 10001,
   "county_name": "Kent",
   "lat": 39.2224,
   "lng": -75.5911,
   "population": 1425,
   "population_proper": 1425,
   "density": 427,
   "source": "polygon",
   "incorporated": true,
   "timezone": "America/New_York",
   "zips": "19936 19904"
 },
 {
   "City-State": "Newport-DE",
   "id": 1840005582,
   "city": "Newport",
   "city_ascii": "Newport",
   "state_id": "DE",
   "City-State": "Newport-DE",
   "state_name": "Delaware",
   "county_fips": 10003,
   "county_name": "New Castle",
   "lat": 39.7136,
   "lng": -75.6052,
   "population": 1050,
   "population_proper": 1050,
   "density": 924,
   "source": "polygon",
   "incorporated": true,
   "timezone": "America/New_York",
   "zips": "19804"
 },
 {
   "City-State": "Harrington-DE",
   "id": 1840005811,
   "city": "Harrington",
   "city_ascii": "Harrington",
   "state_id": "DE",
   "City-State": "Harrington-DE",
   "state_name": "Delaware",
   "county_fips": 10001,
   "county_name": "Kent",
   "lat": 38.9243,
   "lng": -75.5705,
   "population": 4594,
   "population_proper": 3679,
   "density": 517,
   "source": "polygon",
   "incorporated": true,
   "timezone": "America/New_York",
   "zips": "19952"
 },
 {
   "City-State": "Dewey Beach-DE",
   "id": 1840006061,
   "city": "Dewey Beach",
   "city_ascii": "Dewey Beach",
   "state_id": "DE",
   "City-State": "Dewey Beach-DE",
   "state_name": "Delaware",
   "county_fips": 10005,
   "county_name": "Sussex",
   "lat": 38.6958,
   "lng": -75.0749,
   "population": 379,
   "population_proper": 379,
   "density": 442,
   "source": "polygon",
   "incorporated": true,
   "timezone": "America/New_York",
   "zips": "19971"
 },
 {
   "City-State": "Brookside-DE",
   "id": 1840005569,
   "city": "Brookside",
   "city_ascii": "Brookside",
   "state_id": "DE",
   "City-State": "Brookside-DE",
   "state_name": "Delaware",
   "county_fips": 10003,
   "county_name": "New Castle",
   "lat": 39.6666,
   "lng": -75.7153,
   "population": null,
   "population_proper": null,
   "density": 2217.7,
   "source": "polygon",
   "incorporated": false,
   "timezone": "America/New_York",
   "zips": "19713"
 },
 {
   "City-State": "Marshallton-DE",
   "id": 1840027446,
   "city": "Marshallton",
   "city_ascii": "Marshallton",
   "state_id": "DE",
   "City-State": "Marshallton-DE",
   "state_name": "Delaware",
   "county_fips": 10003,
   "county_name": "New Castle",
   "lat": 39.7257,
   "lng": -75.6541,
   "population": null,
   "population_proper": null,
   "density": 1598,
   "source": "point",
   "incorporated": false,
   "timezone": "America/New_York",
   "zips": "19808"
 },
 {
   "City-State": "Camden-DE",
   "id": 1840005813,
   "city": "Camden",
   "city_ascii": "Camden",
   "state_id": "DE",
   "City-State": "Camden-DE",
   "state_name": "Delaware",
   "county_fips": 10001,
   "county_name": "Kent",
   "lat": 39.099,
   "lng": -75.557,
   "population": 3489,
   "population_proper": 3489,
   "density": 364,
   "source": "polygon",
   "incorporated": true,
   "timezone": "America/New_York",
   "zips": "19934 19904"
 },
 {
   "City-State": "Claymont-DE",
   "id": 1840005570,
   "city": "Claymont",
   "city_ascii": "Claymont",
   "state_id": "DE",
   "City-State": "Claymont-DE",
   "state_name": "Delaware",
   "county_fips": 10003,
   "county_name": "New Castle",
   "lat": 39.8032,
   "lng": -75.4606,
   "population": null,
   "population_proper": null,
   "density": 1512.8,
   "source": "polygon",
   "incorporated": false,
   "timezone": "America/New_York",
   "zips": "19703"
 },
 {
   "City-State": "Milton-DE",
   "id": 1840006081,
   "city": "Milton",
   "city_ascii": "Milton",
   "state_id": "DE",
   "City-State": "Milton-DE",
   "state_name": "Delaware",
   "county_fips": 10005,
   "county_name": "Sussex",
   "lat": 38.775,
   "lng": -75.3104,
   "population": 2856,
   "population_proper": 2879,
   "density": 616,
   "source": "polygon",
   "incorporated": true,
   "timezone": "America/New_York",
   "zips": "19968"
 },
 {
   "City-State": "Dagsboro-DE",
   "id": 1840006076,
   "city": "Dagsboro",
   "city_ascii": "Dagsboro",
   "state_id": "DE",
   "City-State": "Dagsboro-DE",
   "state_name": "Delaware",
   "county_fips": 10005,
   "county_name": "Sussex",
   "lat": 38.5466,
   "lng": -75.2466,
   "population": 878,
   "population_proper": 878,
   "density": 248,
   "source": "polygon",
   "incorporated": true,
   "timezone": "America/New_York",
   "zips": "19939"
 },
 {
   "City-State": "Westover Hills-DE",
   "id": 1840027454,
   "city": "Westover Hills",
   "city_ascii": "Westover Hills",
   "state_id": "DE",
   "City-State": "Westover Hills-DE",
   "state_name": "Delaware",
   "county_fips": 10003,
   "county_name": "New Castle",
   "lat": 39.7634,
   "lng": -75.5908,
   "population": null,
   "population_proper": null,
   "density": 618.1,
   "source": "point",
   "incorporated": false,
   "timezone": "America/New_York",
   "zips": "19807"
 },
 {
   "City-State": "Slaughter Beach-DE",
   "id": 1840006084,
   "city": "Slaughter Beach",
   "city_ascii": "Slaughter Beach",
   "state_id": "DE",
   "City-State": "Slaughter Beach-DE",
   "state_name": "Delaware",
   "county_fips": 10005,
   "county_name": "Sussex",
   "lat": 38.9143,
   "lng": -75.3085,
   "population": 233,
   "population_proper": 233,
   "density": 66,
   "source": "polygon",
   "incorporated": true,
   "timezone": "America/New_York",
   "zips": "19963"
 },
 {
   "City-State": "Frankford-DE",
   "id": 1840006064,
   "city": "Frankford",
   "city_ascii": "Frankford",
   "state_id": "DE",
   "City-State": "Frankford-DE",
   "state_name": "Delaware",
   "county_fips": 10005,
   "county_name": "Sussex",
   "lat": 38.5215,
   "lng": -75.2342,
   "population": 951,
   "population_proper": 951,
   "density": 503,
   "source": "polygon",
   "incorporated": true,
   "timezone": "America/New_York",
   "zips": "19945"
 },
 {
   "City-State": "Riverview-DE",
   "id": 1840028613,
   "city": "Riverview",
   "city_ascii": "Riverview",
   "state_id": "DE",
   "City-State": "Riverview-DE",
   "state_name": "Delaware",
   "county_fips": 10001,
   "county_name": "Kent",
   "lat": 39.0293,
   "lng": -75.5202,
   "population": null,
   "population_proper": null,
   "density": 665,
   "source": "polygon",
   "incorporated": false,
   "timezone": "America/New_York",
   "zips": "19946 19943"
 },
 {
   "City-State": "Centerville-DE",
   "id": 1840027440,
   "city": "Centerville",
   "city_ascii": "Centerville",
   "state_id": "DE",
   "City-State": "Centerville-DE",
   "state_name": "Delaware",
   "county_fips": 10003,
   "county_name": "New Castle",
   "lat": 39.8215,
   "lng": -75.6166,
   "population": null,
   "population_proper": null,
   "density": 71.8,
   "source": "point",
   "incorporated": false,
   "timezone": "America/New_York",
   "zips": "19807"
 },
 {
   "City-State": "Millsboro-DE",
   "id": 1840006079,
   "city": "Millsboro",
   "city_ascii": "Millsboro",
   "state_id": "DE",
   "City-State": "Millsboro-DE",
   "state_name": "Delaware",
   "county_fips": 10005,
   "county_name": "Sussex",
   "lat": 38.5865,
   "lng": -75.3018,
   "population": 10403,
   "population_proper": 4293,
   "density": 446,
   "source": "polygon",
   "incorporated": true,
   "timezone": "America/New_York",
   "zips": "19966"
 },
 {
   "City-State": "Holloway Terrace-DE",
   "id": 1840027444,
   "city": "Holloway Terrace",
   "city_ascii": "Holloway Terrace",
   "state_id": "DE",
   "City-State": "Holloway Terrace-DE",
   "state_name": "Delaware",
   "county_fips": 10003,
   "county_name": "New Castle",
   "lat": 39.7018,
   "lng": -75.5463,
   "population": null,
   "population_proper": null,
   "density": 2215.6,
   "source": "point",
   "incorporated": false,
   "timezone": "America/New_York",
   "zips": "19720"
 },
 {
   "City-State": "Townsend-DE",
   "id": 1840005584,
   "city": "Townsend",
   "city_ascii": "Townsend",
   "state_id": "DE",
   "City-State": "Townsend-DE",
   "state_name": "Delaware",
   "county_fips": 10003,
   "county_name": "New Castle",
   "lat": 39.3968,
   "lng": -75.6945,
   "population": 2313,
   "population_proper": 2313,
   "density": 851,
   "source": "polygon",
   "incorporated": true,
   "timezone": "America/New_York",
   "zips": "19734"
 },
 {
   "City-State": "Minquadale-DE",
   "id": 1840027447,
   "city": "Minquadale",
   "city_ascii": "Minquadale",
   "state_id": "DE",
   "City-State": "Minquadale-DE",
   "state_name": "Delaware",
   "county_fips": 10003,
   "county_name": "New Castle",
   "lat": 39.7071,
   "lng": -75.5666,
   "population": null,
   "population_proper": null,
   "density": 2314.2,
   "source": "point",
   "incorporated": false,
   "timezone": "America/New_York",
   "zips": "19720"
 },
 {
   "City-State": "Woodside-DE",
   "id": 1840005821,
   "city": "Woodside",
   "city_ascii": "Woodside",
   "state_id": "DE",
   "City-State": "Woodside-DE",
   "state_name": "Delaware",
   "county_fips": 10001,
   "county_name": "Kent",
   "lat": 39.0711,
   "lng": -75.5667,
   "population": 196,
   "population_proper": 196,
   "density": 462,
   "source": "polygon",
   "incorporated": true,
   "timezone": "America/New_York",
   "zips": "19943 19904 19980"
 },
 {
   "City-State": "Kenton-DE",
   "id": 1840005816,
   "city": "Kenton",
   "city_ascii": "Kenton",
   "state_id": "DE",
   "City-State": "Kenton-DE",
   "state_name": "Delaware",
   "county_fips": 10001,
   "county_name": "Kent",
   "lat": 39.2272,
   "lng": -75.6645,
   "population": 265,
   "population_proper": 265,
   "density": 543,
   "source": "polygon",
   "incorporated": true,
   "timezone": "America/New_York",
   "zips": "19938 19955"
 },
 {
   "City-State": "Rockland-DE",
   "id": 1840027450,
   "city": "Rockland",
   "city_ascii": "Rockland",
   "state_id": "DE",
   "City-State": "Rockland-DE",
   "state_name": "Delaware",
   "county_fips": 10003,
   "county_name": "New Castle",
   "lat": 39.7962,
   "lng": -75.5721,
   "population": null,
   "population_proper": null,
   "density": 182.5,
   "source": "point",
   "incorporated": false,
   "timezone": "America/New_York",
   "zips": "19803"
 },
 {
   "City-State": "Hartly-DE",
   "id": 1840005808,
   "city": "Hartly",
   "city_ascii": "Hartly",
   "state_id": "DE",
   "City-State": "Hartly-DE",
   "state_name": "Delaware",
   "county_fips": 10001,
   "county_name": "Kent",
   "lat": 39.1687,
   "lng": -75.7125,
   "population": 71,
   "population_proper": 71,
   "density": 464,
   "source": "polygon",
   "incorporated": true,
   "timezone": "America/New_York",
   "zips": "19953"
 },
 {
   "City-State": "Montchanin-DE",
   "id": 1840027448,
   "city": "Montchanin",
   "city_ascii": "Montchanin",
   "state_id": "DE",
   "City-State": "Montchanin-DE",
   "state_name": "Delaware",
   "county_fips": 10003,
   "county_name": "New Castle",
   "lat": 39.7898,
   "lng": -75.5891,
   "population": null,
   "population_proper": null,
   "density": 104.6,
   "source": "point",
   "incorporated": false,
   "timezone": "America/New_York",
   "zips": "19807"
 },
 {
   "City-State": "Seaford-DE",
   "id": 1840006071,
   "city": "Seaford",
   "city_ascii": "Seaford",
   "state_id": "DE",
   "City-State": "Seaford-DE",
   "state_name": "Delaware",
   "county_fips": 10005,
   "county_name": "Sussex",
   "lat": 38.6539,
   "lng": -75.6118,
   "population": 7736,
   "population_proper": 7736,
   "density": 570,
   "source": "polygon",
   "incorporated": true,
   "timezone": "America/New_York",
   "zips": "19973"
 },
 {
   "City-State": "Kent Acres-DE",
   "id": 1840028609,
   "city": "Kent Acres",
   "city_ascii": "Kent Acres",
   "state_id": "DE",
   "City-State": "Kent Acres-DE",
   "state_name": "Delaware",
   "county_fips": 10001,
   "county_name": "Kent",
   "lat": 39.1329,
   "lng": -75.5159,
   "population": null,
   "population_proper": null,
   "density": 1008,
   "source": "polygon",
   "incorporated": false,
   "timezone": "America/New_York",
   "zips": "19901"
 },
 {
   "City-State": "Pleasantville-DE",
   "id": 1840027449,
   "city": "Pleasantville",
   "city_ascii": "Pleasantville",
   "state_id": "DE",
   "City-State": "Pleasantville-DE",
   "state_name": "Delaware",
   "county_fips": 10003,
   "county_name": "New Castle",
   "lat": 39.664,
   "lng": -75.626,
   "population": null,
   "population_proper": null,
   "density": 3334.5,
   "source": "point",
   "incorporated": false,
   "timezone": "America/New_York",
   "zips": "19720"
 },
 {
   "City-State": "Delmar-DE",
   "id": 1840006077,
   "city": "Delmar",
   "city_ascii": "Delmar",
   "state_id": "DE",
   "City-State": "Delmar-DE",
   "state_name": "Delaware",
   "county_fips": 10005,
   "county_name": "Sussex",
   "lat": 38.4651,
   "lng": -75.5553,
   "population": 1765,
   "population_proper": 1765,
   "density": 381,
   "source": "polygon",
   "incorporated": true,
   "timezone": "America/New_York",
   "zips": "19940"
 },
 {
   "City-State": "Leipsic-DE",
   "id": 1840005817,
   "city": "Leipsic",
   "city_ascii": "Leipsic",
   "state_id": "DE",
   "City-State": "Leipsic-DE",
   "state_name": "Delaware",
   "county_fips": 10001,
   "county_name": "Kent",
   "lat": 39.243,
   "lng": -75.5155,
   "population": 196,
   "population_proper": 196,
   "density": 259,
   "source": "polygon",
   "incorporated": true,
   "timezone": "America/New_York",
   "zips": "19977 19901"
 },
 {
   "City-State": "Magnolia-DE",
   "id": 1840005819,
   "city": "Magnolia",
   "city_ascii": "Magnolia",
   "state_id": "DE",
   "City-State": "Magnolia-DE",
   "state_name": "Delaware",
   "county_fips": 10001,
   "county_name": "Kent",
   "lat": 39.0718,
   "lng": -75.4757,
   "population": 235,
   "population_proper": 235,
   "density": 762,
   "source": "polygon",
   "incorporated": true,
   "timezone": "America/New_York",
   "zips": "19962"
 },
 {
   "City-State": "Greenville-DE",
   "id": 1840005572,
   "city": "Greenville",
   "city_ascii": "Greenville",
   "state_id": "DE",
   "City-State": "Greenville-DE",
   "state_name": "Delaware",
   "county_fips": 10003,
   "county_name": "New Castle",
   "lat": 39.7783,
   "lng": -75.6049,
   "population": null,
   "population_proper": null,
   "density": 547,
   "source": "polygon",
   "incorporated": false,
   "timezone": "America/New_York",
   "zips": "19807"
 },
 {
   "City-State": "Pike Creek Valley-DE",
   "id": 1840028614,
   "city": "Pike Creek Valley",
   "city_ascii": "Pike Creek Valley",
   "state_id": "DE",
   "City-State": "Pike Creek Valley-DE",
   "state_name": "Delaware",
   "county_fips": 10003,
   "county_name": "New Castle",
   "lat": 39.7296,
   "lng": -75.6993,
   "population": null,
   "population_proper": null,
   "density": 1080.3,
   "source": "polygon",
   "incorporated": false,
   "timezone": "America/New_York",
   "zips": "19808 19711"
 },
 {
   "City-State": "Bethel-DE",
   "id": 1840006073,
   "city": "Bethel",
   "city_ascii": "Bethel",
   "state_id": "DE",
   "City-State": "Bethel-DE",
   "state_name": "Delaware",
   "county_fips": 10005,
   "county_name": "Sussex",
   "lat": 38.5706,
   "lng": -75.6194,
   "population": 192,
   "population_proper": 192,
   "density": 185,
   "source": "polygon",
   "incorporated": true,
   "timezone": "America/New_York",
   "zips": "19931"
 },
 {
   "City-State": "Hockessin-DE",
   "id": 1840005573,
   "city": "Hockessin",
   "city_ascii": "Hockessin",
   "state_id": "DE",
   "City-State": "Hockessin-DE",
   "state_name": "Delaware",
   "county_fips": 10003,
   "county_name": "New Castle",
   "lat": 39.7837,
   "lng": -75.6815,
   "population": null,
   "population_proper": null,
   "density": 763.9,
   "source": "polygon",
   "incorporated": false,
   "timezone": "America/New_York",
   "zips": "19707 19736"
 },
 {
   "City-State": "Lewes-DE",
   "id": 1840006068,
   "city": "Lewes",
   "city_ascii": "Lewes",
   "state_id": "DE",
   "City-State": "Lewes-DE",
   "state_name": "Delaware",
   "county_fips": 10005,
   "county_name": "Sussex",
   "lat": 38.7784,
   "lng": -75.1455,
   "population": 27008,
   "population_proper": 3074,
   "density": 312,
   "source": "polygon",
   "incorporated": true,
   "timezone": "America/New_York",
   "zips": "19958"
 },
 {
   "City-State": "Selbyville-DE",
   "id": 1840006083,
   "city": "Selbyville",
   "city_ascii": "Selbyville",
   "state_id": "DE",
   "City-State": "Selbyville-DE",
   "state_name": "Delaware",
   "county_fips": 10005,
   "county_name": "Sussex",
   "lat": 38.4627,
   "lng": -75.2085,
   "population": 2421,
   "population_proper": 2421,
   "density": 258,
   "source": "polygon",
   "incorporated": true,
   "timezone": "America/New_York",
   "zips": "19975"
 },
 {
   "City-State": "Collins Park-DE",
   "id": 1840027442,
   "city": "Collins Park",
   "city_ascii": "Collins Park",
   "state_id": "DE",
   "City-State": "Collins Park-DE",
   "state_name": "Delaware",
   "county_fips": 10003,
   "county_name": "New Castle",
   "lat": 39.6862,
   "lng": -75.5563,
   "population": null,
   "population_proper": null,
   "density": 2624.1,
   "source": "point",
   "incorporated": false,
   "timezone": "America/New_York",
   "zips": "19720"
 },
 {
   "City-State": "Delaware City-DE",
   "id": 1840005576,
   "city": "Delaware City",
   "city_ascii": "Delaware City",
   "state_id": "DE",
   "City-State": "Delaware City-DE",
   "state_name": "Delaware",
   "county_fips": 10003,
   "county_name": "New Castle",
   "lat": 39.5776,
   "lng": -75.5985,
   "population": 1742,
   "population_proper": 1742,
   "density": 546,
   "source": "polygon",
   "incorporated": true,
   "timezone": "America/New_York",
   "zips": "19706"
 },
 {
   "City-State": "Bowers Beach-DE",
   "id": 1840028607,
   "city": "Bowers Beach",
   "city_ascii": "Bowers Beach",
   "state_id": "DE",
   "City-State": "Bowers Beach-DE",
   "state_name": "Delaware",
   "county_fips": 10001,
   "county_name": "Kent",
   "lat": 39.0598,
   "lng": -75.4013,
   "population": null,
   "population_proper": null,
   "density": 271.4,
   "source": "point",
   "incorporated": true,
   "timezone": "America/New_York",
   "zips": "19946"
 },
 {
   "City-State": "Little Creek-DE",
   "id": 1840005818,
   "city": "Little Creek",
   "city_ascii": "Little Creek",
   "state_id": "DE",
   "City-State": "Little Creek-DE",
   "state_name": "Delaware",
   "county_fips": 10001,
   "county_name": "Kent",
   "lat": 39.1664,
   "lng": -75.448,
   "population": 234,
   "population_proper": 234,
   "density": 650,
   "source": "polygon",
   "incorporated": true,
   "timezone": "America/New_York",
   "zips": "19901 19961"
 },
 {
   "City-State": "Fairfax-DE",
   "id": 1840027443,
   "city": "Fairfax",
   "city_ascii": "Fairfax",
   "state_id": "DE",
   "City-State": "Fairfax-DE",
   "state_name": "Delaware",
   "county_fips": 10003,
   "county_name": "New Castle",
   "lat": 39.7865,
   "lng": -75.5433,
   "population": null,
   "population_proper": null,
   "density": 1254.9,
   "source": "point",
   "incorporated": false,
   "timezone": "America/New_York",
   "zips": "19803"
 },
 {
   "City-State": "Wilmington Manor-DE",
   "id": 1840005575,
   "city": "Wilmington Manor",
   "city_ascii": "Wilmington Manor",
   "state_id": "DE",
   "City-State": "Wilmington Manor-DE",
   "state_name": "Delaware",
   "county_fips": 10003,
   "county_name": "New Castle",
   "lat": 39.6859,
   "lng": -75.5853,
   "population": null,
   "population_proper": null,
   "density": 2170.8,
   "source": "polygon",
   "incorporated": false,
   "timezone": "America/New_York",
   "zips": "19720"
 },
 {
   "City-State": "Lebanon-DE",
   "id": 1840027481,
   "city": "Lebanon",
   "city_ascii": "Lebanon",
   "state_id": "DE",
   "City-State": "Lebanon-DE",
   "state_name": "Delaware",
   "county_fips": 10001,
   "county_name": "Kent",
   "lat": 39.1115,
   "lng": -75.5005,
   "population": null,
   "population_proper": null,
   "density": 493.1,
   "source": "point",
   "incorporated": false,
   "timezone": "America/New_York",
   "zips": "19901"
 },
 {
   "City-State": "Laurel-DE",
   "id": 1840006078,
   "city": "Laurel",
   "city_ascii": "Laurel",
   "state_id": "DE",
   "City-State": "Laurel-DE",
   "state_name": "Delaware",
   "county_fips": 10005,
   "county_name": "Sussex",
   "lat": 38.5697,
   "lng": -75.5687,
   "population": 4160,
   "population_proper": 4160,
   "density": 556,
   "source": "polygon",
   "incorporated": true,
   "timezone": "America/New_York",
   "zips": "19956"
 },
 {
   "City-State": "Rehoboth Beach-DE",
   "id": 1840006070,
   "city": "Rehoboth Beach",
   "city_ascii": "Rehoboth Beach",
   "state_id": "DE",
   "City-State": "Rehoboth Beach-DE",
   "state_name": "Delaware",
   "county_fips": 10005,
   "county_name": "Sussex",
   "lat": 38.7168,
   "lng": -75.0843,
   "population": 1488,
   "population_proper": 1488,
   "density": 488,
   "source": "polygon",
   "incorporated": true,
   "timezone": "America/New_York",
   "zips": "19971"
 },
 {
   "City-State": "Ardentown-DE",
   "id": 1840005587,
   "city": "Ardentown",
   "city_ascii": "Ardentown",
   "state_id": "DE",
   "City-State": "Ardentown-DE",
   "state_name": "Delaware",
   "county_fips": 10003,
   "county_name": "New Castle",
   "lat": 39.8078,
   "lng": -75.4804,
   "population": 273,
   "population_proper": 273,
   "density": 446,
   "source": "polygon",
   "incorporated": true,
   "timezone": "America/New_York",
   "zips": "19810 19703"
 },
 {
   "City-State": "Farmington-DE",
   "id": 1840005805,
   "city": "Farmington",
   "city_ascii": "Farmington",
   "state_id": "DE",
   "City-State": "Farmington-DE",
   "state_name": "Delaware",
   "county_fips": 10001,
   "county_name": "Kent",
   "lat": 38.87,
   "lng": -75.5793,
   "population": 118,
   "population_proper": 118,
   "density": 559,
   "source": "polygon",
   "incorporated": true,
   "timezone": "America/New_York",
   "zips": "19950"
 },
 {
   "City-State": "Felton-DE",
   "id": 1840005806,
   "city": "Felton",
   "city_ascii": "Felton",
   "state_id": "DE",
   "City-State": "Felton-DE",
   "state_name": "Delaware",
   "county_fips": 10001,
   "county_name": "Kent",
   "lat": 39.0125,
   "lng": -75.5761,
   "population": 1408,
   "population_proper": 1408,
   "density": 665,
   "source": "polygon",
   "incorporated": true,
   "timezone": "America/New_York",
   "zips": "19943"
 },
 {
   "City-State": "Ardencroft-DE",
   "id": 1840005586,
   "city": "Ardencroft",
   "city_ascii": "Ardencroft",
   "state_id": "DE",
   "City-State": "Ardencroft-DE",
   "state_name": "Delaware",
   "county_fips": 10003,
   "county_name": "New Castle",
   "lat": 39.8054,
   "lng": -75.486,
   "population": 237,
   "population_proper": 237,
   "density": 905,
   "source": "polygon",
   "incorporated": true,
   "timezone": "America/New_York",
   "zips": "19810"
 },
 {
   "City-State": "Viola-DE",
   "id": 1840003807,
   "city": "Viola",
   "city_ascii": "Viola",
   "state_id": "DE",
   "City-State": "Viola-DE",
   "state_name": "Delaware",
   "county_fips": 10001,
   "county_name": "Kent",
   "lat": 39.043,
   "lng": -75.5716,
   "population": 171,
   "population_proper": 171,
   "density": 357,
   "source": "polygon",
   "incorporated": true,
   "timezone": "America/New_York",
   "zips": "19979"
 },
 {
   "City-State": "Glasgow-DE",
   "id": 1840005571,
   "city": "Glasgow",
   "city_ascii": "Glasgow",
   "state_id": "DE",
   "City-State": "Glasgow-DE",
   "state_name": "Delaware",
   "county_fips": 10003,
   "county_name": "New Castle",
   "lat": 39.6015,
   "lng": -75.7474,
   "population": null,
   "population_proper": null,
   "density": 39.7,
   "source": "polygon",
   "incorporated": false,
   "timezone": "America/New_York",
   "zips": "19701 19702"
 },
 {
   "City-State": "Odessa-DE",
   "id": 1840005583,
   "city": "Odessa",
   "city_ascii": "Odessa",
   "state_id": "DE",
   "City-State": "Odessa-DE",
   "state_name": "Delaware",
   "county_fips": 10003,
   "county_name": "New Castle",
   "lat": 39.4562,
   "lng": -75.6605,
   "population": 372,
   "population_proper": 372,
   "density": 282,
   "source": "polygon",
   "incorporated": true,
   "timezone": "America/New_York",
   "zips": "19709 19730"
 },
 {
   "City-State": "Elsmere-DE",
   "id": 1840005574,
   "city": "Elsmere",
   "city_ascii": "Elsmere",
   "state_id": "DE",
   "City-State": "Elsmere-DE",
   "state_name": "Delaware",
   "county_fips": 10003,
   "county_name": "New Castle",
   "lat": 39.7385,
   "lng": -75.5946,
   "population": 6106,
   "population_proper": 6106,
   "density": 2342,
   "source": "polygon",
   "incorporated": true,
   "timezone": "America/New_York",
   "zips": "19804 19805"
 },
 {
   "City-State": "Georgetown-DE",
   "id": 1840006065,
   "city": "Georgetown",
   "city_ascii": "Georgetown",
   "state_id": "DE",
   "City-State": "Georgetown-DE",
   "state_name": "Delaware",
   "county_fips": 10005,
   "county_name": "Sussex",
   "lat": 38.6899,
   "lng": -75.3872,
   "population": 10136,
   "population_proper": 7206,
   "density": 541,
   "source": "polygon",
   "incorporated": true,
   "timezone": "America/New_York",
   "zips": "19947"
 },
 {
   "City-State": "Arden-DE",
   "id": 1840005585,
   "city": "Arden",
   "city_ascii": "Arden",
   "state_id": "DE",
   "City-State": "Arden-DE",
   "state_name": "Delaware",
   "county_fips": 10003,
   "county_name": "New Castle",
   "lat": 39.8113,
   "lng": -75.4886,
   "population": 450,
   "population_proper": 450,
   "density": 670,
   "source": "polygon",
   "incorporated": true,
   "timezone": "America/New_York",
   "zips": "19810"
 },
 {
   "City-State": "Bear-DE",
   "id": 1840005568,
   "city": "Bear",
   "city_ascii": "Bear",
   "state_id": "DE",
   "City-State": "Bear-DE",
   "state_name": "Delaware",
   "county_fips": 10003,
   "county_name": "New Castle",
   "lat": 39.6188,
   "lng": -75.6804,
   "population": null,
   "population_proper": null,
   "density": 791.5,
   "source": "polygon",
   "incorporated": false,
   "timezone": "America/New_York",
   "zips": "19701 19702"
 },
 {
   "City-State": "Milford Crossroads-DE",
   "id": 1840028610,
   "city": "Milford Crossroads",
   "city_ascii": "Milford Crossroads",
   "state_id": "DE",
   "City-State": "Milford Crossroads-DE",
   "state_name": "Delaware",
   "county_fips": 10003,
   "county_name": "New Castle",
   "lat": 39.7157,
   "lng": -75.7408,
   "population": null,
   "population_proper": null,
   "density": 1053.5,
   "source": "point",
   "incorporated": false,
   "timezone": "America/New_York",
   "zips": "19711"
 },
 {
   "City-State": "Clayton-DE",
   "id": 1840005815,
   "city": "Clayton",
   "city_ascii": "Clayton",
   "state_id": "DE",
   "City-State": "Clayton-DE",
   "state_name": "Delaware",
   "county_fips": 10001,
   "county_name": "Kent",
   "lat": 39.2846,
   "lng": -75.6363,
   "population": 3157,
   "population_proper": 3157,
   "density": 664,
   "source": "polygon",
   "incorporated": true,
   "timezone": "America/New_York",
   "zips": "19977 19938"
 },
 {
   "City-State": "Rodney Village-DE",
   "id": 1840005804,
   "city": "Rodney Village",
   "city_ascii": "Rodney Village",
   "state_id": "DE",
   "City-State": "Rodney Village-DE",
   "state_name": "Delaware",
   "county_fips": 10001,
   "county_name": "Kent",
   "lat": 39.1284,
   "lng": -75.5395,
   "population": null,
   "population_proper": null,
   "density": 1226.7,
   "source": "polygon",
   "incorporated": false,
   "timezone": "America/New_York",
   "zips": "19904"
 },
 {
   "City-State": "Millville-DE",
   "id": 1840006080,
   "city": "Millville",
   "city_ascii": "Millville",
   "state_id": "DE",
   "City-State": "Millville-DE",
   "state_name": "Delaware",
   "county_fips": 10005,
   "county_name": "Sussex",
   "lat": 38.5351,
   "lng": -75.1291,
   "population": 602,
   "population_proper": 602,
   "density": 93,
   "source": "polygon",
   "incorporated": true,
   "timezone": "America/New_York",
   "zips": "19945 19967"
 },
 {
   "City-State": "Frederica-DE",
   "id": 1840005807,
   "city": "Frederica",
   "city_ascii": "Frederica",
   "state_id": "DE",
   "City-State": "Frederica-DE",
   "state_name": "Delaware",
   "county_fips": 10001,
   "county_name": "Kent",
   "lat": 39.008,
   "lng": -75.466,
   "population": 828,
   "population_proper": 828,
   "density": 166,
   "source": "polygon",
   "incorporated": true,
   "timezone": "America/New_York",
   "zips": "19946"
 },
 {
   "City-State": "Pike Creek-DE",
   "id": 1840028618,
   "city": "Pike Creek",
   "city_ascii": "Pike Creek",
   "state_id": "DE",
   "City-State": "Pike Creek-DE",
   "state_name": "Delaware",
   "county_fips": 10003,
   "county_name": "New Castle",
   "lat": 39.7485,
   "lng": -75.6953,
   "population": null,
   "population_proper": null,
   "density": 1807.7,
   "source": "polygon",
   "incorporated": false,
   "timezone": "America/New_York",
   "zips": "19808 19707 19711"
 },
 {
   "City-State": "Wilmington-DE",
   "id": 1840005579,
   "city": "Wilmington",
   "city_ascii": "Wilmington",
   "state_id": "DE",
   "City-State": "Wilmington-DE",
   "state_name": "Delaware",
   "county_fips": 10003,
   "county_name": "New Castle",
   "lat": 39.7349,
   "lng": -75.5286,
   "population": 71442,
   "population_proper": 71442,
   "density": 2529,
   "source": "polygon",
   "incorporated": true,
   "timezone": "America/New_York",
   "zips": "19809 19802 19801 19806 19805 19850 19880 19884 19885 19886 19890 19891 19892 19893 19894 19895 19896 19897 19898 19899"
 },
 {
   "City-State": "South Bethany-DE",
   "id": 1840006085,
   "city": "South Bethany",
   "city_ascii": "South Bethany",
   "state_id": "DE",
   "City-State": "South Bethany-DE",
   "state_name": "Delaware",
   "county_fips": 10005,
   "county_name": "Sussex",
   "lat": 38.5161,
   "lng": -75.0591,
   "population": 508,
   "population_proper": 508,
   "density": 380,
   "source": "polygon",
   "incorporated": true,
   "timezone": "America/New_York",
   "zips": "19930"
 },
 {
   "City-State": "Bellefonte-DE",
   "id": 1840005580,
   "city": "Bellefonte",
   "city_ascii": "Bellefonte",
   "state_id": "DE",
   "City-State": "Bellefonte-DE",
   "state_name": "Delaware",
   "county_fips": 10003,
   "county_name": "New Castle",
   "lat": 39.7669,
   "lng": -75.4982,
   "population": 1178,
   "population_proper": 1178,
   "density": 2566,
   "source": "polygon",
   "incorporated": true,
   "timezone": "America/New_York",
   "zips": "19809"
 },
 {
   "City-State": "Henlopen Acres-DE",
   "id": 1840006067,
   "city": "Henlopen Acres",
   "city_ascii": "Henlopen Acres",
   "state_id": "DE",
   "City-State": "Henlopen Acres-DE",
   "state_name": "Delaware",
   "county_fips": 10005,
   "county_name": "Sussex",
   "lat": 38.7256,
   "lng": -75.0849,
   "population": 138,
   "population_proper": 138,
   "density": 208,
   "source": "polygon",
   "incorporated": true,
   "timezone": "America/New_York",
   "zips": "19971"
 },
 {
   "City-State": "Ocean View-DE",
   "id": 1840006082,
   "city": "Ocean View",
   "city_ascii": "Ocean View",
   "state_id": "DE",
   "City-State": "Ocean View-DE",
   "state_name": "Delaware",
   "county_fips": 10005,
   "county_name": "Sussex",
   "lat": 38.5357,
   "lng": -75.0991,
   "population": 13612,
   "population_proper": 2076,
   "density": 303,
   "source": "polygon",
   "incorporated": true,
   "timezone": "America/New_York",
   "zips": "19970"
 },
 {
   "City-State": "Dover-DE",
   "id": 1840005810,
   "city": "Dover",
   "city_ascii": "Dover",
   "state_id": "DE",
   "City-State": "Dover-DE",
   "state_name": "Delaware",
   "county_fips": 10001,
   "county_name": "Kent",
   "lat": 39.16,
   "lng": -75.5204,
   "population": 116114,
   "population_proper": 37786,
   "density": 629,
   "source": "polygon",
   "incorporated": true,
   "timezone": "America/New_York",
   "zips": "19902 19901 19904 19903 19905 19906"
 },
 {
   "City-State": "New Castle-DE",
   "id": 1840005577,
   "city": "New Castle",
   "city_ascii": "New Castle",
   "state_id": "DE",
   "City-State": "New Castle-DE",
   "state_name": "Delaware",
   "county_fips": 10003,
   "county_name": "New Castle",
   "lat": 39.6689,
   "lng": -75.5684,
   "population": 5357,
   "population_proper": 5357,
   "density": 608,
   "source": "polygon",
   "incorporated": true,
   "timezone": "America/New_York",
   "zips": "19720 19721"
 },
 {
   "City-State": "Houston-DE",
   "id": 1840005809,
   "city": "Houston",
   "city_ascii": "Houston",
   "state_id": "DE",
   "City-State": "Houston-DE",
   "state_name": "Delaware",
   "county_fips": 10001,
   "county_name": "Kent",
   "lat": 38.9177,
   "lng": -75.5041,
   "population": 393,
   "population_proper": 393,
   "density": 453,
   "source": "polygon",
   "incorporated": true,
   "timezone": "America/New_York",
   "zips": "19954"
 },
 {
   "City-State": "Ellendale-DE",
   "id": 1840006062,
   "city": "Ellendale",
   "city_ascii": "Ellendale",
   "state_id": "DE",
   "City-State": "Ellendale-DE",
   "state_name": "Delaware",
   "county_fips": 10005,
   "county_name": "Sussex",
   "lat": 38.8103,
   "lng": -75.425,
   "population": 423,
   "population_proper": 423,
   "density": 369,
   "source": "polygon",
   "incorporated": true,
   "timezone": "America/New_York",
   "zips": "19941"
 },
 {
   "City-State": "Yorklyn-DE",
   "id": 1840027455,
   "city": "Yorklyn",
   "city_ascii": "Yorklyn",
   "state_id": "DE",
   "City-State": "Yorklyn-DE",
   "state_name": "Delaware",
   "county_fips": 10003,
   "county_name": "New Castle",
   "lat": 39.8082,
   "lng": -75.6755,
   "population": null,
   "population_proper": null,
   "density": 174.6,
   "source": "point",
   "incorporated": false,
   "timezone": "America/New_York",
   "zips": "19736"
 },
 {
   "City-State": "Smyrna-DE",
   "id": 1840005820,
   "city": "Smyrna",
   "city_ascii": "Smyrna",
   "state_id": "DE",
   "City-State": "Smyrna-DE",
   "state_name": "Delaware",
   "county_fips": 10001,
   "county_name": "Kent",
   "lat": 39.2922,
   "lng": -75.6079,
   "population": 11371,
   "population_proper": 11371,
   "density": 739,
   "source": "polygon",
   "incorporated": true,
   "timezone": "America/New_York",
   "zips": "19977"
 },
 {
   "City-State": "Long Neck-DE",
   "id": 1840028617,
   "city": "Long Neck",
   "city_ascii": "Long Neck",
   "state_id": "DE",
   "City-State": "Long Neck-DE",
   "state_name": "Delaware",
   "county_fips": 10005,
   "county_name": "Sussex",
   "lat": 38.6212,
   "lng": -75.152,
   "population": null,
   "population_proper": null,
   "density": 448.6,
   "source": "polygon",
   "incorporated": false,
   "timezone": "America/New_York",
   "zips": "19966"
 },
 {
   "City-State": "North Star-DE",
   "id": 1840028615,
   "city": "North Star",
   "city_ascii": "North Star",
   "state_id": "DE",
   "City-State": "North Star-DE",
   "state_name": "Delaware",
   "county_fips": 10003,
   "county_name": "New Castle",
   "lat": 39.755,
   "lng": -75.7331,
   "population": null,
   "population_proper": null,
   "density": 422.2,
   "source": "polygon",
   "incorporated": false,
   "timezone": "America/New_York",
   "zips": "19711"
 }
]