[
 {
   "City-State": "Packwood-IA",
   "id": 1840009334,
   "city": "Packwood",
   "city_ascii": "Packwood",
   "state_id": "IA",
   "City-State": "Packwood-IA",
   "state_name": "Iowa",
   "county_fips": 19101,
   "county_name": "Jefferson",
   "lat": 41.1327,
   "lng": -92.0825,
   "population": 222,
   "population_proper": 222,
   "density": 112,
   "source": "polygon",
   "incorporated": true,
   "timezone": "America/Chicago",
   "zips": "52580"
 },
 {
   "City-State": "Windsor Heights-IA",
   "id": 1840010186,
   "city": "Windsor Heights",
   "city_ascii": "Windsor Heights",
   "state_id": "IA",
   "City-State": "Windsor Heights-IA",
   "state_name": "Iowa",
   "county_fips": 19153,
   "county_name": "Polk",
   "lat": 41.6042,
   "lng": -93.7129,
   "population": 4983,
   "population_proper": 4983,
   "density": 1358,
   "source": "polygon",
   "incorporated": true,
   "timezone": "America/Chicago",
   "zips": "50324"
 },
 {
   "City-State": "Ireton-IA",
   "id": 1840007984,
   "city": "Ireton",
   "city_ascii": "Ireton",
   "state_id": "IA",
   "City-State": "Ireton-IA",
   "state_name": "Iowa",
   "county_fips": 19167,
   "county_name": "Sioux",
   "lat": 42.9749,
   "lng": -96.3218,
   "population": 601,
   "population_proper": 601,
   "density": 230,
   "source": "polygon",
   "incorporated": true,
   "timezone": "America/Chicago",
   "zips": "51027"
 },
 {
   "City-State": "Castalia-IA",
   "id": 1840006863,
   "city": "Castalia",
   "city_ascii": "Castalia",
   "state_id": "IA",
   "City-State": "Castalia-IA",
   "state_name": "Iowa",
   "county_fips": 19191,
   "county_name": "Winneshiek",
   "lat": 43.1128,
   "lng": -91.677,
   "population": 166,
   "population_proper": 166,
   "density": 110,
   "source": "polygon",
   "incorporated": true,
   "timezone": "America/Chicago",
   "zips": "52133"
 },
 {
   "City-State": "West Branch-IA",
   "id": 1840010174,
   "city": "West Branch",
   "city_ascii": "West Branch",
   "state_id": "IA",
   "City-State": "West Branch-IA",
   "state_name": "Iowa",
   "county_fips": 19031,
   "county_name": "Cedar",
   "lat": 41.6627,
   "lng": -91.3406,
   "population": 2359,
   "population_proper": 2359,
   "density": 285,
   "source": "polygon",
   "incorporated": true,
   "timezone": "America/Chicago",
   "zips": "52358"
 },
 {
   "City-State": "University Park-IA",
   "id": 1840010262,
   "city": "University Park",
   "city_ascii": "University Park",
   "state_id": "IA",
   "City-State": "University Park-IA",
   "state_name": "Iowa",
   "county_fips": 19123,
   "county_name": "Mahaska",
   "lat": 41.2857,
   "lng": -92.6149,
   "population": 474,
   "population_proper": 474,
   "density": 236,
   "source": "polygon",
   "incorporated": true,
   "timezone": "America/Chicago",
   "zips": "52595 52577"
 },
 {
   "City-State": "Le Mars-IA",
   "id": 1840008022,
   "city": "Le Mars",
   "city_ascii": "Le Mars",
   "state_id": "IA",
   "City-State": "Le Mars-IA",
   "state_name": "Iowa",
   "county_fips": 19149,
   "county_name": "Plymouth",
   "lat": 42.7809,
   "lng": -96.1743,
   "population": 9339,
   "population_proper": 9935,
   "density": 426,
   "source": "polygon",
   "incorporated": true,
   "timezone": "America/Chicago",
   "zips": "51031"
 },
 {
   "City-State": "Arbor Hill-IA",
   "id": 1840029688,
   "city": "Arbor Hill",
   "city_ascii": "Arbor Hill",
   "state_id": "IA",
   "City-State": "Arbor Hill-IA",
   "state_name": "Iowa",
   "county_fips": 19001,
   "county_name": "Adair",
   "lat": 41.3667,
   "lng": -94.3183,
   "population": null,
   "population_proper": null,
   "density": 3,
   "source": "point",
   "incorporated": false,
   "timezone": "America/Chicago",
   "zips": "50250"
 },
 {
   "City-State": "Dundee-IA",
   "id": 1840008049,
   "city": "Dundee",
   "city_ascii": "Dundee",
   "state_id": "IA",
   "City-State": "Dundee-IA",
   "state_name": "Iowa",
   "county_fips": 19055,
   "county_name": "Delaware",
   "lat": 42.5799,
   "lng": -91.5461,
   "population": 170,
   "population_proper": 170,
   "density": 181,
   "source": "polygon",
   "incorporated": true,
   "timezone": "America/Chicago",
   "zips": "52038"
 },
 {
   "City-State": "Wayland-IA",
   "id": 1840010313,
   "city": "Wayland",
   "city_ascii": "Wayland",
   "state_id": "IA",
   "City-State": "Wayland-IA",
   "state_name": "Iowa",
   "county_fips": 19087,
   "county_name": "Henry",
   "lat": 41.1485,
   "lng": -91.6591,
   "population": 952,
   "population_proper": 952,
   "density": 364,
   "source": "polygon",
   "incorporated": true,
   "timezone": "America/Chicago",
   "zips": "52654"
 },
 {
   "City-State": "Oakland Acres-IA",
   "id": 1840008172,
   "city": "Oakland Acres",
   "city_ascii": "Oakland Acres",
   "state_id": "IA",
   "City-State": "Oakland Acres-IA",
   "state_name": "Iowa",
   "county_fips": 19099,
   "county_name": "Jasper",
   "lat": 41.7204,
   "lng": -92.8211,
   "population": 155,
   "population_proper": 155,
   "density": 211,
   "source": "polygon",
   "incorporated": true,
   "timezone": "America/Chicago",
   "zips": "50112"
 },
 {
   "City-State": "Pleasant Hill-IA",
   "id": 1840009219,
   "city": "Pleasant Hill",
   "city_ascii": "Pleasant Hill",
   "state_id": "IA",
   "City-State": "Pleasant Hill-IA",
   "state_name": "Iowa",
   "county_fips": 19153,
   "county_name": "Polk",
   "lat": 41.5857,
   "lng": -93.4998,
   "population": 9750,
   "population_proper": 9750,
   "density": 413,
   "source": "polygon",
   "incorporated": true,
   "timezone": "America/Chicago",
   "zips": "50327"
 },
 {
   "City-State": "Bayard-IA",
   "id": 1840007074,
   "city": "Bayard",
   "city_ascii": "Bayard",
   "state_id": "IA",
   "City-State": "Bayard-IA",
   "state_name": "Iowa",
   "county_fips": 19077,
   "county_name": "Guthrie",
   "lat": 41.852,
   "lng": -94.5578,
   "population": 457,
   "population_proper": 457,
   "density": 385,
   "source": "polygon",
   "incorporated": true,
   "timezone": "America/Chicago",
   "zips": "50029"
 },
 {
   "City-State": "Littleport-IA",
   "id": 1840029650,
   "city": "Littleport",
   "city_ascii": "Littleport",
   "state_id": "IA",
   "City-State": "Littleport-IA",
   "state_name": "Iowa",
   "county_fips": 19043,
   "county_name": "Clayton",
   "lat": 42.7547,
   "lng": -91.3693,
   "population": null,
   "population_proper": null,
   "density": 12.8,
   "source": "point",
   "incorporated": false,
   "timezone": "America/Chicago",
   "zips": "52043"
 },
 {
   "City-State": "Farley-IA",
   "id": 1840008046,
   "city": "Farley",
   "city_ascii": "Farley",
   "state_id": "IA",
   "City-State": "Farley-IA",
   "state_name": "Iowa",
   "county_fips": 19061,
   "county_name": "Dubuque",
   "lat": 42.4438,
   "lng": -91.0091,
   "population": 1688,
   "population_proper": 1688,
   "density": 404,
   "source": "polygon",
   "incorporated": true,
   "timezone": "America/Chicago",
   "zips": "52046"
 },
 {
   "City-State": "Vincent-IA",
   "id": 1840010096,
   "city": "Vincent",
   "city_ascii": "Vincent",
   "state_id": "IA",
   "City-State": "Vincent-IA",
   "state_name": "Iowa",
   "county_fips": 19187,
   "county_name": "Webster",
   "lat": 42.5917,
   "lng": -94.0198,
   "population": 168,
   "population_proper": 168,
   "density": 254,
   "source": "polygon",
   "incorporated": true,
   "timezone": "America/Chicago",
   "zips": "50594"
 },
 {
   "City-State": "Allerton-IA",
   "id": 1840007201,
   "city": "Allerton",
   "city_ascii": "Allerton",
   "state_id": "IA",
   "City-State": "Allerton-IA",
   "state_name": "Iowa",
   "county_fips": 19185,
   "county_name": "Wayne",
   "lat": 40.7077,
   "lng": -93.3689,
   "population": 502,
   "population_proper": 502,
   "density": 170,
   "source": "polygon",
   "incorporated": true,
   "timezone": "America/Chicago",
   "zips": "50008"
 },
 {
   "City-State": "Imogene-IA",
   "id": 1840007179,
   "city": "Imogene",
   "city_ascii": "Imogene",
   "state_id": "IA",
   "City-State": "Imogene-IA",
   "state_name": "Iowa",
   "county_fips": 19071,
   "county_name": "Fremont",
   "lat": 40.879,
   "lng": -95.4275,
   "population": 67,
   "population_proper": 67,
   "density": 129,
   "source": "polygon",
   "incorporated": true,
   "timezone": "America/Chicago",
   "zips": "51645"
 },
 {
   "City-State": "Columbia-IA",
   "id": 1840029613,
   "city": "Columbia",
   "city_ascii": "Columbia",
   "state_id": "IA",
   "City-State": "Columbia-IA",
   "state_name": "Iowa",
   "county_fips": 19125,
   "county_name": "Marion",
   "lat": 41.1753,
   "lng": -93.1499,
   "population": null,
   "population_proper": null,
   "density": 3.2,
   "source": "point",
   "incorporated": false,
   "timezone": "America/Chicago",
   "zips": "50057"
 },
 {
   "City-State": "Clutier-IA",
   "id": 1840006990,
   "city": "Clutier",
   "city_ascii": "Clutier",
   "state_id": "IA",
   "City-State": "Clutier-IA",
   "state_name": "Iowa",
   "county_fips": 19171,
   "county_name": "Tama",
   "lat": 42.0793,
   "lng": -92.4036,
   "population": 209,
   "population_proper": 209,
   "density": 106,
   "source": "polygon",
   "incorporated": true,
   "timezone": "America/Chicago",
   "zips": "52217"
 },
 {
   "City-State": "Blockton-IA",
   "id": 1840007189,
   "city": "Blockton",
   "city_ascii": "Blockton",
   "state_id": "IA",
   "City-State": "Blockton-IA",
   "state_name": "Iowa",
   "county_fips": 19173,
   "county_name": "Taylor",
   "lat": 40.6168,
   "lng": -94.4779,
   "population": 191,
   "population_proper": 191,
   "density": 114,
   "source": "polygon",
   "incorporated": true,
   "timezone": "America/Chicago",
   "zips": "50836"
 },
 {
   "City-State": "Ralston-IA",
   "id": 1840009163,
   "city": "Ralston",
   "city_ascii": "Ralston",
   "state_id": "IA",
   "City-State": "Ralston-IA",
   "state_name": "Iowa",
   "county_fips": 19027,
   "county_name": "Carroll",
   "lat": 42.0418,
   "lng": -94.6293,
   "population": 75,
   "population_proper": 75,
   "density": 14,
   "source": "polygon",
   "incorporated": true,
   "timezone": "America/Chicago",
   "zips": "51459 51462 51443"
 },
 {
   "City-State": "Davenport-IA",
   "id": 1840007081,
   "city": "Davenport",
   "city_ascii": "Davenport",
   "state_id": "IA",
   "City-State": "Davenport-IA",
   "state_name": "Iowa",
   "county_fips": 19163,
   "county_name": "Scott",
   "lat": 41.5558,
   "lng": -90.6052,
   "population": 288233,
   "population_proper": 102612,
   "density": 629,
   "source": "polygon",
   "incorporated": true,
   "timezone": "America/Chicago",
   "zips": "52802 52803 52801 52806 52807 52804 52805 52808 52809"
 },
 {
   "City-State": "Lake City-IA",
   "id": 1840000448,
   "city": "Lake City",
   "city_ascii": "Lake City",
   "state_id": "IA",
   "City-State": "Lake City-IA",
   "state_name": "Iowa",
   "county_fips": 19025,
   "county_name": "Calhoun",
   "lat": 42.2676,
   "lng": -94.731,
   "population": 1679,
   "population_proper": 1679,
   "density": 134,
   "source": "polygon",
   "incorporated": true,
   "timezone": "America/Chicago",
   "zips": "51449"
 },
 {
   "City-State": "Fremont-IA",
   "id": 1840008223,
   "city": "Fremont",
   "city_ascii": "Fremont",
   "state_id": "IA",
   "City-State": "Fremont-IA",
   "state_name": "Iowa",
   "county_fips": 19123,
   "county_name": "Mahaska",
   "lat": 41.2125,
   "lng": -92.4342,
   "population": 724,
   "population_proper": 724,
   "density": 270,
   "source": "polygon",
   "incorporated": true,
   "timezone": "America/Chicago",
   "zips": "52561"
 },
 {
   "City-State": "Jackson Junction-IA",
   "id": 1840007980,
   "city": "Jackson Junction",
   "city_ascii": "Jackson Junction",
   "state_id": "IA",
   "City-State": "Jackson Junction-IA",
   "state_name": "Iowa",
   "county_fips": 19191,
   "county_name": "Winneshiek",
   "lat": 43.1013,
   "lng": -92.0463,
   "population": 55,
   "population_proper": 55,
   "density": 3,
   "source": "polygon",
   "incorporated": true,
   "timezone": "America/Chicago",
   "zips": "52171"
 },
 {
   "City-State": "Casey-IA",
   "id": 1840007072,
   "city": "Casey",
   "city_ascii": "Casey",
   "state_id": "IA",
   "City-State": "Casey-IA",
   "state_name": "Iowa",
   "county_fips": 19077,
   "county_name": "Guthrie",
   "lat": 41.5075,
   "lng": -94.5213,
   "population": 399,
   "population_proper": 399,
   "density": 208,
   "source": "polygon",
   "incorporated": true,
   "timezone": "America/Chicago",
   "zips": "50048"
 },
 {
   "City-State": "Alden-IA",
   "id": 1840006961,
   "city": "Alden",
   "city_ascii": "Alden",
   "state_id": "IA",
   "City-State": "Alden-IA",
   "state_name": "Iowa",
   "county_fips": 19083,
   "county_name": "Hardin",
   "lat": 42.5106,
   "lng": -93.3806,
   "population": 762,
   "population_proper": 762,
   "density": 172,
   "source": "polygon",
   "incorporated": true,
   "timezone": "America/Chicago",
   "zips": "50006"
 },
 {
   "City-State": "Kellogg-IA",
   "id": 1840008175,
   "city": "Kellogg",
   "city_ascii": "Kellogg",
   "state_id": "IA",
   "City-State": "Kellogg-IA",
   "state_name": "Iowa",
   "county_fips": 19099,
   "county_name": "Jasper",
   "lat": 41.7181,
   "lng": -92.9071,
   "population": 590,
   "population_proper": 590,
   "density": 623,
   "source": "polygon",
   "incorporated": true,
   "timezone": "America/Chicago",
   "zips": "50135"
 },
 {
   "City-State": "Kingsley-IA",
   "id": 1840008021,
   "city": "Kingsley",
   "city_ascii": "Kingsley",
   "state_id": "IA",
   "City-State": "Kingsley-IA",
   "state_name": "Iowa",
   "county_fips": 19149,
   "county_name": "Plymouth",
   "lat": 42.5865,
   "lng": -95.9678,
   "population": 1427,
   "population_proper": 1427,
   "density": 342,
   "source": "polygon",
   "incorporated": true,
   "timezone": "America/Chicago",
   "zips": "51028"
 },
 {
   "City-State": "University Heights-IA",
   "id": 1840010190,
   "city": "University Heights",
   "city_ascii": "University Heights",
   "state_id": "IA",
   "City-State": "University Heights-IA",
   "state_name": "Iowa",
   "county_fips": 19103,
   "county_name": "Johnson",
   "lat": 41.6551,
   "lng": -91.5588,
   "population": 1089,
   "population_proper": 1089,
   "density": 1567,
   "source": "polygon",
   "incorporated": true,
   "timezone": "America/Chicago",
   "zips": "52246"
 },
 {
   "City-State": "Dougherty-IA",
   "id": 1840006877,
   "city": "Dougherty",
   "city_ascii": "Dougherty",
   "state_id": "IA",
   "City-State": "Dougherty-IA",
   "state_name": "Iowa",
   "county_fips": 19033,
   "county_name": "Cerro Gordo",
   "lat": 42.922,
   "lng": -93.0359,
   "population": 56,
   "population_proper": 56,
   "density": 39,
   "source": "polygon",
   "incorporated": true,
   "timezone": "America/Chicago",
   "zips": "50433"
 },
 {
   "City-State": "Okoboji-IA",
   "id": 1840007959,
   "city": "Okoboji",
   "city_ascii": "Okoboji",
   "state_id": "IA",
   "City-State": "Okoboji-IA",
   "state_name": "Iowa",
   "county_fips": 19059,
   "county_name": "Dickinson",
   "lat": 43.3911,
   "lng": -95.1392,
   "population": 830,
   "population_proper": 830,
   "density": 172,
   "source": "polygon",
   "incorporated": true,
   "timezone": "America/Chicago",
   "zips": "51355"
 },
 {
   "City-State": "Otho-IA",
   "id": 1840009101,
   "city": "Otho",
   "city_ascii": "Otho",
   "state_id": "IA",
   "City-State": "Otho-IA",
   "state_name": "Iowa",
   "county_fips": 19187,
   "county_name": "Webster",
   "lat": 42.4222,
   "lng": -94.1493,
   "population": 515,
   "population_proper": 515,
   "density": 434,
   "source": "polygon",
   "incorporated": true,
   "timezone": "America/Chicago",
   "zips": "50569"
 },
 {
   "City-State": "Green Island-IA",
   "id": 1840003186,
   "city": "Green Island",
   "city_ascii": "Green Island",
   "state_id": "IA",
   "City-State": "Green Island-IA",
   "state_name": "Iowa",
   "county_fips": 19097,
   "county_name": "Jackson",
   "lat": 42.1536,
   "lng": -90.3221,
   "population": null,
   "population_proper": null,
   "density": 40.6,
   "source": "point",
   "incorporated": false,
   "timezone": "America/Chicago",
   "zips": "52064"
 },
 {
   "City-State": "Holland-IA",
   "id": 1840006966,
   "city": "Holland",
   "city_ascii": "Holland",
   "state_id": "IA",
   "City-State": "Holland-IA",
   "state_name": "Iowa",
   "county_fips": 19075,
   "county_name": "Grundy",
   "lat": 42.3999,
   "lng": -92.7988,
   "population": 277,
   "population_proper": 277,
   "density": 429,
   "source": "polygon",
   "incorporated": true,
   "timezone": "America/Chicago",
   "zips": "50642"
 },
 {
   "City-State": "Montrose-IA",
   "id": 1840008323,
   "city": "Montrose",
   "city_ascii": "Montrose",
   "state_id": "IA",
   "City-State": "Montrose-IA",
   "state_name": "Iowa",
   "county_fips": 19111,
   "county_name": "Lee",
   "lat": 40.5261,
   "lng": -91.4167,
   "population": 869,
   "population_proper": 869,
   "density": 299,
   "source": "polygon",
   "incorporated": true,
   "timezone": "America/Chicago",
   "zips": "52639"
 },
 {
   "City-State": "Centralia-IA",
   "id": 1840006927,
   "city": "Centralia",
   "city_ascii": "Centralia",
   "state_id": "IA",
   "City-State": "Centralia-IA",
   "state_name": "Iowa",
   "county_fips": 19061,
   "county_name": "Dubuque",
   "lat": 42.4724,
   "lng": -90.8366,
   "population": 131,
   "population_proper": 131,
   "density": 89,
   "source": "polygon",
   "incorporated": true,
   "timezone": "America/Chicago",
   "zips": "52068"
 },
 {
   "City-State": "Rhodes-IA",
   "id": 1840009159,
   "city": "Rhodes",
   "city_ascii": "Rhodes",
   "state_id": "IA",
   "City-State": "Rhodes-IA",
   "state_name": "Iowa",
   "county_fips": 19127,
   "county_name": "Marshall",
   "lat": 41.9279,
   "lng": -93.1837,
   "population": 306,
   "population_proper": 306,
   "density": 116,
   "source": "polygon",
   "incorporated": true,
   "timezone": "America/Chicago",
   "zips": "50234"
 },
 {
   "City-State": "Hancock-IA",
   "id": 1840007122,
   "city": "Hancock",
   "city_ascii": "Hancock",
   "state_id": "IA",
   "City-State": "Hancock-IA",
   "state_name": "Iowa",
   "county_fips": 19155,
   "county_name": "Pottawattamie",
   "lat": 41.3922,
   "lng": -95.3637,
   "population": 195,
   "population_proper": 195,
   "density": 101,
   "source": "polygon",
   "incorporated": true,
   "timezone": "America/Chicago",
   "zips": "51536"
 },
 {
   "City-State": "Ollie-IA",
   "id": 1840009286,
   "city": "Ollie",
   "city_ascii": "Ollie",
   "state_id": "IA",
   "City-State": "Ollie-IA",
   "state_name": "Iowa",
   "county_fips": 19107,
   "county_name": "Keokuk",
   "lat": 41.1991,
   "lng": -92.0923,
   "population": 210,
   "population_proper": 210,
   "density": 81,
   "source": "polygon",
   "incorporated": true,
   "timezone": "America/Chicago",
   "zips": "52576"
 },
 {
   "City-State": "Winterset-IA",
   "id": 1840000649,
   "city": "Winterset",
   "city_ascii": "Winterset",
   "state_id": "IA",
   "City-State": "Winterset-IA",
   "state_name": "Iowa",
   "county_fips": 19121,
   "county_name": "Madison",
   "lat": 41.3456,
   "lng": -94.0136,
   "population": 5122,
   "population_proper": 5271,
   "density": 444,
   "source": "polygon",
   "incorporated": true,
   "timezone": "America/Chicago",
   "zips": "50273"
 },
 {
   "City-State": "West Amana-IA",
   "id": 1840026252,
   "city": "West Amana",
   "city_ascii": "West Amana",
   "state_id": "IA",
   "City-State": "West Amana-IA",
   "state_name": "Iowa",
   "county_fips": 19095,
   "county_name": "Iowa",
   "lat": 41.8083,
   "lng": -91.9654,
   "population": null,
   "population_proper": null,
   "density": 85.6,
   "source": "polygon",
   "incorporated": false,
   "timezone": "America/Chicago",
   "zips": "52203"
 },
 {
   "City-State": "Olin-IA",
   "id": 1840009151,
   "city": "Olin",
   "city_ascii": "Olin",
   "state_id": "IA",
   "City-State": "Olin-IA",
   "state_name": "Iowa",
   "county_fips": 19105,
   "county_name": "Jones",
   "lat": 41.9977,
   "lng": -91.1417,
   "population": 684,
   "population_proper": 684,
   "density": 258,
   "source": "polygon",
   "incorporated": true,
   "timezone": "America/Chicago",
   "zips": "52320"
 },
 {
   "City-State": "Lynnville-IA",
   "id": 1840009222,
   "city": "Lynnville",
   "city_ascii": "Lynnville",
   "state_id": "IA",
   "City-State": "Lynnville-IA",
   "state_name": "Iowa",
   "county_fips": 19099,
   "county_name": "Jasper",
   "lat": 41.5728,
   "lng": -92.7869,
   "population": 390,
   "population_proper": 390,
   "density": 136,
   "source": "polygon",
   "incorporated": true,
   "timezone": "America/Chicago",
   "zips": "50153"
 },
 {
   "City-State": "Wellsburg-IA",
   "id": 1840010103,
   "city": "Wellsburg",
   "city_ascii": "Wellsburg",
   "state_id": "IA",
   "City-State": "Wellsburg-IA",
   "state_name": "Iowa",
   "county_fips": 19075,
   "county_name": "Grundy",
   "lat": 42.4338,
   "lng": -92.9265,
   "population": 691,
   "population_proper": 691,
   "density": 244,
   "source": "polygon",
   "incorporated": true,
   "timezone": "America/Chicago",
   "zips": "50680"
 },
 {
   "City-State": "Charlotte-IA",
   "id": 1840007040,
   "city": "Charlotte",
   "city_ascii": "Charlotte",
   "state_id": "IA",
   "City-State": "Charlotte-IA",
   "state_name": "Iowa",
   "county_fips": 19045,
   "county_name": "Clinton",
   "lat": 41.9621,
   "lng": -90.4682,
   "population": 368,
   "population_proper": 368,
   "density": 247,
   "source": "polygon",
   "incorporated": true,
   "timezone": "America/Chicago",
   "zips": "52731"
 },
 {
   "City-State": "Saylorville-IA",
   "id": 1840004800,
   "city": "Saylorville",
   "city_ascii": "Saylorville",
   "state_id": "IA",
   "City-State": "Saylorville-IA",
   "state_name": "Iowa",
   "county_fips": 19153,
   "county_name": "Polk",
   "lat": 41.681,
   "lng": -93.6277,
   "population": null,
   "population_proper": null,
   "density": 576.1,
   "source": "polygon",
   "incorporated": false,
   "timezone": "America/Chicago",
   "zips": "50023 50313"
 },
 {
   "City-State": "Fredonia-IA",
   "id": 1840008245,
   "city": "Fredonia",
   "city_ascii": "Fredonia",
   "state_id": "IA",
   "City-State": "Fredonia-IA",
   "state_name": "Iowa",
   "county_fips": 19115,
   "county_name": "Louisa",
   "lat": 41.2844,
   "lng": -91.3397,
   "population": 239,
   "population_proper": 239,
   "density": 557,
   "source": "polygon",
   "incorporated": true,
   "timezone": "America/Chicago",
   "zips": "52738"
 },
 {
   "City-State": "Bentley-IA",
   "id": 1840024146,
   "city": "Bentley",
   "city_ascii": "Bentley",
   "state_id": "IA",
   "City-State": "Bentley-IA",
   "state_name": "Iowa",
   "county_fips": 19155,
   "county_name": "Pottawattamie",
   "lat": 41.3756,
   "lng": -95.6225,
   "population": null,
   "population_proper": null,
   "density": 55.8,
   "source": "polygon",
   "incorporated": false,
   "timezone": "America/Chicago",
   "zips": "51559 51576"
 },
 {
   "City-State": "Maurice-IA",
   "id": 1840007983,
   "city": "Maurice",
   "city_ascii": "Maurice",
   "state_id": "IA",
   "City-State": "Maurice-IA",
   "state_name": "Iowa",
   "county_fips": 19167,
   "county_name": "Sioux",
   "lat": 42.9661,
   "lng": -96.1827,
   "population": 278,
   "population_proper": 278,
   "density": 195,
   "source": "polygon",
   "incorporated": true,
   "timezone": "America/Chicago",
   "zips": "51036"
 },
 {
   "City-State": "Vail-IA",
   "id": 1840010135,
   "city": "Vail",
   "city_ascii": "Vail",
   "state_id": "IA",
   "City-State": "Vail-IA",
   "state_name": "Iowa",
   "county_fips": 19047,
   "county_name": "Crawford",
   "lat": 42.0599,
   "lng": -95.2003,
   "population": 416,
   "population_proper": 416,
   "density": 281,
   "source": "polygon",
   "incorporated": true,
   "timezone": "America/Chicago",
   "zips": "51465"
 },
 {
   "City-State": "Pocahontas-IA",
   "id": 1840009079,
   "city": "Pocahontas",
   "city_ascii": "Pocahontas",
   "state_id": "IA",
   "City-State": "Pocahontas-IA",
   "state_name": "Iowa",
   "county_fips": 19151,
   "county_name": "Pocahontas",
   "lat": 42.7371,
   "lng": -94.6661,
   "population": 1710,
   "population_proper": 1710,
   "density": 327,
   "source": "polygon",
   "incorporated": true,
   "timezone": "America/Chicago",
   "zips": "50574"
 },
 {
   "City-State": "Center Point-IA",
   "id": 1840006985,
   "city": "Center Point",
   "city_ascii": "Center Point",
   "state_id": "IA",
   "City-State": "Center Point-IA",
   "state_name": "Iowa",
   "county_fips": 19113,
   "county_name": "Linn",
   "lat": 42.1843,
   "lng": -91.7794,
   "population": 2524,
   "population_proper": 2524,
   "density": 375,
   "source": "polygon",
   "incorporated": true,
   "timezone": "America/Chicago",
   "zips": "52213"
 },
 {
   "City-State": "Whittemore-IA",
   "id": 1840010057,
   "city": "Whittemore",
   "city_ascii": "Whittemore",
   "state_id": "IA",
   "City-State": "Whittemore-IA",
   "state_name": "Iowa",
   "county_fips": 19109,
   "county_name": "Kossuth",
   "lat": 43.0634,
   "lng": -94.4251,
   "population": 486,
   "population_proper": 486,
   "density": 446,
   "source": "polygon",
   "incorporated": true,
   "timezone": "America/Chicago",
   "zips": "50598"
 },
 {
   "City-State": "Manning-IA",
   "id": 1840000491,
   "city": "Manning",
   "city_ascii": "Manning",
   "state_id": "IA",
   "City-State": "Manning-IA",
   "state_name": "Iowa",
   "county_fips": 19027,
   "county_name": "Carroll",
   "lat": 41.9092,
   "lng": -95.0642,
   "population": 1455,
   "population_proper": 1455,
   "density": 225,
   "source": "polygon",
   "incorporated": true,
   "timezone": "America/Chicago",
   "zips": "51455"
 },
 {
   "City-State": "Eldon-IA",
   "id": 1840008268,
   "city": "Eldon",
   "city_ascii": "Eldon",
   "state_id": "IA",
   "City-State": "Eldon-IA",
   "state_name": "Iowa",
   "county_fips": 19179,
   "county_name": "Wapello",
   "lat": 40.9176,
   "lng": -92.2177,
   "population": 916,
   "population_proper": 916,
   "density": 317,
   "source": "polygon",
   "incorporated": true,
   "timezone": "America/Chicago",
   "zips": "52554"
 },
 {
   "City-State": "Woolstock-IA",
   "id": 1840010086,
   "city": "Woolstock",
   "city_ascii": "Woolstock",
   "state_id": "IA",
   "City-State": "Woolstock-IA",
   "state_name": "Iowa",
   "county_fips": 19197,
   "county_name": "Wright",
   "lat": 42.5648,
   "lng": -93.8433,
   "population": 163,
   "population_proper": 163,
   "density": 59,
   "source": "polygon",
   "incorporated": true,
   "timezone": "America/Chicago",
   "zips": "50599"
 },
 {
   "City-State": "Ocheyedan-IA",
   "id": 1840007969,
   "city": "Ocheyedan",
   "city_ascii": "Ocheyedan",
   "state_id": "IA",
   "City-State": "Ocheyedan-IA",
   "state_name": "Iowa",
   "county_fips": 19143,
   "county_name": "Osceola",
   "lat": 43.4181,
   "lng": -95.5365,
   "population": 460,
   "population_proper": 460,
   "density": 152,
   "source": "polygon",
   "incorporated": true,
   "timezone": "America/Chicago",
   "zips": "51354"
 },
 {
   "City-State": "Hartley-IA",
   "id": 1840006876,
   "city": "Hartley",
   "city_ascii": "Hartley",
   "state_id": "IA",
   "City-State": "Hartley-IA",
   "state_name": "Iowa",
   "county_fips": 19141,
   "county_name": "O'Brien",
   "lat": 43.179,
   "lng": -95.4768,
   "population": 1618,
   "population_proper": 1618,
   "density": 481,
   "source": "polygon",
   "incorporated": true,
   "timezone": "America/Chicago",
   "zips": "51346"
 },
 {
   "City-State": "George-IA",
   "id": 1840007972,
   "city": "George",
   "city_ascii": "George",
   "state_id": "IA",
   "City-State": "George-IA",
   "state_name": "Iowa",
   "county_fips": 19119,
   "county_name": "Lyon",
   "lat": 43.342,
   "lng": -96.0027,
   "population": 1068,
   "population_proper": 1068,
   "density": 171,
   "source": "polygon",
   "incorporated": true,
   "timezone": "America/Chicago",
   "zips": "51237"
 },
 {
   "City-State": "Saint Lucas-IA",
   "id": 1840009064,
   "city": "Saint Lucas",
   "city_ascii": "Saint Lucas",
   "state_id": "IA",
   "City-State": "Saint Lucas-IA",
   "state_name": "Iowa",
   "county_fips": 19065,
   "county_name": "Fayette",
   "lat": 43.0667,
   "lng": -91.9342,
   "population": 137,
   "population_proper": 137,
   "density": 198,
   "source": "polygon",
   "incorporated": true,
   "timezone": "America/Chicago",
   "zips": "52166 52171"
 },
 {
   "City-State": "Durant-IA",
   "id": 1840008146,
   "city": "Durant",
   "city_ascii": "Durant",
   "state_id": "IA",
   "City-State": "Durant-IA",
   "state_name": "Iowa",
   "county_fips": 19031,
   "county_name": "Cedar",
   "lat": 41.6015,
   "lng": -90.912,
   "population": 1823,
   "population_proper": 1823,
   "density": 634,
   "source": "polygon",
   "incorporated": true,
   "timezone": "America/Chicago",
   "zips": "52747"
 },
 {
   "City-State": "Kent-IA",
   "id": 1840024208,
   "city": "Kent",
   "city_ascii": "Kent",
   "state_id": "IA",
   "City-State": "Kent-IA",
   "state_name": "Iowa",
   "county_fips": 19175,
   "county_name": "Union",
   "lat": 40.9536,
   "lng": -94.4611,
   "population": null,
   "population_proper": null,
   "density": 78.1,
   "source": "polygon",
   "incorporated": false,
   "timezone": "America/Chicago",
   "zips": "50851"
 },
 {
   "City-State": "Pomeroy-IA",
   "id": 1840009118,
   "city": "Pomeroy",
   "city_ascii": "Pomeroy",
   "state_id": "IA",
   "City-State": "Pomeroy-IA",
   "state_name": "Iowa",
   "county_fips": 19025,
   "county_name": "Calhoun",
   "lat": 42.5519,
   "lng": -94.6778,
   "population": 623,
   "population_proper": 623,
   "density": 117,
   "source": "polygon",
   "incorporated": true,
   "timezone": "America/Chicago",
   "zips": "50575"
 },
 {
   "City-State": "Gray-IA",
   "id": 1840008165,
   "city": "Gray",
   "city_ascii": "Gray",
   "state_id": "IA",
   "City-State": "Gray-IA",
   "state_name": "Iowa",
   "county_fips": 19009,
   "county_name": "Audubon",
   "lat": 41.8418,
   "lng": -94.9859,
   "population": 59,
   "population_proper": 59,
   "density": 22,
   "source": "polygon",
   "incorporated": true,
   "timezone": "America/Chicago",
   "zips": "50025 50110"
 },
 {
   "City-State": "Wilton-IA",
   "id": 1840010237,
   "city": "Wilton",
   "city_ascii": "Wilton",
   "state_id": "IA",
   "City-State": "Wilton-IA",
   "state_name": "Iowa",
   "county_fips": 19139,
   "county_name": "Muscatine",
   "lat": 41.5898,
   "lng": -91.027,
   "population": 2797,
   "population_proper": 2808,
   "density": 532,
   "source": "polygon",
   "incorporated": true,
   "timezone": "America/Chicago",
   "zips": "52778"
 },
 {
   "City-State": "Garden Grove-IA",
   "id": 1840008311,
   "city": "Garden Grove",
   "city_ascii": "Garden Grove",
   "state_id": "IA",
   "City-State": "Garden Grove-IA",
   "state_name": "Iowa",
   "county_fips": 19053,
   "county_name": "Decatur",
   "lat": 40.8264,
   "lng": -93.6073,
   "population": 207,
   "population_proper": 207,
   "density": 115,
   "source": "polygon",
   "incorporated": true,
   "timezone": "America/Chicago",
   "zips": "50103"
 },
 {
   "City-State": "Toledo-IA",
   "id": 1840010127,
   "city": "Toledo",
   "city_ascii": "Toledo",
   "state_id": "IA",
   "City-State": "Toledo-IA",
   "state_name": "Iowa",
   "county_fips": 19171,
   "county_name": "Tama",
   "lat": 41.9902,
   "lng": -92.5803,
   "population": 2187,
   "population_proper": 2187,
   "density": 367,
   "source": "polygon",
   "incorporated": true,
   "timezone": "America/Chicago",
   "zips": "52342"
 },
 {
   "City-State": "Moorland-IA",
   "id": 1840008055,
   "city": "Moorland",
   "city_ascii": "Moorland",
   "state_id": "IA",
   "City-State": "Moorland-IA",
   "state_name": "Iowa",
   "county_fips": 19187,
   "county_name": "Webster",
   "lat": 42.4413,
   "lng": -94.2953,
   "population": 163,
   "population_proper": 163,
   "density": 42,
   "source": "polygon",
   "incorporated": true,
   "timezone": "America/Chicago",
   "zips": "50566"
 },
 {
   "City-State": "Gravity-IA",
   "id": 1840008300,
   "city": "Gravity",
   "city_ascii": "Gravity",
   "state_id": "IA",
   "City-State": "Gravity-IA",
   "state_name": "Iowa",
   "county_fips": 19173,
   "county_name": "Taylor",
   "lat": 40.7602,
   "lng": -94.7435,
   "population": 187,
   "population_proper": 187,
   "density": 241,
   "source": "polygon",
   "incorporated": true,
   "timezone": "America/Chicago",
   "zips": "50848"
 },
 {
   "City-State": "Denver-IA",
   "id": 1840006916,
   "city": "Denver",
   "city_ascii": "Denver",
   "state_id": "IA",
   "City-State": "Denver-IA",
   "state_name": "Iowa",
   "county_fips": 19017,
   "county_name": "Bremer",
   "lat": 42.6689,
   "lng": -92.3346,
   "population": 1841,
   "population_proper": 1841,
   "density": 433,
   "source": "polygon",
   "incorporated": true,
   "timezone": "America/Chicago",
   "zips": "50622"
 },
 {
   "City-State": "Long Grove-IA",
   "id": 1840009234,
   "city": "Long Grove",
   "city_ascii": "Long Grove",
   "state_id": "IA",
   "City-State": "Long Grove-IA",
   "state_name": "Iowa",
   "county_fips": 19163,
   "county_name": "Scott",
   "lat": 41.6922,
   "lng": -90.5803,
   "population": 853,
   "population_proper": 853,
   "density": 285,
   "source": "polygon",
   "incorporated": true,
   "timezone": "America/Chicago",
   "zips": "52756"
 },
 {
   "City-State": "Lakota-IA",
   "id": 1840007957,
   "city": "Lakota",
   "city_ascii": "Lakota",
   "state_id": "IA",
   "City-State": "Lakota-IA",
   "state_name": "Iowa",
   "county_fips": 19109,
   "county_name": "Kossuth",
   "lat": 43.3786,
   "lng": -94.0963,
   "population": 285,
   "population_proper": 285,
   "density": 151,
   "source": "polygon",
   "incorporated": true,
   "timezone": "America/Chicago",
   "zips": "50451"
 },
 {
   "City-State": "Wallingford-IA",
   "id": 1840010060,
   "city": "Wallingford",
   "city_ascii": "Wallingford",
   "state_id": "IA",
   "City-State": "Wallingford-IA",
   "state_name": "Iowa",
   "county_fips": 19063,
   "county_name": "Emmet",
   "lat": 43.3202,
   "lng": -94.7924,
   "population": 186,
   "population_proper": 186,
   "density": 73,
   "source": "polygon",
   "incorporated": true,
   "timezone": "America/Chicago",
   "zips": "51365"
 },
 {
   "City-State": "Burlington-IA",
   "id": 1840007164,
   "city": "Burlington",
   "city_ascii": "Burlington",
   "state_id": "IA",
   "City-State": "Burlington-IA",
   "state_name": "Iowa",
   "county_fips": 19057,
   "county_name": "Des Moines",
   "lat": 40.8072,
   "lng": -91.1249,
   "population": 29124,
   "population_proper": 25277,
   "density": 673,
   "source": "polygon",
   "incorporated": true,
   "timezone": "America/Chicago",
   "zips": "52601"
 },
 {
   "City-State": "Spillville-IA",
   "id": 1840009040,
   "city": "Spillville",
   "city_ascii": "Spillville",
   "state_id": "IA",
   "City-State": "Spillville-IA",
   "state_name": "Iowa",
   "county_fips": 19191,
   "county_name": "Winneshiek",
   "lat": 43.2031,
   "lng": -91.952,
   "population": 350,
   "population_proper": 350,
   "density": 319,
   "source": "polygon",
   "incorporated": true,
   "timezone": "America/Chicago",
   "zips": "52168 52132"
 },
 {
   "City-State": "Collins-IA",
   "id": 1840007017,
   "city": "Collins",
   "city_ascii": "Collins",
   "state_id": "IA",
   "City-State": "Collins-IA",
   "state_name": "Iowa",
   "county_fips": 19169,
   "county_name": "Story",
   "lat": 41.902,
   "lng": -93.3082,
   "population": 477,
   "population_proper": 477,
   "density": 376,
   "source": "polygon",
   "incorporated": true,
   "timezone": "America/Chicago",
   "zips": "50055"
 },
 {
   "City-State": "Sioux Center-IA",
   "id": 1840009043,
   "city": "Sioux Center",
   "city_ascii": "Sioux Center",
   "state_id": "IA",
   "City-State": "Sioux Center-IA",
   "state_name": "Iowa",
   "county_fips": 19167,
   "county_name": "Sioux",
   "lat": 43.0746,
   "lng": -96.1707,
   "population": 7076,
   "population_proper": 7501,
   "density": 458,
   "source": "polygon",
   "incorporated": true,
   "timezone": "America/Chicago",
   "zips": "51250"
 },
 {
   "City-State": "Norway-IA",
   "id": 1840008095,
   "city": "Norway",
   "city_ascii": "Norway",
   "state_id": "IA",
   "City-State": "Norway-IA",
   "state_name": "Iowa",
   "county_fips": 19011,
   "county_name": "Benton",
   "lat": 41.9022,
   "lng": -91.9226,
   "population": 524,
   "population_proper": 524,
   "density": 453,
   "source": "polygon",
   "incorporated": true,
   "timezone": "America/Chicago",
   "zips": "52318"
 },
 {
   "City-State": "New Hartford-IA",
   "id": 1840008039,
   "city": "New Hartford",
   "city_ascii": "New Hartford",
   "state_id": "IA",
   "City-State": "New Hartford-IA",
   "state_name": "Iowa",
   "county_fips": 19023,
   "county_name": "Butler",
   "lat": 42.5663,
   "lng": -92.623,
   "population": 502,
   "population_proper": 502,
   "density": 388,
   "source": "polygon",
   "incorporated": true,
   "timezone": "America/Chicago",
   "zips": "50613 50660"
 },
 {
   "City-State": "Boyden-IA",
   "id": 1840006870,
   "city": "Boyden",
   "city_ascii": "Boyden",
   "state_id": "IA",
   "City-State": "Boyden-IA",
   "state_name": "Iowa",
   "county_fips": 19167,
   "county_name": "Sioux",
   "lat": 43.1889,
   "lng": -96.0031,
   "population": 695,
   "population_proper": 695,
   "density": 357,
   "source": "polygon",
   "incorporated": true,
   "timezone": "America/Chicago",
   "zips": "51234"
 },
 {
   "City-State": "Prairieburg-IA",
   "id": 1840009147,
   "city": "Prairieburg",
   "city_ascii": "Prairieburg",
   "state_id": "IA",
   "City-State": "Prairieburg-IA",
   "state_name": "Iowa",
   "county_fips": 19113,
   "county_name": "Linn",
   "lat": 42.2378,
   "lng": -91.4259,
   "population": 181,
   "population_proper": 181,
   "density": 151,
   "source": "polygon",
   "incorporated": true,
   "timezone": "America/Chicago",
   "zips": "52219"
 },
 {
   "City-State": "Avery-IA",
   "id": 1840029598,
   "city": "Avery",
   "city_ascii": "Avery",
   "state_id": "IA",
   "City-State": "Avery-IA",
   "state_name": "Iowa",
   "county_fips": 19135,
   "county_name": "Monroe",
   "lat": 41.0653,
   "lng": -92.7144,
   "population": null,
   "population_proper": null,
   "density": 79.3,
   "source": "point",
   "incorporated": false,
   "timezone": "America/Chicago",
   "zips": "52531"
 },
 {
   "City-State": "Sheffield-IA",
   "id": 1840000402,
   "city": "Sheffield",
   "city_ascii": "Sheffield",
   "state_id": "IA",
   "City-State": "Sheffield-IA",
   "state_name": "Iowa",
   "county_fips": 19069,
   "county_name": "Franklin",
   "lat": 42.8929,
   "lng": -93.2087,
   "population": 1125,
   "population_proper": 1125,
   "density": 78,
   "source": "polygon",
   "incorporated": true,
   "timezone": "America/Chicago",
   "zips": "50475"
 },
 {
   "City-State": "Haverhill-IA",
   "id": 1840006998,
   "city": "Haverhill",
   "city_ascii": "Haverhill",
   "state_id": "IA",
   "City-State": "Haverhill-IA",
   "state_name": "Iowa",
   "county_fips": 19127,
   "county_name": "Marshall",
   "lat": 41.944,
   "lng": -92.9608,
   "population": 173,
   "population_proper": 173,
   "density": 506,
   "source": "polygon",
   "incorporated": true,
   "timezone": "America/Chicago",
   "zips": "50120"
 },
 {
   "City-State": "Westphalia-IA",
   "id": 1840010183,
   "city": "Westphalia",
   "city_ascii": "Westphalia",
   "state_id": "IA",
   "City-State": "Westphalia-IA",
   "state_name": "Iowa",
   "county_fips": 19165,
   "county_name": "Shelby",
   "lat": 41.7192,
   "lng": -95.3937,
   "population": 125,
   "population_proper": 125,
   "density": 505,
   "source": "polygon",
   "incorporated": true,
   "timezone": "America/Chicago",
   "zips": "51537 51530 51578"
 },
 {
   "City-State": "Athelstan-IA",
   "id": 1840024259,
   "city": "Athelstan",
   "city_ascii": "Athelstan",
   "state_id": "IA",
   "City-State": "Athelstan-IA",
   "state_name": "Iowa",
   "county_fips": 19173,
   "county_name": "Taylor",
   "lat": 40.5727,
   "lng": -94.5426,
   "population": null,
   "population_proper": null,
   "density": 21.2,
   "source": "polygon",
   "incorporated": false,
   "timezone": "America/Chicago",
   "zips": "50836"
 },
 {
   "City-State": "Waterville-IA",
   "id": 1840010061,
   "city": "Waterville",
   "city_ascii": "Waterville",
   "state_id": "IA",
   "City-State": "Waterville-IA",
   "state_name": "Iowa",
   "county_fips": 19005,
   "county_name": "Allamakee",
   "lat": 43.2084,
   "lng": -91.296,
   "population": 141,
   "population_proper": 141,
   "density": 126,
   "source": "polygon",
   "incorporated": true,
   "timezone": "America/Chicago",
   "zips": "52170"
 },
 {
   "City-State": "Buckingham-IA",
   "id": 1840029607,
   "city": "Buckingham",
   "city_ascii": "Buckingham",
   "state_id": "IA",
   "City-State": "Buckingham-IA",
   "state_name": "Iowa",
   "county_fips": 19171,
   "county_name": "Tama",
   "lat": 42.2625,
   "lng": -92.4477,
   "population": null,
   "population_proper": null,
   "density": 52,
   "source": "point",
   "incorporated": false,
   "timezone": "America/Chicago",
   "zips": "50612"
 },
 {
   "City-State": "Salem-IA",
   "id": 1840009338,
   "city": "Salem",
   "city_ascii": "Salem",
   "state_id": "IA",
   "City-State": "Salem-IA",
   "state_name": "Iowa",
   "county_fips": 19087,
   "county_name": "Henry",
   "lat": 40.852,
   "lng": -91.6206,
   "population": 379,
   "population_proper": 379,
   "density": 239,
   "source": "polygon",
   "incorporated": true,
   "timezone": "America/Chicago",
   "zips": "52649"
 },
 {
   "City-State": "Hamilton-IA",
   "id": 1840007115,
   "city": "Hamilton",
   "city_ascii": "Hamilton",
   "state_id": "IA",
   "City-State": "Hamilton-IA",
   "state_name": "Iowa",
   "county_fips": 19125,
   "county_name": "Marion",
   "lat": 41.1703,
   "lng": -92.9041,
   "population": 129,
   "population_proper": 129,
   "density": 91,
   "source": "polygon",
   "incorporated": true,
   "timezone": "America/Chicago",
   "zips": "50116 50044"
 },
 {
   "City-State": "Ferguson-IA",
   "id": 1840008110,
   "city": "Ferguson",
   "city_ascii": "Ferguson",
   "state_id": "IA",
   "City-State": "Ferguson-IA",
   "state_name": "Iowa",
   "county_fips": 19127,
   "county_name": "Marshall",
   "lat": 41.9386,
   "lng": -92.863,
   "population": 126,
   "population_proper": 126,
   "density": 190,
   "source": "polygon",
   "incorporated": true,
   "timezone": "America/Chicago",
   "zips": "50078"
 },
 {
   "City-State": "South English-IA",
   "id": 1840009285,
   "city": "South English",
   "city_ascii": "South English",
   "state_id": "IA",
   "City-State": "South English-IA",
   "state_name": "Iowa",
   "county_fips": 19107,
   "county_name": "Keokuk",
   "lat": 41.4521,
   "lng": -92.0905,
   "population": 207,
   "population_proper": 207,
   "density": 266,
   "source": "polygon",
   "incorporated": true,
   "timezone": "America/Chicago",
   "zips": "52335"
 },
 {
   "City-State": "Elkader-IA",
   "id": 1840008009,
   "city": "Elkader",
   "city_ascii": "Elkader",
   "state_id": "IA",
   "City-State": "Elkader-IA",
   "state_name": "Iowa",
   "county_fips": 19043,
   "county_name": "Clayton",
   "lat": 42.8571,
   "lng": -91.4024,
   "population": 1213,
   "population_proper": 1213,
   "density": 339,
   "source": "polygon",
   "incorporated": true,
   "timezone": "America/Chicago",
   "zips": "52043"
 },
 {
   "City-State": "Manly-IA",
   "id": 1840009028,
   "city": "Manly",
   "city_ascii": "Manly",
   "state_id": "IA",
   "City-State": "Manly-IA",
   "state_name": "Iowa",
   "county_fips": 19195,
   "county_name": "Worth",
   "lat": 43.2881,
   "lng": -93.201,
   "population": 1305,
   "population_proper": 1305,
   "density": 343,
   "source": "polygon",
   "incorporated": true,
   "timezone": "America/Chicago",
   "zips": "50456"
 },
 {
   "City-State": "Terril-IA",
   "id": 1840009025,
   "city": "Terril",
   "city_ascii": "Terril",
   "state_id": "IA",
   "City-State": "Terril-IA",
   "state_name": "Iowa",
   "county_fips": 19059,
   "county_name": "Dickinson",
   "lat": 43.3058,
   "lng": -94.969,
   "population": 362,
   "population_proper": 362,
   "density": 256,
   "source": "polygon",
   "incorporated": true,
   "timezone": "America/Chicago",
   "zips": "51364"
 },
 {
   "City-State": "Wever-IA",
   "id": 1840029681,
   "city": "Wever",
   "city_ascii": "Wever",
   "state_id": "IA",
   "City-State": "Wever-IA",
   "state_name": "Iowa",
   "county_fips": 19111,
   "county_name": "Lee",
   "lat": 40.7106,
   "lng": -91.231,
   "population": null,
   "population_proper": null,
   "density": 127.8,
   "source": "point",
   "incorporated": false,
   "timezone": "America/Chicago",
   "zips": "52658"
 },
 {
   "City-State": "Houghton-IA",
   "id": 1840007204,
   "city": "Houghton",
   "city_ascii": "Houghton",
   "state_id": "IA",
   "City-State": "Houghton-IA",
   "state_name": "Iowa",
   "county_fips": 19111,
   "county_name": "Lee",
   "lat": 40.7837,
   "lng": -91.6108,
   "population": 143,
   "population_proper": 143,
   "density": 177,
   "source": "polygon",
   "incorporated": true,
   "timezone": "America/Chicago",
   "zips": "52625 52631"
 },
 {
   "City-State": "Mount Hamill-IA",
   "id": 1840003603,
   "city": "Mount Hamill",
   "city_ascii": "Mount Hamill",
   "state_id": "IA",
   "City-State": "Mount Hamill-IA",
   "state_name": "Iowa",
   "county_fips": 19111,
   "county_name": "Lee",
   "lat": 40.7506,
   "lng": -91.6132,
   "population": null,
   "population_proper": null,
   "density": 32.5,
   "source": "point",
   "incorporated": false,
   "timezone": "America/Chicago",
   "zips": "52625"
 },
 {
   "City-State": "Tama-IA",
   "id": 1840009150,
   "city": "Tama",
   "city_ascii": "Tama",
   "state_id": "IA",
   "City-State": "Tama-IA",
   "state_name": "Iowa",
   "county_fips": 19171,
   "county_name": "Tama",
   "lat": 41.9636,
   "lng": -92.574,
   "population": 4826,
   "population_proper": 2831,
   "density": 335,
   "source": "polygon",
   "incorporated": true,
   "timezone": "America/Chicago",
   "zips": "52339"
 },
 {
   "City-State": "Albia-IA",
   "id": 1840007152,
   "city": "Albia",
   "city_ascii": "Albia",
   "state_id": "IA",
   "City-State": "Albia-IA",
   "state_name": "Iowa",
   "county_fips": 19135,
   "county_name": "Monroe",
   "lat": 41.0272,
   "lng": -92.8039,
   "population": 3591,
   "population_proper": 3785,
   "density": 458,
   "source": "polygon",
   "incorporated": true,
   "timezone": "America/Chicago",
   "zips": "52531"
 },
 {
   "City-State": "Lone Tree-IA",
   "id": 1840009227,
   "city": "Lone Tree",
   "city_ascii": "Lone Tree",
   "state_id": "IA",
   "City-State": "Lone Tree-IA",
   "state_name": "Iowa",
   "county_fips": 19103,
   "county_name": "Johnson",
   "lat": 41.4866,
   "lng": -91.4262,
   "population": 1388,
   "population_proper": 1388,
   "density": 514,
   "source": "polygon",
   "incorporated": true,
   "timezone": "America/Chicago",
   "zips": "52755"
 },
 {
   "City-State": "Pisgah-IA",
   "id": 1840009208,
   "city": "Pisgah",
   "city_ascii": "Pisgah",
   "state_id": "IA",
   "City-State": "Pisgah-IA",
   "state_name": "Iowa",
   "county_fips": 19085,
   "county_name": "Harrison",
   "lat": 41.8304,
   "lng": -95.9264,
   "population": 237,
   "population_proper": 237,
   "density": 90,
   "source": "polygon",
   "incorporated": true,
   "timezone": "America/Chicago",
   "zips": "51564"
 },
 {
   "City-State": "Irwin-IA",
   "id": 1840008162,
   "city": "Irwin",
   "city_ascii": "Irwin",
   "state_id": "IA",
   "City-State": "Irwin-IA",
   "state_name": "Iowa",
   "county_fips": 19165,
   "county_name": "Shelby",
   "lat": 41.7902,
   "lng": -95.2068,
   "population": 330,
   "population_proper": 330,
   "density": 213,
   "source": "polygon",
   "incorporated": true,
   "timezone": "America/Chicago",
   "zips": "51446"
 },
 {
   "City-State": "Clarion-IA",
   "id": 1840006904,
   "city": "Clarion",
   "city_ascii": "Clarion",
   "state_id": "IA",
   "City-State": "Clarion-IA",
   "state_name": "Iowa",
   "county_fips": 19197,
   "county_name": "Wright",
   "lat": 42.7322,
   "lng": -93.7294,
   "population": 2560,
   "population_proper": 2765,
   "density": 327,
   "source": "polygon",
   "incorporated": true,
   "timezone": "America/Chicago",
   "zips": "50525 50526"
 },
 {
   "City-State": "Steamboat Rock-IA",
   "id": 1840009124,
   "city": "Steamboat Rock",
   "city_ascii": "Steamboat Rock",
   "state_id": "IA",
   "City-State": "Steamboat Rock-IA",
   "state_name": "Iowa",
   "county_fips": 19083,
   "county_name": "Hardin",
   "lat": 42.4082,
   "lng": -93.0664,
   "population": 309,
   "population_proper": 309,
   "density": 218,
   "source": "polygon",
   "incorporated": true,
   "timezone": "America/Chicago",
   "zips": "50672"
 },
 {
   "City-State": "Greene-IA",
   "id": 1840008038,
   "city": "Greene",
   "city_ascii": "Greene",
   "state_id": "IA",
   "City-State": "Greene-IA",
   "state_name": "Iowa",
   "county_fips": 19023,
   "county_name": "Butler",
   "lat": 42.8969,
   "lng": -92.8043,
   "population": 1103,
   "population_proper": 1103,
   "density": 374,
   "source": "polygon",
   "incorporated": true,
   "timezone": "America/Chicago",
   "zips": "50636"
 },
 {
   "City-State": "Arthur-IA",
   "id": 1840006954,
   "city": "Arthur",
   "city_ascii": "Arthur",
   "state_id": "IA",
   "City-State": "Arthur-IA",
   "state_name": "Iowa",
   "county_fips": 19093,
   "county_name": "Ida",
   "lat": 42.3354,
   "lng": -95.3469,
   "population": 203,
   "population_proper": 203,
   "density": 515,
   "source": "polygon",
   "incorporated": true,
   "timezone": "America/Chicago",
   "zips": "51431"
 },
 {
   "City-State": "Archer-IA",
   "id": 1840006875,
   "city": "Archer",
   "city_ascii": "Archer",
   "state_id": "IA",
   "City-State": "Archer-IA",
   "state_name": "Iowa",
   "county_fips": 19141,
   "county_name": "O'Brien",
   "lat": 43.1151,
   "lng": -95.744,
   "population": 127,
   "population_proper": 127,
   "density": 522,
   "source": "polygon",
   "incorporated": true,
   "timezone": "America/Chicago",
   "zips": "51231"
 },
 {
   "City-State": "Laurel-IA",
   "id": 1840008114,
   "city": "Laurel",
   "city_ascii": "Laurel",
   "state_id": "IA",
   "City-State": "Laurel-IA",
   "state_name": "Iowa",
   "county_fips": 19127,
   "county_name": "Marshall",
   "lat": 41.8841,
   "lng": -92.9222,
   "population": 239,
   "population_proper": 239,
   "density": 367,
   "source": "polygon",
   "incorporated": true,
   "timezone": "America/Chicago",
   "zips": "50141"
 },
 {
   "City-State": "Ankeny-IA",
   "id": 1840007066,
   "city": "Ankeny",
   "city_ascii": "Ankeny",
   "state_id": "IA",
   "City-State": "Ankeny-IA",
   "state_name": "Iowa",
   "county_fips": 19153,
   "county_name": "Polk",
   "lat": 41.7279,
   "lng": -93.6033,
   "population": 58627,
   "population_proper": 58627,
   "density": 770,
   "source": "polygon",
   "incorporated": true,
   "timezone": "America/Chicago",
   "zips": "50023 50021"
 },
 {
   "City-State": "Gibson-IA",
   "id": 1840008216,
   "city": "Gibson",
   "city_ascii": "Gibson",
   "state_id": "IA",
   "City-State": "Gibson-IA",
   "state_name": "Iowa",
   "county_fips": 19107,
   "county_name": "Keokuk",
   "lat": 41.4801,
   "lng": -92.392,
   "population": 59,
   "population_proper": 59,
   "density": 344,
   "source": "polygon",
   "incorporated": true,
   "timezone": "America/Chicago",
   "zips": "50104"
 },
 {
   "City-State": "Story City-IA",
   "id": 1840009175,
   "city": "Story City",
   "city_ascii": "Story City",
   "state_id": "IA",
   "City-State": "Story City-IA",
   "state_name": "Iowa",
   "county_fips": 19169,
   "county_name": "Story",
   "lat": 42.1866,
   "lng": -93.5866,
   "population": 3291,
   "population_proper": 3410,
   "density": 480,
   "source": "polygon",
   "incorporated": true,
   "timezone": "America/Chicago",
   "zips": "50248"
 },
 {
   "City-State": "Boyer-IA",
   "id": 1840029604,
   "city": "Boyer",
   "city_ascii": "Boyer",
   "state_id": "IA",
   "City-State": "Boyer-IA",
   "state_name": "Iowa",
   "county_fips": 19047,
   "county_name": "Crawford",
   "lat": 42.1819,
   "lng": -95.2353,
   "population": null,
   "population_proper": null,
   "density": 15.6,
   "source": "point",
   "incorporated": false,
   "timezone": "America/Chicago",
   "zips": "51448"
 },
 {
   "City-State": "Webb-IA",
   "id": 1840010070,
   "city": "Webb",
   "city_ascii": "Webb",
   "state_id": "IA",
   "City-State": "Webb-IA",
   "state_name": "Iowa",
   "county_fips": 19041,
   "county_name": "Clay",
   "lat": 42.9497,
   "lng": -95.0129,
   "population": 136,
   "population_proper": 136,
   "density": 104,
   "source": "polygon",
   "incorporated": true,
   "timezone": "America/Chicago",
   "zips": "51366"
 },
 {
   "City-State": "South Amana-IA",
   "id": 1840026251,
   "city": "South Amana",
   "city_ascii": "South Amana",
   "state_id": "IA",
   "City-State": "South Amana-IA",
   "state_name": "Iowa",
   "county_fips": 19095,
   "county_name": "Iowa",
   "lat": 41.7704,
   "lng": -91.96,
   "population": null,
   "population_proper": null,
   "density": 86,
   "source": "polygon",
   "incorporated": false,
   "timezone": "America/Chicago",
   "zips": "52334"
 },
 {
   "City-State": "Larchwood-IA",
   "id": 1840007974,
   "city": "Larchwood",
   "city_ascii": "Larchwood",
   "state_id": "IA",
   "City-State": "Larchwood-IA",
   "state_name": "Iowa",
   "county_fips": 19119,
   "county_name": "Lyon",
   "lat": 43.4545,
   "lng": -96.4369,
   "population": 864,
   "population_proper": 864,
   "density": 335,
   "source": "polygon",
   "incorporated": true,
   "timezone": "America/Chicago",
   "zips": "51241"
 },
 {
   "City-State": "Grandview-IA",
   "id": 1840008246,
   "city": "Grandview",
   "city_ascii": "Grandview",
   "state_id": "IA",
   "City-State": "Grandview-IA",
   "state_name": "Iowa",
   "county_fips": 19115,
   "county_name": "Louisa",
   "lat": 41.2771,
   "lng": -91.1879,
   "population": 530,
   "population_proper": 530,
   "density": 902,
   "source": "polygon",
   "incorporated": true,
   "timezone": "America/Chicago",
   "zips": "52752 52754"
 },
 {
   "City-State": "Winthrop-IA",
   "id": 1840010097,
   "city": "Winthrop",
   "city_ascii": "Winthrop",
   "state_id": "IA",
   "City-State": "Winthrop-IA",
   "state_name": "Iowa",
   "county_fips": 19019,
   "county_name": "Buchanan",
   "lat": 42.4702,
   "lng": -91.738,
   "population": 848,
   "population_proper": 848,
   "density": 388,
   "source": "polygon",
   "incorporated": true,
   "timezone": "America/Chicago",
   "zips": "50682"
 },
 {
   "City-State": "Washta-IA",
   "id": 1840010084,
   "city": "Washta",
   "city_ascii": "Washta",
   "state_id": "IA",
   "City-State": "Washta-IA",
   "state_name": "Iowa",
   "county_fips": 19035,
   "county_name": "Cherokee",
   "lat": 42.5756,
   "lng": -95.7202,
   "population": 237,
   "population_proper": 237,
   "density": 91,
   "source": "polygon",
   "incorporated": true,
   "timezone": "America/Chicago",
   "zips": "51061"
 },
 {
   "City-State": "Klemme-IA",
   "id": 1840007989,
   "city": "Klemme",
   "city_ascii": "Klemme",
   "state_id": "IA",
   "City-State": "Klemme-IA",
   "state_name": "Iowa",
   "county_fips": 19081,
   "county_name": "Hancock",
   "lat": 43.0098,
   "lng": -93.6013,
   "population": 476,
   "population_proper": 476,
   "density": 361,
   "source": "polygon",
   "incorporated": true,
   "timezone": "America/Chicago",
   "zips": "50449"
 },
 {
   "City-State": "Clare-IA",
   "id": 1840006938,
   "city": "Clare",
   "city_ascii": "Clare",
   "state_id": "IA",
   "City-State": "Clare-IA",
   "state_name": "Iowa",
   "county_fips": 19187,
   "county_name": "Webster",
   "lat": 42.5875,
   "lng": -94.3447,
   "population": 141,
   "population_proper": 141,
   "density": 107,
   "source": "polygon",
   "incorporated": true,
   "timezone": "America/Chicago",
   "zips": "50524"
 },
 {
   "City-State": "Bevington-IA",
   "id": 1840007111,
   "city": "Bevington",
   "city_ascii": "Bevington",
   "state_id": "IA",
   "City-State": "Bevington-IA",
   "state_name": "Iowa",
   "county_fips": 19121,
   "county_name": "Madison",
   "lat": 41.3596,
   "lng": -93.7904,
   "population": 68,
   "population_proper": 68,
   "density": 58,
   "source": "polygon",
   "incorporated": true,
   "timezone": "America/Chicago",
   "zips": "50229 50033 50240"
 },
 {
   "City-State": "Pacific Junction-IA",
   "id": 1840009344,
   "city": "Pacific Junction",
   "city_ascii": "Pacific Junction",
   "state_id": "IA",
   "City-State": "Pacific Junction-IA",
   "state_name": "Iowa",
   "county_fips": 19129,
   "county_name": "Mills",
   "lat": 41.018,
   "lng": -95.7995,
   "population": 460,
   "population_proper": 460,
   "density": 234,
   "source": "polygon",
   "incorporated": true,
   "timezone": "America/Chicago",
   "zips": "51561"
 },
 {
   "City-State": "Blanchard-IA",
   "id": 1840007183,
   "city": "Blanchard",
   "city_ascii": "Blanchard",
   "state_id": "IA",
   "City-State": "Blanchard-IA",
   "state_name": "Iowa",
   "county_fips": 19145,
   "county_name": "Page",
   "lat": 40.5808,
   "lng": -95.2215,
   "population": 37,
   "population_proper": 37,
   "density": 62,
   "source": "polygon",
   "incorporated": true,
   "timezone": "America/Chicago",
   "zips": "51630"
 },
 {
   "City-State": "Stanhope-IA",
   "id": 1840009121,
   "city": "Stanhope",
   "city_ascii": "Stanhope",
   "state_id": "IA",
   "City-State": "Stanhope-IA",
   "state_name": "Iowa",
   "county_fips": 19079,
   "county_name": "Hamilton",
   "lat": 42.2889,
   "lng": -93.796,
   "population": 408,
   "population_proper": 408,
   "density": 162,
   "source": "polygon",
   "incorporated": true,
   "timezone": "America/Chicago",
   "zips": "50246"
 },
 {
   "City-State": "Corydon-IA",
   "id": 1840007200,
   "city": "Corydon",
   "city_ascii": "Corydon",
   "state_id": "IA",
   "City-State": "Corydon-IA",
   "state_name": "Iowa",
   "county_fips": 19185,
   "county_name": "Wayne",
   "lat": 40.7574,
   "lng": -93.3174,
   "population": 1603,
   "population_proper": 1603,
   "density": 444,
   "source": "polygon",
   "incorporated": true,
   "timezone": "America/Chicago",
   "zips": "50060"
 },
 {
   "City-State": "La Motte-IA",
   "id": 1840008091,
   "city": "La Motte",
   "city_ascii": "La Motte",
   "state_id": "IA",
   "City-State": "La Motte-IA",
   "state_name": "Iowa",
   "county_fips": 19097,
   "county_name": "Jackson",
   "lat": 42.2958,
   "lng": -90.6235,
   "population": 253,
   "population_proper": 253,
   "density": 213,
   "source": "polygon",
   "incorporated": true,
   "timezone": "America/Chicago",
   "zips": "52054"
 },
 {
   "City-State": "Hardy-IA",
   "id": 1840006908,
   "city": "Hardy",
   "city_ascii": "Hardy",
   "state_id": "IA",
   "City-State": "Hardy-IA",
   "state_name": "Iowa",
   "county_fips": 19091,
   "county_name": "Humboldt",
   "lat": 42.8101,
   "lng": -94.0512,
   "population": 45,
   "population_proper": 45,
   "density": 39,
   "source": "polygon",
   "incorporated": true,
   "timezone": "America/Chicago",
   "zips": "50545"
 },
 {
   "City-State": "Eddyville-IA",
   "id": 1840008267,
   "city": "Eddyville",
   "city_ascii": "Eddyville",
   "state_id": "IA",
   "City-State": "Eddyville-IA",
   "state_name": "Iowa",
   "county_fips": 19179,
   "county_name": "Wapello",
   "lat": 41.1591,
   "lng": -92.6297,
   "population": 1005,
   "population_proper": 1005,
   "density": 328,
   "source": "polygon",
   "incorporated": true,
   "timezone": "America/Chicago",
   "zips": "52553"
 },
 {
   "City-State": "Palo-IA",
   "id": 1840009146,
   "city": "Palo",
   "city_ascii": "Palo",
   "state_id": "IA",
   "City-State": "Palo-IA",
   "state_name": "Iowa",
   "county_fips": 19113,
   "county_name": "Linn",
   "lat": 42.0646,
   "lng": -91.8002,
   "population": 1077,
   "population_proper": 1077,
   "density": 338,
   "source": "polygon",
   "incorporated": true,
   "timezone": "America/Chicago",
   "zips": "52324"
 },
 {
   "City-State": "Hull-IA",
   "id": 1840006873,
   "city": "Hull",
   "city_ascii": "Hull",
   "state_id": "IA",
   "City-State": "Hull-IA",
   "state_name": "Iowa",
   "county_fips": 19167,
   "county_name": "Sioux",
   "lat": 43.1895,
   "lng": -96.1336,
   "population": 2266,
   "population_proper": 2266,
   "density": 668,
   "source": "polygon",
   "incorporated": true,
   "timezone": "America/Chicago",
   "zips": "51239"
 },
 {
   "City-State": "Marquette-IA",
   "id": 1840008014,
   "city": "Marquette",
   "city_ascii": "Marquette",
   "state_id": "IA",
   "City-State": "Marquette-IA",
   "state_name": "Iowa",
   "county_fips": 19043,
   "county_name": "Clayton",
   "lat": 43.0446,
   "lng": -91.1905,
   "population": 453,
   "population_proper": 453,
   "density": 100,
   "source": "polygon",
   "incorporated": true,
   "timezone": "America/Chicago",
   "zips": "52157 52158"
 },
 {
   "City-State": "Thor-IA",
   "id": 1840010087,
   "city": "Thor",
   "city_ascii": "Thor",
   "state_id": "IA",
   "City-State": "Thor-IA",
   "state_name": "Iowa",
   "county_fips": 19091,
   "county_name": "Humboldt",
   "lat": 42.6881,
   "lng": -94.0496,
   "population": 179,
   "population_proper": 179,
   "density": 69,
   "source": "polygon",
   "incorporated": true,
   "timezone": "America/Chicago",
   "zips": "50591"
 },
 {
   "City-State": "New Providence-IA",
   "id": 1840008078,
   "city": "New Providence",
   "city_ascii": "New Providence",
   "state_id": "IA",
   "City-State": "New Providence-IA",
   "state_name": "Iowa",
   "county_fips": 19083,
   "county_name": "Hardin",
   "lat": 42.2812,
   "lng": -93.1718,
   "population": 225,
   "population_proper": 225,
   "density": 86,
   "source": "polygon",
   "incorporated": true,
   "timezone": "America/Chicago",
   "zips": "50206"
 },
 {
   "City-State": "Baldwin-IA",
   "id": 1840006980,
   "city": "Baldwin",
   "city_ascii": "Baldwin",
   "state_id": "IA",
   "City-State": "Baldwin-IA",
   "state_name": "Iowa",
   "county_fips": 19097,
   "county_name": "Jackson",
   "lat": 42.0732,
   "lng": -90.8385,
   "population": 106,
   "population_proper": 106,
   "density": 112,
   "source": "polygon",
   "incorporated": true,
   "timezone": "America/Chicago",
   "zips": "52207"
 },
 {
   "City-State": "Charles City-IA",
   "id": 1840000382,
   "city": "Charles City",
   "city_ascii": "Charles City",
   "state_id": "IA",
   "City-State": "Charles City-IA",
   "state_name": "Iowa",
   "county_fips": 19067,
   "county_name": "Floyd",
   "lat": 43.0644,
   "lng": -92.6745,
   "population": 7510,
   "population_proper": 7457,
   "density": 463,
   "source": "polygon",
   "incorporated": true,
   "timezone": "America/Chicago",
   "zips": "50616"
 },
 {
   "City-State": "Victor-IA",
   "id": 1840010178,
   "city": "Victor",
   "city_ascii": "Victor",
   "state_id": "IA",
   "City-State": "Victor-IA",
   "state_name": "Iowa",
   "county_fips": 19095,
   "county_name": "Iowa",
   "lat": 41.7308,
   "lng": -92.2947,
   "population": 881,
   "population_proper": 881,
   "density": 701,
   "source": "polygon",
   "incorporated": true,
   "timezone": "America/Chicago",
   "zips": "52347"
 },
 {
   "City-State": "Lytton-IA",
   "id": 1840009112,
   "city": "Lytton",
   "city_ascii": "Lytton",
   "state_id": "IA",
   "City-State": "Lytton-IA",
   "state_name": "Iowa",
   "county_fips": 19161,
   "county_name": "Sac",
   "lat": 42.4233,
   "lng": -94.8605,
   "population": 299,
   "population_proper": 299,
   "density": 582,
   "source": "polygon",
   "incorporated": true,
   "timezone": "America/Chicago",
   "zips": "50561"
 },
 {
   "City-State": "Orleans-IA",
   "id": 1840009026,
   "city": "Orleans",
   "city_ascii": "Orleans",
   "state_id": "IA",
   "City-State": "Orleans-IA",
   "state_name": "Iowa",
   "county_fips": 19059,
   "county_name": "Dickinson",
   "lat": 43.4511,
   "lng": -95.0989,
   "population": 613,
   "population_proper": 613,
   "density": 211,
   "source": "polygon",
   "incorporated": true,
   "timezone": "America/Chicago",
   "zips": "51360"
 },
 {
   "City-State": "Dexter-IA",
   "id": 1840007057,
   "city": "Dexter",
   "city_ascii": "Dexter",
   "state_id": "IA",
   "City-State": "Dexter-IA",
   "state_name": "Iowa",
   "county_fips": 19049,
   "county_name": "Dallas",
   "lat": 41.5154,
   "lng": -94.2276,
   "population": 600,
   "population_proper": 600,
   "density": 185,
   "source": "polygon",
   "incorporated": true,
   "timezone": "America/Chicago",
   "zips": "50070"
 },
 {
   "City-State": "Silver City-IA",
   "id": 1840009343,
   "city": "Silver City",
   "city_ascii": "Silver City",
   "state_id": "IA",
   "City-State": "Silver City-IA",
   "state_name": "Iowa",
   "county_fips": 19129,
   "county_name": "Mills",
   "lat": 41.1114,
   "lng": -95.638,
   "population": 247,
   "population_proper": 247,
   "density": 438,
   "source": "polygon",
   "incorporated": true,
   "timezone": "America/Chicago",
   "zips": "51571"
 },
 {
   "City-State": "Nemaha-IA",
   "id": 1840008068,
   "city": "Nemaha",
   "city_ascii": "Nemaha",
   "state_id": "IA",
   "City-State": "Nemaha-IA",
   "state_name": "Iowa",
   "county_fips": 19161,
   "county_name": "Sac",
   "lat": 42.515,
   "lng": -95.0889,
   "population": 82,
   "population_proper": 82,
   "density": 430,
   "source": "polygon",
   "incorporated": true,
   "timezone": "America/Chicago",
   "zips": "50567"
 },
 {
   "City-State": "Bolan-IA",
   "id": 1840024036,
   "city": "Bolan",
   "city_ascii": "Bolan",
   "state_id": "IA",
   "City-State": "Bolan-IA",
   "state_name": "Iowa",
   "county_fips": 19195,
   "county_name": "Worth",
   "lat": 43.3735,
   "lng": -93.1085,
   "population": null,
   "population_proper": null,
   "density": 11.3,
   "source": "polygon",
   "incorporated": false,
   "timezone": "America/Chicago",
   "zips": "50448"
 },
 {
   "City-State": "Harvey-IA",
   "id": 1840007116,
   "city": "Harvey",
   "city_ascii": "Harvey",
   "state_id": "IA",
   "City-State": "Harvey-IA",
   "state_name": "Iowa",
   "county_fips": 19125,
   "county_name": "Marion",
   "lat": 41.3179,
   "lng": -92.9227,
   "population": 238,
   "population_proper": 238,
   "density": 135,
   "source": "polygon",
   "incorporated": true,
   "timezone": "America/Chicago",
   "zips": "50119"
 },
 {
   "City-State": "Magnolia-IA",
   "id": 1840009206,
   "city": "Magnolia",
   "city_ascii": "Magnolia",
   "state_id": "IA",
   "City-State": "Magnolia-IA",
   "state_name": "Iowa",
   "county_fips": 19085,
   "county_name": "Harrison",
   "lat": 41.6922,
   "lng": -95.8741,
   "population": 173,
   "population_proper": 173,
   "density": 117,
   "source": "polygon",
   "incorporated": true,
   "timezone": "America/Chicago",
   "zips": "51550"
 },
 {
   "City-State": "Mount Pleasant-IA",
   "id": 1840000888,
   "city": "Mount Pleasant",
   "city_ascii": "Mount Pleasant",
   "state_id": "IA",
   "City-State": "Mount Pleasant-IA",
   "state_name": "Iowa",
   "county_fips": 19087,
   "county_name": "Henry",
   "lat": 40.9622,
   "lng": -91.5453,
   "population": 8360,
   "population_proper": 8392,
   "density": 380,
   "source": "polygon",
   "incorporated": true,
   "timezone": "America/Chicago",
   "zips": "52641"
 },
 {
   "City-State": "Sand Springs-IA",
   "id": 1840029660,
   "city": "Sand Springs",
   "city_ascii": "Sand Springs",
   "state_id": "IA",
   "City-State": "Sand Springs-IA",
   "state_name": "Iowa",
   "county_fips": 19055,
   "county_name": "Delaware",
   "lat": 42.3175,
   "lng": -91.1893,
   "population": null,
   "population_proper": null,
   "density": 35.3,
   "source": "point",
   "incorporated": false,
   "timezone": "America/Chicago",
   "zips": "52237"
 },
 {
   "City-State": "Canton-IA",
   "id": 1840029608,
   "city": "Canton",
   "city_ascii": "Canton",
   "state_id": "IA",
   "City-State": "Canton-IA",
   "state_name": "Iowa",
   "county_fips": 19105,
   "county_name": "Jones",
   "lat": 42.1633,
   "lng": -90.8957,
   "population": null,
   "population_proper": null,
   "density": 35,
   "source": "point",
   "incorporated": false,
   "timezone": "America/Chicago",
   "zips": "52309"
 },
 {
   "City-State": "Lovilia-IA",
   "id": 1840009342,
   "city": "Lovilia",
   "city_ascii": "Lovilia",
   "state_id": "IA",
   "City-State": "Lovilia-IA",
   "state_name": "Iowa",
   "county_fips": 19135,
   "county_name": "Monroe",
   "lat": 41.135,
   "lng": -92.9083,
   "population": 510,
   "population_proper": 510,
   "density": 391,
   "source": "polygon",
   "incorporated": true,
   "timezone": "America/Chicago",
   "zips": "50150"
 },
 {
   "City-State": "Spirit Lake-IA",
   "id": 1840009023,
   "city": "Spirit Lake",
   "city_ascii": "Spirit Lake",
   "state_id": "IA",
   "City-State": "Spirit Lake-IA",
   "state_name": "Iowa",
   "county_fips": 19059,
   "county_name": "Dickinson",
   "lat": 43.4177,
   "lng": -95.1109,
   "population": 11375,
   "population_proper": 5086,
   "density": 431,
   "source": "polygon",
   "incorporated": true,
   "timezone": "America/Chicago",
   "zips": "51360"
 },
 {
   "City-State": "Kiron-IA",
   "id": 1840008118,
   "city": "Kiron",
   "city_ascii": "Kiron",
   "state_id": "IA",
   "City-State": "Kiron-IA",
   "state_name": "Iowa",
   "county_fips": 19047,
   "county_name": "Crawford",
   "lat": 42.194,
   "lng": -95.3271,
   "population": 273,
   "population_proper": 273,
   "density": 505,
   "source": "polygon",
   "incorporated": true,
   "timezone": "America/Chicago",
   "zips": "51448"
 },
 {
   "City-State": "Oyens-IA",
   "id": 1840009071,
   "city": "Oyens",
   "city_ascii": "Oyens",
   "state_id": "IA",
   "City-State": "Oyens-IA",
   "state_name": "Iowa",
   "county_fips": 19149,
   "county_name": "Plymouth",
   "lat": 42.82,
   "lng": -96.0582,
   "population": 102,
   "population_proper": 102,
   "density": 388,
   "source": "polygon",
   "incorporated": true,
   "timezone": "America/Chicago",
   "zips": "51031 51045"
 },
 {
   "City-State": "Westfield-IA",
   "id": 1840010082,
   "city": "Westfield",
   "city_ascii": "Westfield",
   "state_id": "IA",
   "City-State": "Westfield-IA",
   "state_name": "Iowa",
   "county_fips": 19149,
   "county_name": "Plymouth",
   "lat": 42.7561,
   "lng": -96.6056,
   "population": 131,
   "population_proper": 131,
   "density": 395,
   "source": "polygon",
   "incorporated": true,
   "timezone": "America/Chicago",
   "zips": "51062"
 },
 {
   "City-State": "Dallas Center-IA",
   "id": 1840007052,
   "city": "Dallas Center",
   "city_ascii": "Dallas Center",
   "state_id": "IA",
   "City-State": "Dallas Center-IA",
   "state_name": "Iowa",
   "county_fips": 19049,
   "county_name": "Dallas",
   "lat": 41.6854,
   "lng": -93.9816,
   "population": 1746,
   "population_proper": 1746,
   "density": 127,
   "source": "polygon",
   "incorporated": true,
   "timezone": "America/Chicago",
   "zips": "50063"
 },
 {
   "City-State": "Cantril-IA",
   "id": 1840007190,
   "city": "Cantril",
   "city_ascii": "Cantril",
   "state_id": "IA",
   "City-State": "Cantril-IA",
   "state_name": "Iowa",
   "county_fips": 19177,
   "county_name": "Van Buren",
   "lat": 40.6429,
   "lng": -92.0685,
   "population": 218,
   "population_proper": 218,
   "density": 165,
   "source": "polygon",
   "incorporated": true,
   "timezone": "America/Chicago",
   "zips": "52542"
 },
 {
   "City-State": "Panorama Park-IA",
   "id": 1840009235,
   "city": "Panorama Park",
   "city_ascii": "Panorama Park",
   "state_id": "IA",
   "City-State": "Panorama Park-IA",
   "state_name": "Iowa",
   "county_fips": 19163,
   "county_name": "Scott",
   "lat": 41.5556,
   "lng": -90.4536,
   "population": 151,
   "population_proper": 151,
   "density": 1089,
   "source": "polygon",
   "incorporated": true,
   "timezone": "America/Chicago",
   "zips": "52722"
 },
 {
   "City-State": "Danbury-IA",
   "id": 1840006950,
   "city": "Danbury",
   "city_ascii": "Danbury",
   "state_id": "IA",
   "City-State": "Danbury-IA",
   "state_name": "Iowa",
   "county_fips": 19193,
   "county_name": "Woodbury",
   "lat": 42.2364,
   "lng": -95.7216,
   "population": 338,
   "population_proper": 338,
   "density": 322,
   "source": "polygon",
   "incorporated": true,
   "timezone": "America/Chicago",
   "zips": "51019"
 },
 {
   "City-State": "Burt-IA",
   "id": 1840006847,
   "city": "Burt",
   "city_ascii": "Burt",
   "state_id": "IA",
   "City-State": "Burt-IA",
   "state_name": "Iowa",
   "county_fips": 19109,
   "county_name": "Kossuth",
   "lat": 43.1989,
   "lng": -94.2211,
   "population": 505,
   "population_proper": 505,
   "density": 448,
   "source": "polygon",
   "incorporated": true,
   "timezone": "America/Chicago",
   "zips": "50522"
 },
 {
   "City-State": "Diagonal-IA",
   "id": 1840007196,
   "city": "Diagonal",
   "city_ascii": "Diagonal",
   "state_id": "IA",
   "City-State": "Diagonal-IA",
   "state_name": "Iowa",
   "county_fips": 19159,
   "county_name": "Ringgold",
   "lat": 40.8105,
   "lng": -94.3421,
   "population": 326,
   "population_proper": 326,
   "density": 139,
   "source": "polygon",
   "incorporated": true,
   "timezone": "America/Chicago",
   "zips": "50845"
 },
 {
   "City-State": "Northwood-IA",
   "id": 1840007965,
   "city": "Northwood",
   "city_ascii": "Northwood",
   "state_id": "IA",
   "City-State": "Northwood-IA",
   "state_name": "Iowa",
   "county_fips": 19195,
   "county_name": "Worth",
   "lat": 43.4441,
   "lng": -93.2166,
   "population": 2000,
   "population_proper": 2000,
   "density": 205,
   "source": "polygon",
   "incorporated": true,
   "timezone": "America/Chicago",
   "zips": "50459"
 },
 {
   "City-State": "Colwell-IA",
   "id": 1840006886,
   "city": "Colwell",
   "city_ascii": "Colwell",
   "state_id": "IA",
   "City-State": "Colwell-IA",
   "state_name": "Iowa",
   "county_fips": 19067,
   "county_name": "Floyd",
   "lat": 43.1577,
   "lng": -92.591,
   "population": 71,
   "population_proper": 71,
   "density": 149,
   "source": "polygon",
   "incorporated": true,
   "timezone": "America/Chicago",
   "zips": "50620 50616"
 },
 {
   "City-State": "Akron-IA",
   "id": 1840006896,
   "city": "Akron",
   "city_ascii": "Akron",
   "state_id": "IA",
   "City-State": "Akron-IA",
   "state_name": "Iowa",
   "county_fips": 19149,
   "county_name": "Plymouth",
   "lat": 42.8268,
   "lng": -96.5571,
   "population": 1465,
   "population_proper": 1465,
   "density": 457,
   "source": "polygon",
   "incorporated": true,
   "timezone": "America/Chicago",
   "zips": "51001"
 },
 {
   "City-State": "Carbon-IA",
   "id": 1840007157,
   "city": "Carbon",
   "city_ascii": "Carbon",
   "state_id": "IA",
   "City-State": "Carbon-IA",
   "state_name": "Iowa",
   "county_fips": 19003,
   "county_name": "Adams",
   "lat": 41.0497,
   "lng": -94.824,
   "population": 31,
   "population_proper": 31,
   "density": 16,
   "source": "polygon",
   "incorporated": true,
   "timezone": "America/Chicago",
   "zips": "50839"
 },
 {
   "City-State": "Massillon-IA",
   "id": 1840029654,
   "city": "Massillon",
   "city_ascii": "Massillon",
   "state_id": "IA",
   "City-State": "Massillon-IA",
   "state_name": "Iowa",
   "county_fips": 19031,
   "county_name": "Cedar",
   "lat": 41.9147,
   "lng": -90.9226,
   "population": null,
   "population_proper": null,
   "density": 47.8,
   "source": "point",
   "incorporated": false,
   "timezone": "America/Chicago",
   "zips": "52255"
 },
 {
   "City-State": "Mediapolis-IA",
   "id": 1840008281,
   "city": "Mediapolis",
   "city_ascii": "Mediapolis",
   "state_id": "IA",
   "City-State": "Mediapolis-IA",
   "state_name": "Iowa",
   "county_fips": 19057,
   "county_name": "Des Moines",
   "lat": 41.0079,
   "lng": -91.1637,
   "population": 1553,
   "population_proper": 1553,
   "density": 497,
   "source": "polygon",
   "incorporated": true,
   "timezone": "America/Chicago",
   "zips": "52637"
 },
 {
   "City-State": "Avoca-IA",
   "id": 1840007121,
   "city": "Avoca",
   "city_ascii": "Avoca",
   "state_id": "IA",
   "City-State": "Avoca-IA",
   "state_name": "Iowa",
   "county_fips": 19155,
   "county_name": "Pottawattamie",
   "lat": 41.4828,
   "lng": -95.3373,
   "population": 1513,
   "population_proper": 1513,
   "density": 245,
   "source": "polygon",
   "incorporated": true,
   "timezone": "America/Chicago",
   "zips": "51521"
 },
 {
   "City-State": "Twin Lakes-IA",
   "id": 1840029703,
   "city": "Twin Lakes",
   "city_ascii": "Twin Lakes",
   "state_id": "IA",
   "City-State": "Twin Lakes-IA",
   "state_name": "Iowa",
   "county_fips": 19025,
   "county_name": "Calhoun",
   "lat": 42.4775,
   "lng": -94.6354,
   "population": null,
   "population_proper": null,
   "density": 35.1,
   "source": "polygon",
   "incorporated": false,
   "timezone": "America/Chicago",
   "zips": "50563 50579"
 },
 {
   "City-State": "Brighton-IA",
   "id": 1840004897,
   "city": "Brighton",
   "city_ascii": "Brighton",
   "state_id": "IA",
   "City-State": "Brighton-IA",
   "state_name": "Iowa",
   "county_fips": 19183,
   "county_name": "Washington",
   "lat": 41.1747,
   "lng": -91.8212,
   "population": 659,
   "population_proper": 659,
   "density": 325,
   "source": "polygon",
   "incorporated": true,
   "timezone": "America/Chicago",
   "zips": "52540"
 },
 {
   "City-State": "Attica-IA",
   "id": 1840029597,
   "city": "Attica",
   "city_ascii": "Attica",
   "state_id": "IA",
   "City-State": "Attica-IA",
   "state_name": "Iowa",
   "county_fips": 19125,
   "county_name": "Marion",
   "lat": 41.2297,
   "lng": -93.016,
   "population": null,
   "population_proper": null,
   "density": 20.5,
   "source": "point",
   "incorporated": false,
   "timezone": "America/Chicago",
   "zips": "50138"
 },
 {
   "City-State": "Swan-IA",
   "id": 1840009292,
   "city": "Swan",
   "city_ascii": "Swan",
   "state_id": "IA",
   "City-State": "Swan-IA",
   "state_name": "Iowa",
   "county_fips": 19125,
   "county_name": "Marion",
   "lat": 41.4675,
   "lng": -93.3095,
   "population": 72,
   "population_proper": 72,
   "density": 43,
   "source": "polygon",
   "incorporated": true,
   "timezone": "America/Chicago",
   "zips": "50252"
 },
 {
   "City-State": "Paton-IA",
   "id": 1840009170,
   "city": "Paton",
   "city_ascii": "Paton",
   "state_id": "IA",
   "City-State": "Paton-IA",
   "state_name": "Iowa",
   "county_fips": 19073,
   "county_name": "Greene",
   "lat": 42.1642,
   "lng": -94.2551,
   "population": 230,
   "population_proper": 230,
   "density": 157,
   "source": "polygon",
   "incorporated": true,
   "timezone": "America/Chicago",
   "zips": "50217"
 },
 {
   "City-State": "Ridgeway-IA",
   "id": 1840009042,
   "city": "Ridgeway",
   "city_ascii": "Ridgeway",
   "state_id": "IA",
   "City-State": "Ridgeway-IA",
   "state_name": "Iowa",
   "county_fips": 19191,
   "county_name": "Winneshiek",
   "lat": 43.2989,
   "lng": -91.9926,
   "population": 300,
   "population_proper": 300,
   "density": 113,
   "source": "polygon",
   "incorporated": true,
   "timezone": "America/Chicago",
   "zips": "52165"
 },
 {
   "City-State": "West Point-IA",
   "id": 1840010373,
   "city": "West Point",
   "city_ascii": "West Point",
   "state_id": "IA",
   "City-State": "West Point-IA",
   "state_name": "Iowa",
   "county_fips": 19111,
   "county_name": "Lee",
   "lat": 40.7149,
   "lng": -91.4523,
   "population": 954,
   "population_proper": 954,
   "density": 605,
   "source": "polygon",
   "incorporated": true,
   "timezone": "America/Chicago",
   "zips": "52656"
 },
 {
   "City-State": "Denmark-IA",
   "id": 1840026405,
   "city": "Denmark",
   "city_ascii": "Denmark",
   "state_id": "IA",
   "City-State": "Denmark-IA",
   "state_name": "Iowa",
   "county_fips": 19111,
   "county_name": "Lee",
   "lat": 40.7385,
   "lng": -91.3381,
   "population": null,
   "population_proper": null,
   "density": 152.6,
   "source": "polygon",
   "incorporated": false,
   "timezone": "America/Chicago",
   "zips": "52627 52624 52658"
 },
 {
   "City-State": "Rockwell-IA",
   "id": 1840009054,
   "city": "Rockwell",
   "city_ascii": "Rockwell",
   "state_id": "IA",
   "City-State": "Rockwell-IA",
   "state_name": "Iowa",
   "county_fips": 19033,
   "county_name": "Cerro Gordo",
   "lat": 42.98,
   "lng": -93.1871,
   "population": 1012,
   "population_proper": 1012,
   "density": 131,
   "source": "polygon",
   "incorporated": true,
   "timezone": "America/Chicago",
   "zips": "50469"
 },
 {
   "City-State": "Whiting-IA",
   "id": 1840010133,
   "city": "Whiting",
   "city_ascii": "Whiting",
   "state_id": "IA",
   "City-State": "Whiting-IA",
   "state_name": "Iowa",
   "county_fips": 19133,
   "county_name": "Monona",
   "lat": 42.1272,
   "lng": -96.1508,
   "population": 744,
   "population_proper": 744,
   "density": 286,
   "source": "polygon",
   "incorporated": true,
   "timezone": "America/Chicago",
   "zips": "51063"
 },
 {
   "City-State": "Walford-IA",
   "id": 1840010125,
   "city": "Walford",
   "city_ascii": "Walford",
   "state_id": "IA",
   "City-State": "Walford-IA",
   "state_name": "Iowa",
   "county_fips": 19011,
   "county_name": "Benton",
   "lat": 41.8796,
   "lng": -91.8305,
   "population": 1459,
   "population_proper": 1459,
   "density": 581,
   "source": "polygon",
   "incorporated": true,
   "timezone": "America/Chicago",
   "zips": "52228 52351"
 },
 {
   "City-State": "Villisca-IA",
   "id": 1840010318,
   "city": "Villisca",
   "city_ascii": "Villisca",
   "state_id": "IA",
   "City-State": "Villisca-IA",
   "state_name": "Iowa",
   "county_fips": 19137,
   "county_name": "Montgomery",
   "lat": 40.9298,
   "lng": -94.982,
   "population": 1182,
   "population_proper": 1182,
   "density": 239,
   "source": "polygon",
   "incorporated": true,
   "timezone": "America/Chicago",
   "zips": "50864"
 },
 {
   "City-State": "Lawton-IA",
   "id": 1840008066,
   "city": "Lawton",
   "city_ascii": "Lawton",
   "state_id": "IA",
   "City-State": "Lawton-IA",
   "state_name": "Iowa",
   "county_fips": 19193,
   "county_name": "Woodbury",
   "lat": 42.4769,
   "lng": -96.1851,
   "population": 961,
   "population_proper": 961,
   "density": 519,
   "source": "polygon",
   "incorporated": true,
   "timezone": "America/Chicago",
   "zips": "51030"
 },
 {
   "City-State": "Loveland-IA",
   "id": 1840024147,
   "city": "Loveland",
   "city_ascii": "Loveland",
   "state_id": "IA",
   "City-State": "Loveland-IA",
   "state_name": "Iowa",
   "county_fips": 19155,
   "county_name": "Pottawattamie",
   "lat": 41.4974,
   "lng": -95.8909,
   "population": null,
   "population_proper": null,
   "density": 62,
   "source": "polygon",
   "incorporated": false,
   "timezone": "America/Chicago",
   "zips": "51555"
 },
 {
   "City-State": "Clemons-IA",
   "id": 1840006996,
   "city": "Clemons",
   "city_ascii": "Clemons",
   "state_id": "IA",
   "City-State": "Clemons-IA",
   "state_name": "Iowa",
   "county_fips": 19127,
   "county_name": "Marshall",
   "lat": 42.1139,
   "lng": -93.1585,
   "population": 148,
   "population_proper": 148,
   "density": 211,
   "source": "polygon",
   "incorporated": true,
   "timezone": "America/Chicago",
   "zips": "50051"
 },
 {
   "City-State": "Emerson-IA",
   "id": 1840008272,
   "city": "Emerson",
   "city_ascii": "Emerson",
   "state_id": "IA",
   "City-State": "Emerson-IA",
   "state_name": "Iowa",
   "county_fips": 19129,
   "county_name": "Mills",
   "lat": 41.018,
   "lng": -95.4028,
   "population": 437,
   "population_proper": 437,
   "density": 658,
   "source": "polygon",
   "incorporated": true,
   "timezone": "America/Chicago",
   "zips": "51533"
 },
 {
   "City-State": "Earling-IA",
   "id": 1840008160,
   "city": "Earling",
   "city_ascii": "Earling",
   "state_id": "IA",
   "City-State": "Earling-IA",
   "state_name": "Iowa",
   "county_fips": 19165,
   "county_name": "Shelby",
   "lat": 41.7761,
   "lng": -95.4189,
   "population": 420,
   "population_proper": 420,
   "density": 269,
   "source": "polygon",
   "incorporated": true,
   "timezone": "America/Chicago",
   "zips": "51530"
 },
 {
   "City-State": "Guttenberg-IA",
   "id": 1840006891,
   "city": "Guttenberg",
   "city_ascii": "Guttenberg",
   "state_id": "IA",
   "City-State": "Guttenberg-IA",
   "state_name": "Iowa",
   "county_fips": 19043,
   "county_name": "Clayton",
   "lat": 42.7886,
   "lng": -91.1059,
   "population": 1840,
   "population_proper": 1840,
   "density": 339,
   "source": "polygon",
   "incorporated": true,
   "timezone": "America/Chicago",
   "zips": "52052"
 },
 {
   "City-State": "Adel-IA",
   "id": 1840007053,
   "city": "Adel",
   "city_ascii": "Adel",
   "state_id": "IA",
   "City-State": "Adel-IA",
   "state_name": "Iowa",
   "county_fips": 19049,
   "county_name": "Dallas",
   "lat": 41.6122,
   "lng": -94.0136,
   "population": 3696,
   "population_proper": 4293,
   "density": 352,
   "source": "polygon",
   "incorporated": true,
   "timezone": "America/Chicago",
   "zips": "50003"
 },
 {
   "City-State": "Burchinal-IA",
   "id": 1840024051,
   "city": "Burchinal",
   "city_ascii": "Burchinal",
   "state_id": "IA",
   "City-State": "Burchinal-IA",
   "state_name": "Iowa",
   "county_fips": 19033,
   "county_name": "Cerro Gordo",
   "lat": 43.0648,
   "lng": -93.2785,
   "population": null,
   "population_proper": null,
   "density": 55.1,
   "source": "polygon",
   "incorporated": false,
   "timezone": "America/Chicago",
   "zips": "50469"
 },
 {
   "City-State": "Harcourt-IA",
   "id": 1840006941,
   "city": "Harcourt",
   "city_ascii": "Harcourt",
   "state_id": "IA",
   "City-State": "Harcourt-IA",
   "state_name": "Iowa",
   "county_fips": 19187,
   "county_name": "Webster",
   "lat": 42.2606,
   "lng": -94.1745,
   "population": 292,
   "population_proper": 292,
   "density": 112,
   "source": "polygon",
   "incorporated": true,
   "timezone": "America/Chicago",
   "zips": "50544"
 },
 {
   "City-State": "Ladora-IA",
   "id": 1840008157,
   "city": "Ladora",
   "city_ascii": "Ladora",
   "state_id": "IA",
   "City-State": "Ladora-IA",
   "state_name": "Iowa",
   "county_fips": 19095,
   "county_name": "Iowa",
   "lat": 41.7555,
   "lng": -92.1859,
   "population": 281,
   "population_proper": 281,
   "density": 357,
   "source": "polygon",
   "incorporated": true,
   "timezone": "America/Chicago",
   "zips": "52251"
 },
 {
   "City-State": "Hedrick-IA",
   "id": 1840007109,
   "city": "Hedrick",
   "city_ascii": "Hedrick",
   "state_id": "IA",
   "City-State": "Hedrick-IA",
   "state_name": "Iowa",
   "county_fips": 19107,
   "county_name": "Keokuk",
   "lat": 41.1712,
   "lng": -92.3079,
   "population": 740,
   "population_proper": 740,
   "density": 186,
   "source": "polygon",
   "incorporated": true,
   "timezone": "America/Chicago",
   "zips": "52563"
 },
 {
   "City-State": "Albion-IA",
   "id": 1840006997,
   "city": "Albion",
   "city_ascii": "Albion",
   "state_id": "IA",
   "City-State": "Albion-IA",
   "state_name": "Iowa",
   "county_fips": 19127,
   "county_name": "Marshall",
   "lat": 42.1125,
   "lng": -92.9887,
   "population": 469,
   "population_proper": 469,
   "density": 304,
   "source": "polygon",
   "incorporated": true,
   "timezone": "America/Chicago",
   "zips": "50005"
 },
 {
   "City-State": "Mount Union-IA",
   "id": 1840008265,
   "city": "Mount Union",
   "city_ascii": "Mount Union",
   "state_id": "IA",
   "City-State": "Mount Union-IA",
   "state_name": "Iowa",
   "county_fips": 19087,
   "county_name": "Henry",
   "lat": 41.0576,
   "lng": -91.3908,
   "population": 106,
   "population_proper": 106,
   "density": 365,
   "source": "polygon",
   "incorporated": true,
   "timezone": "America/Chicago",
   "zips": "52644"
 },
 {
   "City-State": "Traer-IA",
   "id": 1840010128,
   "city": "Traer",
   "city_ascii": "Traer",
   "state_id": "IA",
   "City-State": "Traer-IA",
   "state_name": "Iowa",
   "county_fips": 19171,
   "county_name": "Tama",
   "lat": 42.1907,
   "lng": -92.4641,
   "population": 1657,
   "population_proper": 1657,
   "density": 540,
   "source": "polygon",
   "incorporated": true,
   "timezone": "America/Chicago",
   "zips": "50675"
 },
 {
   "City-State": "Greenfield-IA",
   "id": 1840008238,
   "city": "Greenfield",
   "city_ascii": "Greenfield",
   "state_id": "IA",
   "City-State": "Greenfield-IA",
   "state_name": "Iowa",
   "county_fips": 19001,
   "county_name": "Adair",
   "lat": 41.3056,
   "lng": -94.4592,
   "population": 1843,
   "population_proper": 1843,
   "density": 392,
   "source": "polygon",
   "incorporated": true,
   "timezone": "America/Chicago",
   "zips": "50849"
 },
 {
   "City-State": "Calumet-IA",
   "id": 1840006874,
   "city": "Calumet",
   "city_ascii": "Calumet",
   "state_id": "IA",
   "City-State": "Calumet-IA",
   "state_name": "Iowa",
   "county_fips": 19141,
   "county_name": "O'Brien",
   "lat": 42.945,
   "lng": -95.5514,
   "population": 169,
   "population_proper": 169,
   "density": 245,
   "source": "polygon",
   "incorporated": true,
   "timezone": "America/Chicago",
   "zips": "51009 51058"
 },
 {
   "City-State": "Westside-IA",
   "id": 1840010136,
   "city": "Westside",
   "city_ascii": "Westside",
   "state_id": "IA",
   "City-State": "Westside-IA",
   "state_name": "Iowa",
   "county_fips": 19047,
   "county_name": "Crawford",
   "lat": 42.0757,
   "lng": -95.1014,
   "population": 297,
   "population_proper": 297,
   "density": 77,
   "source": "polygon",
   "incorporated": true,
   "timezone": "America/Chicago",
   "zips": "51467"
 },
 {
   "City-State": "Kalona-IA",
   "id": 1840008210,
   "city": "Kalona",
   "city_ascii": "Kalona",
   "state_id": "IA",
   "City-State": "Kalona-IA",
   "state_name": "Iowa",
   "county_fips": 19183,
   "county_name": "Washington",
   "lat": 41.4874,
   "lng": -91.7018,
   "population": 2534,
   "population_proper": 2534,
   "density": 454,
   "source": "polygon",
   "incorporated": true,
   "timezone": "America/Chicago",
   "zips": "52247"
 },
 {
   "City-State": "Fraser-IA",
   "id": 1840008119,
   "city": "Fraser",
   "city_ascii": "Fraser",
   "state_id": "IA",
   "City-State": "Fraser-IA",
   "state_name": "Iowa",
   "county_fips": 19015,
   "county_name": "Boone",
   "lat": 42.1251,
   "lng": -93.9734,
   "population": 104,
   "population_proper": 104,
   "density": 48,
   "source": "polygon",
   "incorporated": true,
   "timezone": "America/Chicago",
   "zips": "50223 50036"
 },
 {
   "City-State": "Dows-IA",
   "id": 1840008031,
   "city": "Dows",
   "city_ascii": "Dows",
   "state_id": "IA",
   "City-State": "Dows-IA",
   "state_name": "Iowa",
   "county_fips": 19197,
   "county_name": "Wright",
   "lat": 42.6593,
   "lng": -93.5012,
   "population": 511,
   "population_proper": 511,
   "density": 256,
   "source": "polygon",
   "incorporated": true,
   "timezone": "America/Chicago",
   "zips": "50071"
 },
 {
   "City-State": "North English-IA",
   "id": 1840008155,
   "city": "North English",
   "city_ascii": "North English",
   "state_id": "IA",
   "City-State": "North English-IA",
   "state_name": "Iowa",
   "county_fips": 19095,
   "county_name": "Iowa",
   "lat": 41.5164,
   "lng": -92.0777,
   "population": 1022,
   "population_proper": 1022,
   "density": 713,
   "source": "polygon",
   "incorporated": true,
   "timezone": "America/Chicago",
   "zips": "52316"
 },
 {
   "City-State": "Roseville-IA",
   "id": 1840024057,
   "city": "Roseville",
   "city_ascii": "Roseville",
   "state_id": "IA",
   "City-State": "Roseville-IA",
   "state_name": "Iowa",
   "county_fips": 19067,
   "county_name": "Floyd",
   "lat": 43.0253,
   "lng": -92.8082,
   "population": null,
   "population_proper": null,
   "density": 1.4,
   "source": "polygon",
   "incorporated": false,
   "timezone": "America/Chicago",
   "zips": "50468 50653"
 },
 {
   "City-State": "Birmingham-IA",
   "id": 1840007191,
   "city": "Birmingham",
   "city_ascii": "Birmingham",
   "state_id": "IA",
   "City-State": "Birmingham-IA",
   "state_name": "Iowa",
   "county_fips": 19177,
   "county_name": "Van Buren",
   "lat": 40.8777,
   "lng": -91.9472,
   "population": 429,
   "population_proper": 429,
   "density": 156,
   "source": "polygon",
   "incorporated": true,
   "timezone": "America/Chicago",
   "zips": "52535"
 },
 {
   "City-State": "Buckeye-IA",
   "id": 1840006959,
   "city": "Buckeye",
   "city_ascii": "Buckeye",
   "state_id": "IA",
   "City-State": "Buckeye-IA",
   "state_name": "Iowa",
   "county_fips": 19083,
   "county_name": "Hardin",
   "lat": 42.4195,
   "lng": -93.3758,
   "population": 108,
   "population_proper": 108,
   "density": 41,
   "source": "polygon",
   "incorporated": true,
   "timezone": "America/Chicago",
   "zips": "50006 50043"
 },
 {
   "City-State": "Killduff-IA",
   "id": 1840029641,
   "city": "Killduff",
   "city_ascii": "Killduff",
   "state_id": "IA",
   "City-State": "Killduff-IA",
   "state_name": "Iowa",
   "county_fips": 19099,
   "county_name": "Jasper",
   "lat": 41.608,
   "lng": -92.9046,
   "population": null,
   "population_proper": null,
   "density": 58.7,
   "source": "point",
   "incorporated": false,
   "timezone": "America/Chicago",
   "zips": "50208"
 },
 {
   "City-State": "Centerville-IA",
   "id": 1840001006,
   "city": "Centerville",
   "city_ascii": "Centerville",
   "state_id": "IA",
   "City-State": "Centerville-IA",
   "state_name": "Iowa",
   "county_fips": 19007,
   "county_name": "Appanoose",
   "lat": 40.7289,
   "lng": -92.8713,
   "population": 5202,
   "population_proper": 5345,
   "density": 423,
   "source": "polygon",
   "incorporated": true,
   "timezone": "America/Chicago",
   "zips": "52544"
 },
 {
   "City-State": "Nevada-IA",
   "id": 1840008125,
   "city": "Nevada",
   "city_ascii": "Nevada",
   "state_id": "IA",
   "City-State": "Nevada-IA",
   "state_name": "Iowa",
   "county_fips": 19169,
   "county_name": "Story",
   "lat": 42.0185,
   "lng": -93.4637,
   "population": 6735,
   "population_proper": 6805,
   "density": 463,
   "source": "polygon",
   "incorporated": true,
   "timezone": "America/Chicago",
   "zips": "50201"
 },
 {
   "City-State": "Sergeant Bluff-IA",
   "id": 1840009111,
   "city": "Sergeant Bluff",
   "city_ascii": "Sergeant Bluff",
   "state_id": "IA",
   "City-State": "Sergeant Bluff-IA",
   "state_name": "Iowa",
   "county_fips": 19193,
   "county_name": "Woodbury",
   "lat": 42.4004,
   "lng": -96.3555,
   "population": 4551,
   "population_proper": 4551,
   "density": 829,
   "source": "polygon",
   "incorporated": true,
   "timezone": "America/Chicago",
   "zips": "51054"
 },
 {
   "City-State": "Alleman-IA",
   "id": 1840007064,
   "city": "Alleman",
   "city_ascii": "Alleman",
   "state_id": "IA",
   "City-State": "Alleman-IA",
   "state_name": "Iowa",
   "county_fips": 19153,
   "county_name": "Polk",
   "lat": 41.8158,
   "lng": -93.6094,
   "population": 455,
   "population_proper": 455,
   "density": 65,
   "source": "polygon",
   "incorporated": true,
   "timezone": "America/Chicago",
   "zips": "50007 50244"
 },
 {
   "City-State": "Maynard-IA",
   "id": 1840008006,
   "city": "Maynard",
   "city_ascii": "Maynard",
   "state_id": "IA",
   "City-State": "Maynard-IA",
   "state_name": "Iowa",
   "county_fips": 19065,
   "county_name": "Fayette",
   "lat": 42.7739,
   "lng": -91.8775,
   "population": 497,
   "population_proper": 497,
   "density": 193,
   "source": "polygon",
   "incorporated": true,
   "timezone": "America/Chicago",
   "zips": "50655"
 },
 {
   "City-State": "Livermore-IA",
   "id": 1840009081,
   "city": "Livermore",
   "city_ascii": "Livermore",
   "state_id": "IA",
   "City-State": "Livermore-IA",
   "state_name": "Iowa",
   "county_fips": 19091,
   "county_name": "Humboldt",
   "lat": 42.868,
   "lng": -94.184,
   "population": 359,
   "population_proper": 359,
   "density": 197,
   "source": "polygon",
   "incorporated": true,
   "timezone": "America/Chicago",
   "zips": "50558"
 },
 {
   "City-State": "Viola-IA",
   "id": 1840029677,
   "city": "Viola",
   "city_ascii": "Viola",
   "state_id": "IA",
   "City-State": "Viola-IA",
   "state_name": "Iowa",
   "county_fips": 19113,
   "county_name": "Linn",
   "lat": 42.0919,
   "lng": -91.3873,
   "population": null,
   "population_proper": null,
   "density": 57.3,
   "source": "point",
   "incorporated": false,
   "timezone": "America/Chicago",
   "zips": "52336"
 },
 {
   "City-State": "Orange City-IA",
   "id": 1840009044,
   "city": "Orange City",
   "city_ascii": "Orange City",
   "state_id": "IA",
   "City-State": "Orange City-IA",
   "state_name": "Iowa",
   "county_fips": 19167,
   "county_name": "Sioux",
   "lat": 43.0019,
   "lng": -96.0565,
   "population": 7040,
   "population_proper": 6179,
   "density": 559,
   "source": "polygon",
   "incorporated": true,
   "timezone": "America/Chicago",
   "zips": "51041"
 },
 {
   "City-State": "Hopkinton-IA",
   "id": 1840006934,
   "city": "Hopkinton",
   "city_ascii": "Hopkinton",
   "state_id": "IA",
   "City-State": "Hopkinton-IA",
   "state_name": "Iowa",
   "county_fips": 19055,
   "county_name": "Delaware",
   "lat": 42.3431,
   "lng": -91.2487,
   "population": 610,
   "population_proper": 610,
   "density": 379,
   "source": "polygon",
   "incorporated": true,
   "timezone": "America/Chicago",
   "zips": "52237"
 },
 {
   "City-State": "Hiteman-IA",
   "id": 1840029630,
   "city": "Hiteman",
   "city_ascii": "Hiteman",
   "state_id": "IA",
   "City-State": "Hiteman-IA",
   "state_name": "Iowa",
   "county_fips": 19135,
   "county_name": "Monroe",
   "lat": 41.0589,
   "lng": -92.8921,
   "population": null,
   "population_proper": null,
   "density": 24.8,
   "source": "point",
   "incorporated": false,
   "timezone": "America/Chicago",
   "zips": "52531"
 },
 {
   "City-State": "Strawberry Point-IA",
   "id": 1840009066,
   "city": "Strawberry Point",
   "city_ascii": "Strawberry Point",
   "state_id": "IA",
   "City-State": "Strawberry Point-IA",
   "state_name": "Iowa",
   "county_fips": 19043,
   "county_name": "Clayton",
   "lat": 42.6803,
   "lng": -91.5349,
   "population": 1227,
   "population_proper": 1227,
   "density": 224,
   "source": "polygon",
   "incorporated": true,
   "timezone": "America/Chicago",
   "zips": "52076"
 },
 {
   "City-State": "Martinsburg-IA",
   "id": 1840008217,
   "city": "Martinsburg",
   "city_ascii": "Martinsburg",
   "state_id": "IA",
   "City-State": "Martinsburg-IA",
   "state_name": "Iowa",
   "county_fips": 19107,
   "county_name": "Keokuk",
   "lat": 41.1786,
   "lng": -92.2519,
   "population": 109,
   "population_proper": 109,
   "density": 112,
   "source": "polygon",
   "incorporated": true,
   "timezone": "America/Chicago",
   "zips": "52563 52568"
 },
 {
   "City-State": "Missouri Valley-IA",
   "id": 1840008151,
   "city": "Missouri Valley",
   "city_ascii": "Missouri Valley",
   "state_id": "IA",
   "City-State": "Missouri Valley-IA",
   "state_name": "Iowa",
   "county_fips": 19085,
   "county_name": "Harrison",
   "lat": 41.5574,
   "lng": -95.9028,
   "population": 2644,
   "population_proper": 2662,
   "density": 318,
   "source": "polygon",
   "incorporated": true,
   "timezone": "America/Chicago",
   "zips": "51555"
 },
 {
   "City-State": "Pioneer-IA",
   "id": 1840009083,
   "city": "Pioneer",
   "city_ascii": "Pioneer",
   "state_id": "IA",
   "City-State": "Pioneer-IA",
   "state_name": "Iowa",
   "county_fips": 19091,
   "county_name": "Humboldt",
   "lat": 42.6535,
   "lng": -94.3909,
   "population": 22,
   "population_proper": 22,
   "density": 133,
   "source": "polygon",
   "incorporated": true,
   "timezone": "America/Chicago",
   "zips": "50541"
 },