[
 {
   "City-State": "Porthill-ID",
   "id": 1840027044,
   "city": "Porthill",
   "city_ascii": "Porthill",
   "state_id": "ID",
   "City-State": "Porthill-ID",
   "state_name": "Idaho",
   "county_fips": 16021,
   "county_name": "Boundary",
   "lat": 48.9983,
   "lng": -116.498,
   "population": null,
   "population_proper": null,
   "density": 15.2,
   "source": "point",
   "incorporated": false,
   "timezone": "America/Los_Angeles",
   "zips": "83805"
 },
 {
   "City-State": "Nampa-ID",
   "id": 1840020041,
   "city": "Nampa",
   "city_ascii": "Nampa",
   "state_id": "ID",
   "City-State": "Nampa-ID",
   "state_name": "Idaho",
   "county_fips": 16027,
   "county_name": "Canyon",
   "lat": 43.5833,
   "lng": -116.5641,
   "population": 169761,
   "population_proper": 91382,
   "density": 1136,
   "source": "polygon",
   "incorporated": true,
   "timezone": "America/Boise",
   "zips": "83651 83687 83686"
 },
 {
   "City-State": "Clover-ID",
   "id": 1840027172,
   "city": "Clover",
   "city_ascii": "Clover",
   "state_id": "ID",
   "City-State": "Clover-ID",
   "state_name": "Idaho",
   "county_fips": 16083,
   "county_name": "Twin Falls",
   "lat": 42.5141,
   "lng": -114.6875,
   "population": null,
   "population_proper": null,
   "density": 26.4,
   "source": "point",
   "incorporated": false,
   "timezone": "America/Boise",
   "zips": "83316"
 },
 {
   "City-State": "Saint Maries-ID",
   "id": 1840021126,
   "city": "Saint Maries",
   "city_ascii": "Saint Maries",
   "state_id": "ID",
   "City-State": "Saint Maries-ID",
   "state_name": "Idaho",
   "county_fips": 16009,
   "county_name": "Benewah",
   "lat": 47.3146,
   "lng": -116.5714,
   "population": 2636,
   "population_proper": 2428,
   "density": 850,
   "source": "polygon",
   "incorporated": true,
   "timezone": "America/Los_Angeles",
   "zips": "83861"
 },
 {
   "City-State": "Kellogg-ID",
   "id": 1840018392,
   "city": "Kellogg",
   "city_ascii": "Kellogg",
   "state_id": "ID",
   "City-State": "Kellogg-ID",
   "state_name": "Idaho",
   "county_fips": 16079,
   "county_name": "Shoshone",
   "lat": 47.5374,
   "lng": -116.143,
   "population": 3033,
   "population_proper": 2081,
   "density": 203,
   "source": "polygon",
   "incorporated": true,
   "timezone": "America/Los_Angeles",
   "zips": "83837"
 },
 {
   "City-State": "Berenice-ID",
   "id": 1840027116,
   "city": "Berenice",
   "city_ascii": "Berenice",
   "state_id": "ID",
   "City-State": "Berenice-ID",
   "state_name": "Idaho",
   "county_fips": 16023,
   "county_name": "Butte",
   "lat": 43.8277,
   "lng": -112.9742,
   "population": null,
   "population_proper": null,
   "density": 3.9,
   "source": "point",
   "incorporated": false,
   "timezone": "America/Boise",
   "zips": "83244"
 },
 {
   "City-State": "Atlanta-ID",
   "id": 1840027118,
   "city": "Atlanta",
   "city_ascii": "Atlanta",
   "state_id": "ID",
   "City-State": "Atlanta-ID",
   "state_name": "Idaho",
   "county_fips": 16039,
   "county_name": "Elmore",
   "lat": 43.8016,
   "lng": -115.1267,
   "population": null,
   "population_proper": null,
   "density": 26.1,
   "source": "point",
   "incorporated": false,
   "timezone": "America/Boise",
   "zips": "83601"
 },
 {
   "City-State": "Nordman-ID",
   "id": 1840027053,
   "city": "Nordman",
   "city_ascii": "Nordman",
   "state_id": "ID",
   "City-State": "Nordman-ID",
   "state_name": "Idaho",
   "county_fips": 16017,
   "county_name": "Bonner",
   "lat": 48.6338,
   "lng": -116.9458,
   "population": null,
   "population_proper": null,
   "density": 2.2,
   "source": "point",
   "incorporated": false,
   "timezone": "America/Los_Angeles",
   "zips": "83848"
 },
 {
   "City-State": "Pocatello-ID",
   "id": 1840013376,
   "city": "Pocatello",
   "city_ascii": "Pocatello",
   "state_id": "ID",
   "City-State": "Pocatello-ID",
   "state_name": "Idaho",
   "county_fips": 16005,
   "county_name": "Bannock",
   "lat": 42.8716,
   "lng": -112.466,
   "population": 70445,
   "population_proper": 54746,
   "density": 650,
   "source": "polygon",
   "incorporated": true,
   "timezone": "America/Boise",
   "zips": "83204 83201 83209 83205 83206"
 },
 {
   "City-State": "Lemhi-ID",
   "id": 1840027087,
   "city": "Lemhi",
   "city_ascii": "Lemhi",
   "state_id": "ID",
   "City-State": "Lemhi-ID",
   "state_name": "Idaho",
   "county_fips": 16059,
   "county_name": "Lemhi",
   "lat": 44.8516,
   "lng": -113.6198,
   "population": null,
   "population_proper": null,
   "density": 4.4,
   "source": "point",
   "incorporated": false,
   "timezone": "America/Boise",
   "zips": "83465"
 },
 {
   "City-State": "Chilly-ID",
   "id": 1840027100,
   "city": "Chilly",
   "city_ascii": "Chilly",
   "state_id": "ID",
   "City-State": "Chilly-ID",
   "state_name": "Idaho",
   "county_fips": 16037,
   "county_name": "Custer",
   "lat": 44.0777,
   "lng": -113.8789,
   "population": null,
   "population_proper": null,
   "density": 2.2,
   "source": "point",
   "incorporated": false,
   "timezone": "America/Boise",
   "zips": "83251"
 },
 {
   "City-State": "Post Falls-ID",
   "id": 1840019811,
   "city": "Post Falls",
   "city_ascii": "Post Falls",
   "state_id": "ID",
   "City-State": "Post Falls-ID",
   "state_name": "Idaho",
   "county_fips": 16055,
   "county_name": "Kootenai",
   "lat": 47.7202,
   "lng": -116.9396,
   "population": 31865,
   "population_proper": 31865,
   "density": 857,
   "source": "polygon",
   "incorporated": true,
   "timezone": "America/Los_Angeles",
   "zips": "83854 83877"
 },
 {
   "City-State": "Parker-ID",
   "id": 1840019996,
   "city": "Parker",
   "city_ascii": "Parker",
   "state_id": "ID",
   "City-State": "Parker-ID",
   "state_name": "Idaho",
   "county_fips": 16043,
   "county_name": "Fremont",
   "lat": 43.9582,
   "lng": -111.7584,
   "population": 302,
   "population_proper": 302,
   "density": 330,
   "source": "polygon",
   "incorporated": true,
   "timezone": "America/Boise",
   "zips": "83445 83438"
 },
 {
   "City-State": "Sugar City-ID",
   "id": 1840021277,
   "city": "Sugar City",
   "city_ascii": "Sugar City",
   "state_id": "ID",
   "City-State": "Sugar City-ID",
   "state_name": "Idaho",
   "county_fips": 16065,
   "county_name": "Madison",
   "lat": 43.8757,
   "lng": -111.7518,
   "population": 1361,
   "population_proper": 1361,
   "density": 307,
   "source": "polygon",
   "incorporated": true,
   "timezone": "America/Boise",
   "zips": "83440 83448"
 },
 {
   "City-State": "Murtaugh-ID",
   "id": 1840020083,
   "city": "Murtaugh",
   "city_ascii": "Murtaugh",
   "state_id": "ID",
   "City-State": "Murtaugh-ID",
   "state_name": "Idaho",
   "county_fips": 16083,
   "county_name": "Twin Falls",
   "lat": 42.492,
   "lng": -114.1615,
   "population": 141,
   "population_proper": 141,
   "density": 470,
   "source": "polygon",
   "incorporated": true,
   "timezone": "America/Boise",
   "zips": "83344"
 },
 {
   "City-State": "Challis-ID",
   "id": 1840018599,
   "city": "Challis",
   "city_ascii": "Challis",
   "state_id": "ID",
   "City-State": "Challis-ID",
   "state_name": "Idaho",
   "county_fips": 16037,
   "county_name": "Custer",
   "lat": 44.5053,
   "lng": -114.2278,
   "population": 1041,
   "population_proper": 1041,
   "density": 218,
   "source": "polygon",
   "incorporated": true,
   "timezone": "America/Boise",
   "zips": "83226"
 },
 {
   "City-State": "Lakeview-ID",
   "id": 1840027051,
   "city": "Lakeview",
   "city_ascii": "Lakeview",
   "state_id": "ID",
   "City-State": "Lakeview-ID",
   "state_name": "Idaho",
   "county_fips": 16017,
   "county_name": "Bonner",
   "lat": 47.9702,
   "lng": -116.4466,
   "population": null,
   "population_proper": null,
   "density": 12.2,
   "source": "point",
   "incorporated": false,
   "timezone": "America/Los_Angeles",
   "zips": "83803"
 },
 {
   "City-State": "Notus-ID",
   "id": 1840020042,
   "city": "Notus",
   "city_ascii": "Notus",
   "state_id": "ID",
   "City-State": "Notus-ID",
   "state_name": "Idaho",
   "county_fips": 16027,
   "county_name": "Canyon",
   "lat": 43.7267,
   "lng": -116.8002,
   "population": 619,
   "population_proper": 619,
   "density": 634,
   "source": "polygon",
   "incorporated": true,
   "timezone": "America/Boise",
   "zips": "83656 83607"
 },
 {
   "City-State": "Winchester-ID",
   "id": 1840021179,
   "city": "Winchester",
   "city_ascii": "Winchester",
   "state_id": "ID",
   "City-State": "Winchester-ID",
   "state_name": "Idaho",
   "county_fips": 16061,
   "county_name": "Lewis",
   "lat": 46.2408,
   "lng": -116.624,
   "population": 347,
   "population_proper": 347,
   "density": 749,
   "source": "polygon",
   "incorporated": true,
   "timezone": "America/Los_Angeles",
   "zips": "83555"
 },
 {
   "City-State": "Malad City-ID",
   "id": 1840020093,
   "city": "Malad City",
   "city_ascii": "Malad City",
   "state_id": "ID",
   "City-State": "Malad City-ID",
   "state_name": "Idaho",
   "county_fips": 16071,
   "county_name": "Oneida",
   "lat": 42.1903,
   "lng": -112.2499,
   "population": 2072,
   "population_proper": 2072,
   "density": 482,
   "source": "polygon",
   "incorporated": true,
   "timezone": "America/Boise",
   "zips": "83252"
 },
 {
   "City-State": "Riggins-ID",
   "id": 1840019894,
   "city": "Riggins",
   "city_ascii": "Riggins",
   "state_id": "ID",
   "City-State": "Riggins-ID",
   "state_name": "Idaho",
   "county_fips": 16049,
   "county_name": "Idaho",
   "lat": 45.4192,
   "lng": -116.3191,
   "population": 406,
   "population_proper": 406,
   "density": 365,
   "source": "polygon",
   "incorporated": true,
   "timezone": "America/Boise",
   "zips": "83549"
 },
 {
   "City-State": "Avery-ID",
   "id": 1840027054,
   "city": "Avery",
   "city_ascii": "Avery",
   "state_id": "ID",
   "City-State": "Avery-ID",
   "state_name": "Idaho",
   "county_fips": 16079,
   "county_name": "Shoshone",
   "lat": 47.2505,
   "lng": -115.8052,
   "population": null,
   "population_proper": null,
   "density": 13,
   "source": "point",
   "incorporated": false,
   "timezone": "America/Los_Angeles",
   "zips": "83802"
 },
 {
   "City-State": "Hailey-ID",
   "id": 1840020028,
   "city": "Hailey",
   "city_ascii": "Hailey",
   "state_id": "ID",
   "City-State": "Hailey-ID",
   "state_name": "Idaho",
   "county_fips": 16013,
   "county_name": "Blaine",
   "lat": 43.5132,
   "lng": -114.301,
   "population": 10791,
   "population_proper": 8218,
   "density": 891,
   "source": "polygon",
   "incorporated": true,
   "timezone": "America/Boise",
   "zips": "83333"
 },
 {
   "City-State": "Boise-ID",
   "id": 1840027142,
   "city": "Boise",
   "city_ascii": "Boise",
   "state_id": "ID",
   "City-State": "Boise-ID",
   "state_name": "Idaho",
   "county_fips": 16001,
   "county_name": "Ada",
   "lat": 43.5991,
   "lng": -116.2306,
   "population": 379410,
   "population_proper": 223154,
   "density": 1070,
   "source": "polygon",
   "incorporated": true,
   "timezone": "America/Boise",
   "zips": "83703 83702 83709 83706 83705 83704 83716 83712 83713 83701 83708 83715 83717 83720 83722 83724 83725 83728 83729 83735 83756 83799"
 },
 {
   "City-State": "Rockland-ID",
   "id": 1840020069,
   "city": "Rockland",
   "city_ascii": "Rockland",
   "state_id": "ID",
   "City-State": "Rockland-ID",
   "state_name": "Idaho",
   "county_fips": 16077,
   "county_name": "Power",
   "lat": 42.5733,
   "lng": -112.8745,
   "population": 288,
   "population_proper": 288,
   "density": 373,
   "source": "polygon",
   "incorporated": true,
   "timezone": "America/Boise",
   "zips": "83271"
 },
 {
   "City-State": "Greer-ID",
   "id": 1840027066,
   "city": "Greer",
   "city_ascii": "Greer",
   "state_id": "ID",
   "City-State": "Greer-ID",
   "state_name": "Idaho",
   "county_fips": 16035,
   "county_name": "Clearwater",
   "lat": 46.3899,
   "lng": -116.1751,
   "population": null,
   "population_proper": null,
   "density": 10.1,
   "source": "point",
   "incorporated": false,
   "timezone": "America/Los_Angeles",
   "zips": "83544"
 },
 {
   "City-State": "Freedom-ID",
   "id": 1840026171,
   "city": "Freedom",
   "city_ascii": "Freedom",
   "state_id": "ID",
   "City-State": "Freedom-ID",
   "state_name": "Idaho",
   "county_fips": 16029,
   "county_name": "Caribou",
   "lat": 42.9854,
   "lng": -111.0296,
   "population": null,
   "population_proper": null,
   "density": 29.3,
   "source": "polygon",
   "incorporated": false,
   "timezone": "America/Denver",
   "zips": "83120"
 },
 {
   "City-State": "Thama-ID",
   "id": 1840027052,
   "city": "Thama",
   "city_ascii": "Thama",
   "state_id": "ID",
   "City-State": "Thama-ID",
   "state_name": "Idaho",
   "county_fips": 16017,
   "county_name": "Bonner",
   "lat": 48.1532,
   "lng": -116.8477,
   "population": null,
   "population_proper": null,
   "density": 15.8,
   "source": "point",
   "incorporated": false,
   "timezone": "America/Los_Angeles",
   "zips": "83856"
 },
 {
   "City-State": "Craigmont-ID",
   "id": 1840018498,
   "city": "Craigmont",
   "city_ascii": "Craigmont",
   "state_id": "ID",
   "City-State": "Craigmont-ID",
   "state_name": "Idaho",
   "county_fips": 16061,
   "county_name": "Lewis",
   "lat": 46.2418,
   "lng": -116.472,
   "population": 499,
   "population_proper": 499,
   "density": 253,
   "source": "polygon",
   "incorporated": true,
   "timezone": "America/Los_Angeles",
   "zips": "83523"
 },
 {
   "City-State": "Irwin-ID",
   "id": 1840018646,
   "city": "Irwin",
   "city_ascii": "Irwin",
   "state_id": "ID",
   "City-State": "Irwin-ID",
   "state_name": "Idaho",
   "county_fips": 16019,
   "county_name": "Bonneville",
   "lat": 43.3962,
   "lng": -111.2714,
   "population": 228,
   "population_proper": 228,
   "density": 35,
   "source": "polygon",
   "incorporated": true,
   "timezone": "America/Boise",
   "zips": "83428"
 },
 {
   "City-State": "Ucon-ID",
   "id": 1840021281,
   "city": "Ucon",
   "city_ascii": "Ucon",
   "state_id": "ID",
   "City-State": "Ucon-ID",
   "state_name": "Idaho",
   "county_fips": 16019,
   "county_name": "Bonneville",
   "lat": 43.5936,
   "lng": -111.9592,
   "population": 1136,
   "population_proper": 1136,
   "density": 558,
   "source": "polygon",
   "incorporated": true,
   "timezone": "America/Boise",
   "zips": "83454 83401"
 },
 {
   "City-State": "Spencer-ID",
   "id": 1840021259,
   "city": "Spencer",
   "city_ascii": "Spencer",
   "state_id": "ID",
   "City-State": "Spencer-ID",
   "state_name": "Idaho",
   "county_fips": 16033,
   "county_name": "Clark",
   "lat": 44.3784,
   "lng": -112.1903,
   "population": 32,
   "population_proper": 32,
   "density": 11,
   "source": "polygon",
   "incorporated": true,
   "timezone": "America/Boise",
   "zips": "83446"
 },
 {
   "City-State": "Rockford Bay-ID",
   "id": 1840023789,
   "city": "Rockford Bay",
   "city_ascii": "Rockford Bay",
   "state_id": "ID",
   "City-State": "Rockford Bay-ID",
   "state_name": "Idaho",
   "county_fips": 16055,
   "county_name": "Kootenai",
   "lat": 47.5086,
   "lng": -116.8866,
   "population": null,
   "population_proper": null,
   "density": 99.3,
   "source": "polygon",
   "incorporated": false,
   "timezone": "America/Los_Angeles",
   "zips": "83814"
 },
 {
   "City-State": "Blanchard-ID",
   "id": 1840023760,
   "city": "Blanchard",
   "city_ascii": "Blanchard",
   "state_id": "ID",
   "City-State": "Blanchard-ID",
   "state_name": "Idaho",
   "county_fips": 16017,
   "county_name": "Bonner",
   "lat": 48.0152,
   "lng": -116.9928,
   "population": null,
   "population_proper": null,
   "density": 71,
   "source": "polygon",
   "incorporated": false,
   "timezone": "America/Los_Angeles",
   "zips": "83804"
 },
 {
   "City-State": "Greenleaf-ID",
   "id": 1840020038,
   "city": "Greenleaf",
   "city_ascii": "Greenleaf",
   "state_id": "ID",
   "City-State": "Greenleaf-ID",
   "state_name": "Idaho",
   "county_fips": 16027,
   "county_name": "Canyon",
   "lat": 43.6746,
   "lng": -116.8211,
   "population": 874,
   "population_proper": 874,
   "density": 400,
   "source": "polygon",
   "incorporated": true,
   "timezone": "America/Boise",
   "zips": "83626"
 },
 {
   "City-State": "Wardner-ID",
   "id": 1840021091,
   "city": "Wardner",
   "city_ascii": "Wardner",
   "state_id": "ID",
   "City-State": "Wardner-ID",
   "state_name": "Idaho",
   "county_fips": 16079,
   "county_name": "Shoshone",
   "lat": 47.5192,
   "lng": -116.1353,
   "population": 175,
   "population_proper": 175,
   "density": 78,
   "source": "polygon",
   "incorporated": true,
   "timezone": "America/Los_Angeles",
   "zips": "83837"
 },
 {
   "City-State": "Victor-ID",
   "id": 1840021273,
   "city": "Victor",
   "city_ascii": "Victor",
   "state_id": "ID",
   "City-State": "Victor-ID",
   "state_name": "Idaho",
   "county_fips": 16081,
   "county_name": "Teton",
   "lat": 43.6018,
   "lng": -111.1111,
   "population": 2055,
   "population_proper": 2055,
   "density": 292,
   "source": "polygon",
   "incorporated": true,
   "timezone": "America/Boise",
   "zips": "83455"
 },
 {
   "City-State": "Copeland-ID",
   "id": 1840027042,
   "city": "Copeland",
   "city_ascii": "Copeland",
   "state_id": "ID",
   "City-State": "Copeland-ID",
   "state_name": "Idaho",
   "county_fips": 16021,
   "county_name": "Boundary",
   "lat": 48.9022,
   "lng": -116.3888,
   "population": null,
   "population_proper": null,
   "density": 11.1,
   "source": "point",
   "incorporated": false,
   "timezone": "America/Los_Angeles",
   "zips": "83805"
 },
 {
   "City-State": "Thornton-ID",
   "id": 1840027135,
   "city": "Thornton",
   "city_ascii": "Thornton",
   "state_id": "ID",
   "City-State": "Thornton-ID",
   "state_name": "Idaho",
   "county_fips": 16065,
   "county_name": "Madison",
   "lat": 43.7582,
   "lng": -111.8452,
   "population": null,
   "population_proper": null,
   "density": 230.9,
   "source": "point",
   "incorporated": false,
   "timezone": "America/Boise",
   "zips": "83440"
 },
 {
   "City-State": "Ellis-ID",
   "id": 1840027081,
   "city": "Ellis",
   "city_ascii": "Ellis",
   "state_id": "ID",
   "City-State": "Ellis-ID",
   "state_name": "Idaho",
   "county_fips": 16037,
   "county_name": "Custer",
   "lat": 44.6919,
   "lng": -114.0484,
   "population": null,
   "population_proper": null,
   "density": 3.7,
   "source": "point",
   "incorporated": false,
   "timezone": "America/Boise",
   "zips": "83235"
 },
 {
   "City-State": "Basin-ID",
   "id": 1840027182,
   "city": "Basin",
   "city_ascii": "Basin",
   "state_id": "ID",
   "City-State": "Basin-ID",
   "state_name": "Idaho",
   "county_fips": 16031,
   "county_name": "Cassia",
   "lat": 42.2455,
   "lng": -113.7845,
   "population": null,
   "population_proper": null,
   "density": 4.9,
   "source": "point",
   "incorporated": false,
   "timezone": "America/Boise",
   "zips": "83346"
 },
 {
   "City-State": "Crouch-ID",
   "id": 1840018621,
   "city": "Crouch",
   "city_ascii": "Crouch",
   "state_id": "ID",
   "City-State": "Crouch-ID",
   "state_name": "Idaho",
   "county_fips": 16015,
   "county_name": "Boise",
   "lat": 44.1171,
   "lng": -115.973,
   "population": 163,
   "population_proper": 163,
   "density": 151,
   "source": "polygon",
   "incorporated": true,
   "timezone": "America/Boise",
   "zips": "83622"
 },
 {
   "City-State": "Felt-ID",
   "id": 1840027132,
   "city": "Felt",
   "city_ascii": "Felt",
   "state_id": "ID",
   "City-State": "Felt-ID",
   "state_name": "Idaho",
   "county_fips": 16081,
   "county_name": "Teton",
   "lat": 43.873,
   "lng": -111.1847,
   "population": null,
   "population_proper": null,
   "density": 14.4,
   "source": "point",
   "incorporated": false,
   "timezone": "America/Boise",
   "zips": "83424"
 },
 {
   "City-State": "Deary-ID",
   "id": 1840018463,
   "city": "Deary",
   "city_ascii": "Deary",
   "state_id": "ID",
   "City-State": "Deary-ID",
   "state_name": "Idaho",
   "county_fips": 16057,
   "county_name": "Latah",
   "lat": 46.8002,
   "lng": -116.5571,
   "population": 511,
   "population_proper": 511,
   "density": 302,
   "source": "polygon",
   "incorporated": true,
   "timezone": "America/Los_Angeles",
   "zips": "83823"
 },
 {
   "City-State": "State Line Village-ID",
   "id": 1840029705,
   "city": "State Line Village",
   "city_ascii": "State Line Village",
   "state_id": "ID",
   "City-State": "State Line Village-ID",
   "state_name": "Idaho",
   "county_fips": 16055,
   "county_name": "Kootenai",
   "lat": 47.7043,
   "lng": -117.0374,
   "population": null,
   "population_proper": null,
   "density": 86.8,
   "source": "point",
   "incorporated": true,
   "timezone": "America/Los_Angeles",
   "zips": "83854"
 },
 {
   "City-State": "Edmonds-ID",
   "id": 1840027133,
   "city": "Edmonds",
   "city_ascii": "Edmonds",
   "state_id": "ID",
   "City-State": "Edmonds-ID",
   "state_name": "Idaho",
   "county_fips": 16065,
   "county_name": "Madison",
   "lat": 43.913,
   "lng": -111.8808,
   "population": null,
   "population_proper": null,
   "density": 20.6,
   "source": "point",
   "incorporated": false,
   "timezone": "America/Boise",
   "zips": "83440"
 },
 {
   "City-State": "Hill City-ID",
   "id": 1840027138,
   "city": "Hill City",
   "city_ascii": "Hill City",
   "state_id": "ID",
   "City-State": "Hill City-ID",
   "state_name": "Idaho",
   "county_fips": 16025,
   "county_name": "Camas",
   "lat": 43.3005,
   "lng": -115.0512,
   "population": null,
   "population_proper": null,
   "density": 1.9,
   "source": "point",
   "incorporated": false,
   "timezone": "America/Boise",
   "zips": "83337"
 },
 {
   "City-State": "Swan Valley-ID",
   "id": 1840021280,
   "city": "Swan Valley",
   "city_ascii": "Swan Valley",
   "state_id": "ID",
   "City-State": "Swan Valley-ID",
   "state_name": "Idaho",
   "county_fips": 16019,
   "county_name": "Bonneville",
   "lat": 43.4445,
   "lng": -111.3288,
   "population": 221,
   "population_proper": 221,
   "density": 7,
   "source": "polygon",
   "incorporated": true,
   "timezone": "America/Boise",
   "zips": "83449 83428"
 },
 {
   "City-State": "Priest River-ID",
   "id": 1840019772,
   "city": "Priest River",
   "city_ascii": "Priest River",
   "state_id": "ID",
   "City-State": "Priest River-ID",
   "state_name": "Idaho",
   "county_fips": 16017,
   "county_name": "Bonner",
   "lat": 48.1783,
   "lng": -116.8844,
   "population": 1773,
   "population_proper": 1773,
   "density": 190,
   "source": "polygon",
   "incorporated": true,
   "timezone": "America/Los_Angeles",
   "zips": "83856"
 },
 {
   "City-State": "Menan-ID",
   "id": 1840020023,
   "city": "Menan",
   "city_ascii": "Menan",
   "state_id": "ID",
   "City-State": "Menan-ID",
   "state_name": "Idaho",
   "county_fips": 16051,
   "county_name": "Jefferson",
   "lat": 43.7217,
   "lng": -111.9925,
   "population": 781,
   "population_proper": 781,
   "density": 289,
   "source": "polygon",
   "incorporated": true,
   "timezone": "America/Boise",
   "zips": "83434"
 },
 {
   "City-State": "Albion-ID",
   "id": 1840018682,
   "city": "Albion",
   "city_ascii": "Albion",
   "state_id": "ID",
   "City-State": "Albion-ID",
   "state_name": "Idaho",
   "county_fips": 16031,
   "county_name": "Cassia",
   "lat": 42.4095,
   "lng": -113.58,
   "population": 269,
   "population_proper": 269,
   "density": 220,
   "source": "polygon",
   "incorporated": true,
   "timezone": "America/Boise",
   "zips": "83311"
 },
 {
   "City-State": "Kootenai-ID",
   "id": 1840019773,
   "city": "Kootenai",
   "city_ascii": "Kootenai",
   "state_id": "ID",
   "City-State": "Kootenai-ID",
   "state_name": "Idaho",
   "county_fips": 16017,
   "county_name": "Bonner",
   "lat": 48.3121,
   "lng": -116.5169,
   "population": 806,
   "population_proper": 806,
   "density": 529,
   "source": "polygon",
   "incorporated": true,
   "timezone": "America/Los_Angeles",
   "zips": "83864 83840"
 },
 {
   "City-State": "Clark Fork-ID",
   "id": 1840018363,
   "city": "Clark Fork",
   "city_ascii": "Clark Fork",
   "state_id": "ID",
   "City-State": "Clark Fork-ID",
   "state_name": "Idaho",
   "county_fips": 16017,
   "county_name": "Bonner",
   "lat": 48.1472,
   "lng": -116.1769,
   "population": 549,
   "population_proper": 549,
   "density": 230,
   "source": "polygon",
   "incorporated": true,
   "timezone": "America/Los_Angeles",
   "zips": "83811"
 },
 {
   "City-State": "Rose Lake-ID",
   "id": 1840029707,
   "city": "Rose Lake",
   "city_ascii": "Rose Lake",
   "state_id": "ID",
   "City-State": "Rose Lake-ID",
   "state_name": "Idaho",
   "county_fips": 16055,
   "county_name": "Kootenai",
   "lat": 47.5388,
   "lng": -116.4718,
   "population": null,
   "population_proper": null,
   "density": 29.3,
   "source": "point",
   "incorporated": false,
   "timezone": "America/Los_Angeles",
   "zips": "83810"
 },
 {
   "City-State": "Lund-ID",
   "id": 1840027163,
   "city": "Lund",
   "city_ascii": "Lund",
   "state_id": "ID",
   "City-State": "Lund-ID",
   "state_name": "Idaho",
   "county_fips": 16029,
   "county_name": "Caribou",
   "lat": 42.6427,
   "lng": -111.8886,
   "population": null,
   "population_proper": null,
   "density": 9.5,
   "source": "point",
   "incorporated": false,
   "timezone": "America/Boise",
   "zips": "83217"
 },
 {
   "City-State": "Sharon-ID",
   "id": 1840027190,
   "city": "Sharon",
   "city_ascii": "Sharon",
   "state_id": "ID",
   "City-State": "Sharon-ID",
   "state_name": "Idaho",
   "county_fips": 16007,
   "county_name": "Bear Lake",
   "lat": 42.3505,
   "lng": -111.4791,
   "population": null,
   "population_proper": null,
   "density": 2.9,
   "source": "point",
   "incorporated": false,
   "timezone": "America/Boise",
   "zips": "83254"
 },
 {
   "City-State": "Samaria-ID",
   "id": 1840027195,
   "city": "Samaria",
   "city_ascii": "Samaria",
   "state_id": "ID",
   "City-State": "Samaria-ID",
   "state_name": "Idaho",
   "county_fips": 16071,
   "county_name": "Oneida",
   "lat": 42.1177,
   "lng": -112.3369,
   "population": null,
   "population_proper": null,
   "density": 36.7,
   "source": "point",
   "incorporated": false,
   "timezone": "America/Boise",
   "zips": "83252"
 },
 {
   "City-State": "Smelterville-ID",
   "id": 1840021089,
   "city": "Smelterville",
   "city_ascii": "Smelterville",
   "state_id": "ID",
   "City-State": "Smelterville-ID",
   "state_name": "Idaho",
   "county_fips": 16079,
   "county_name": "Shoshone",
   "lat": 47.5425,
   "lng": -116.1776,
   "population": 598,
   "population_proper": 598,
   "density": 745,
   "source": "polygon",
   "incorporated": true,
   "timezone": "America/Los_Angeles",
   "zips": "83868"
 },
 {
   "City-State": "Gannett-ID",
   "id": 1840027130,
   "city": "Gannett",
   "city_ascii": "Gannett",
   "state_id": "ID",
   "City-State": "Gannett-ID",
   "state_name": "Idaho",
   "county_fips": 16013,
   "county_name": "Blaine",
   "lat": 43.3599,
   "lng": -114.1759,
   "population": null,
   "population_proper": null,
   "density": 118.4,
   "source": "point",
   "incorporated": false,
   "timezone": "America/Boise",
   "zips": "83313"
 },
 {
   "City-State": "Eagle-ID",
   "id": 1840018642,
   "city": "Eagle",
   "city_ascii": "Eagle",
   "state_id": "ID",
   "City-State": "Eagle-ID",
   "state_name": "Idaho",
   "county_fips": 16001,
   "county_name": "Ada",
   "lat": 43.7231,
   "lng": -116.3856,
   "population": 24785,
   "population_proper": 24785,
   "density": 324,
   "source": "polygon",
   "incorporated": true,
   "timezone": "America/Boise",
   "zips": "83616"
 },
 {
   "City-State": "Raymond-ID",
   "id": 1840027189,
   "city": "Raymond",
   "city_ascii": "Raymond",
   "state_id": "ID",
   "City-State": "Raymond-ID",
   "state_name": "Idaho",
   "county_fips": 16007,
   "county_name": "Bear Lake",
   "lat": 42.2747,
   "lng": -111.0588,
   "population": null,
   "population_proper": null,
   "density": 12.7,
   "source": "point",
   "incorporated": false,
   "timezone": "America/Boise",
   "zips": "83238"
 },
 {
   "City-State": "Rexburg-ID",
   "id": 1840020037,
   "city": "Rexburg",
   "city_ascii": "Rexburg",
   "state_id": "ID",
   "City-State": "Rexburg-ID",
   "state_name": "Idaho",
   "county_fips": 16065,
   "county_name": "Madison",
   "lat": 43.8221,
   "lng": -111.7926,
   "population": 29738,
   "population_proper": 28222,
   "density": 1124,
   "source": "polygon",
   "incorporated": true,
   "timezone": "America/Boise",
   "zips": "83460 83440"
 },
 {
   "City-State": "Clayton-ID",
   "id": 1840018600,
   "city": "Clayton",
   "city_ascii": "Clayton",
   "state_id": "ID",
   "City-State": "Clayton-ID",
   "state_name": "Idaho",
   "county_fips": 16037,
   "county_name": "Custer",
   "lat": 44.2591,
   "lng": -114.4001,
   "population": 7,
   "population_proper": 7,
   "density": 227,
   "source": "polygon",
   "incorporated": true,
   "timezone": "America/Boise",
   "zips": "83227"
 },
 {
   "City-State": "Almo-ID",
   "id": 1840027175,
   "city": "Almo",
   "city_ascii": "Almo",
   "state_id": "ID",
   "City-State": "Almo-ID",
   "state_name": "Idaho",
   "county_fips": 16031,
   "county_name": "Cassia",
   "lat": 42.1002,
   "lng": -113.6336,
   "population": null,
   "population_proper": null,
   "density": 6.5,
   "source": "point",
   "incorporated": false,
   "timezone": "America/Boise",
   "zips": "83312"
 },
 {
   "City-State": "Tetonia-ID",
   "id": 1840021272,
   "city": "Tetonia",
   "city_ascii": "Tetonia",
   "state_id": "ID",
   "City-State": "Tetonia-ID",
   "state_name": "Idaho",
   "county_fips": 16081,
   "county_name": "Teton",
   "lat": 43.8146,
   "lng": -111.1586,
   "population": 280,
   "population_proper": 280,
   "density": 190,
   "source": "polygon",
   "incorporated": true,
   "timezone": "America/Boise",
   "zips": "83452"
 },
 {
   "City-State": "Hamer-ID",
   "id": 1840020018,
   "city": "Hamer",
   "city_ascii": "Hamer",
   "state_id": "ID",
   "City-State": "Hamer-ID",
   "state_name": "Idaho",
   "county_fips": 16051,
   "county_name": "Jefferson",
   "lat": 43.9217,
   "lng": -112.2032,
   "population": 91,
   "population_proper": 91,
   "density": 173,
   "source": "polygon",
   "incorporated": true,
   "timezone": "America/Boise",
   "zips": "83425"
 },
 {
   "City-State": "Kendrick-ID",
   "id": 1840018462,
   "city": "Kendrick",
   "city_ascii": "Kendrick",
   "state_id": "ID",
   "City-State": "Kendrick-ID",
   "state_name": "Idaho",
   "county_fips": 16057,
   "county_name": "Latah",
   "lat": 46.6149,
   "lng": -116.6535,
   "population": 299,
   "population_proper": 299,
   "density": 298,
   "source": "polygon",
   "incorporated": true,
   "timezone": "America/Los_Angeles",
   "zips": "83537"
 },
 {
   "City-State": "Rigby-ID",
   "id": 1840020020,
   "city": "Rigby",
   "city_ascii": "Rigby",
   "state_id": "ID",
   "City-State": "Rigby-ID",
   "state_name": "Idaho",
   "county_fips": 16051,
   "county_name": "Jefferson",
   "lat": 43.6735,
   "lng": -111.9129,
   "population": 8987,
   "population_proper": 4062,
   "density": 657,
   "source": "polygon",
   "incorporated": true,
   "timezone": "America/Boise",
   "zips": "83442"
 },
 {
   "City-State": "Marsing-ID",
   "id": 1840020050,
   "city": "Marsing",
   "city_ascii": "Marsing",
   "state_id": "ID",
   "City-State": "Marsing-ID",
   "state_name": "Idaho",
   "county_fips": 16073,
   "county_name": "Owyhee",
   "lat": 43.5464,
   "lng": -116.8096,
   "population": 1282,
   "population_proper": 1282,
   "density": 690,
   "source": "polygon",
   "incorporated": true,
   "timezone": "America/Boise",
   "zips": "83639"
 },
 {
   "City-State": "Sweet-ID",
   "id": 1840027113,
   "city": "Sweet",
   "city_ascii": "Sweet",
   "state_id": "ID",
   "City-State": "Sweet-ID",
   "state_name": "Idaho",
   "county_fips": 16045,
   "county_name": "Gem",
   "lat": 43.9729,
   "lng": -116.3246,
   "population": null,
   "population_proper": null,
   "density": 38.9,
   "source": "point",
   "incorporated": false,
   "timezone": "America/Boise",
   "zips": "83670"
 },
 {
   "City-State": "Acequia-ID",
   "id": 1840018665,
   "city": "Acequia",
   "city_ascii": "Acequia",
   "state_id": "ID",
   "City-State": "Acequia-ID",
   "state_name": "Idaho",
   "county_fips": 16067,
   "county_name": "Minidoka",
   "lat": 42.6676,
   "lng": -113.5967,
   "population": 127,
   "population_proper": 127,
   "density": 117,
   "source": "polygon",
   "incorporated": true,
   "timezone": "America/Boise",
   "zips": "83350"
 },
 {
   "City-State": "Butte City-ID",
   "id": 1840018628,
   "city": "Butte City",
   "city_ascii": "Butte City",
   "state_id": "ID",
   "City-State": "Butte City-ID",
   "state_name": "Idaho",
   "county_fips": 16023,
   "county_name": "Butte",
   "lat": 43.607,
   "lng": -113.2409,
   "population": 65,
   "population_proper": 65,
   "density": 153,
   "source": "polygon",
   "incorporated": true,
   "timezone": "America/Boise",
   "zips": "83213"
 },
 {
   "City-State": "Grangeville-ID",
   "id": 1840019893,
   "city": "Grangeville",
   "city_ascii": "Grangeville",
   "state_id": "ID",
   "City-State": "Grangeville-ID",
   "state_name": "Idaho",
   "county_fips": 16049,
   "county_name": "Idaho",
   "lat": 45.926,
   "lng": -116.1218,
   "population": 3147,
   "population_proper": 3139,
   "density": 833,
   "source": "polygon",
   "incorporated": true,
   "timezone": "America/Los_Angeles",
   "zips": "83530 83531"
 },
 {
   "City-State": "Leslie-ID",
   "id": 1840027099,
   "city": "Leslie",
   "city_ascii": "Leslie",
   "state_id": "ID",
   "City-State": "Leslie-ID",
   "state_name": "Idaho",
   "county_fips": 16037,
   "county_name": "Custer",
   "lat": 43.8657,
   "lng": -113.4675,
   "population": null,
   "population_proper": null,
   "density": 11,
   "source": "point",
   "incorporated": false,
   "timezone": "America/Boise",
   "zips": "83255"
 },
 {
   "City-State": "Smiths Ferry-ID",
   "id": 1840023912,
   "city": "Smiths Ferry",
   "city_ascii": "Smiths Ferry",
   "state_id": "ID",
   "City-State": "Smiths Ferry-ID",
   "state_name": "Idaho",
   "county_fips": 16085,
   "county_name": "Valley",
   "lat": 44.2989,
   "lng": -116.0782,
   "population": null,
   "population_proper": null,
   "density": 17.1,
   "source": "polygon",
   "incorporated": false,
   "timezone": "America/Boise",
   "zips": "83611"
 },
 {
   "City-State": "Myrtle-ID",
   "id": 1840027079,
   "city": "Myrtle",
   "city_ascii": "Myrtle",
   "state_id": "ID",
   "City-State": "Myrtle-ID",
   "state_name": "Idaho",
   "county_fips": 16069,
   "county_name": "Nez Perce",
   "lat": 46.4968,
   "lng": -116.726,
   "population": null,
   "population_proper": null,
   "density": 36.8,
   "source": "point",
   "incorporated": false,
   "timezone": "America/Los_Angeles",
   "zips": "83535"
 },
 {
   "City-State": "Pinehurst-ID",
   "id": 1840019800,
   "city": "Pinehurst",
   "city_ascii": "Pinehurst",
   "state_id": "ID",
   "City-State": "Pinehurst-ID",
   "state_name": "Idaho",
   "county_fips": 16079,
   "county_name": "Shoshone",
   "lat": 47.5362,
   "lng": -116.2325,
   "population": 1577,
   "population_proper": 1577,
   "density": 581,
   "source": "polygon",
   "incorporated": true,
   "timezone": "America/Los_Angeles",
   "zips": "83850"
 },
 {
   "City-State": "Helmer-ID",
   "id": 1840027065,
   "city": "Helmer",
   "city_ascii": "Helmer",
   "state_id": "ID",
   "City-State": "Helmer-ID",
   "state_name": "Idaho",
   "county_fips": 16057,
   "county_name": "Latah",
   "lat": 46.8007,
   "lng": -116.4702,
   "population": null,
   "population_proper": null,
   "density": 14,
   "source": "point",
   "incorporated": false,
   "timezone": "America/Los_Angeles",
   "zips": "83823"
 },
 {
   "City-State": "Chatcolet-ID",
   "id": 1840027060,
   "city": "Chatcolet",
   "city_ascii": "Chatcolet",
   "state_id": "ID",
   "City-State": "Chatcolet-ID",
   "state_name": "Idaho",
   "county_fips": 16009,
   "county_name": "Benewah",
   "lat": 47.3721,
   "lng": -116.7635,
   "population": null,
   "population_proper": null,
   "density": 10.7,
   "source": "point",
   "incorporated": false,
   "timezone": "America/Los_Angeles",
   "zips": "83851"
 },
 {
   "City-State": "Tyhee-ID",
   "id": 1840025457,
   "city": "Tyhee",
   "city_ascii": "Tyhee",
   "state_id": "ID",
   "City-State": "Tyhee-ID",
   "state_name": "Idaho",
   "county_fips": 16005,
   "county_name": "Bannock",
   "lat": 42.9551,
   "lng": -112.4562,
   "population": null,
   "population_proper": null,
   "density": 192.6,
   "source": "polygon",
   "incorporated": false,
   "timezone": "America/Boise",
   "zips": "83202"
 },
 {
   "City-State": "Buist-ID",
   "id": 1840027193,
   "city": "Buist",
   "city_ascii": "Buist",
   "state_id": "ID",
   "City-State": "Buist-ID",
   "state_name": "Idaho",
   "county_fips": 16071,
   "county_name": "Oneida",
   "lat": 42.3271,
   "lng": -112.6055,
   "population": null,
   "population_proper": null,
   "density": 1.7,
   "source": "point",
   "incorporated": false,
   "timezone": "America/Boise",
   "zips": "83243"
 },
 {
   "City-State": "Weippe-ID",
   "id": 1840021158,
   "city": "Weippe",
   "city_ascii": "Weippe",
   "state_id": "ID",
   "City-State": "Weippe-ID",
   "state_name": "Idaho",
   "county_fips": 16035,
   "county_name": "Clearwater",
   "lat": 46.3789,
   "lng": -115.9394,
   "population": 431,
   "population_proper": 431,
   "density": 399,
   "source": "polygon",
   "incorporated": true,
   "timezone": "America/Los_Angeles",
   "zips": "83553"
 },
 {
   "City-State": "Lewiston Orchards-ID",
   "id": 1840027078,
   "city": "Lewiston Orchards",
   "city_ascii": "Lewiston Orchards",
   "state_id": "ID",
   "City-State": "Lewiston Orchards-ID",
   "state_name": "Idaho",
   "county_fips": 16069,
   "county_name": "Nez Perce",
   "lat": 46.3804,
   "lng": -116.9754,
   "population": null,
   "population_proper": null,
   "density": 1179.3,
   "source": "point",
   "incorporated": false,
   "timezone": "America/Los_Angeles",
   "zips": "83501"
 },
 {
   "City-State": "Huston-ID",
   "id": 1840027137,
   "city": "Huston",
   "city_ascii": "Huston",
   "state_id": "ID",
   "City-State": "Huston-ID",
   "state_name": "Idaho",
   "county_fips": 16027,
   "county_name": "Canyon",
   "lat": 43.6102,
   "lng": -116.7832,
   "population": null,
   "population_proper": null,
   "density": 80.1,
   "source": "point",
   "incorporated": false,
   "timezone": "America/Boise",
   "zips": "83607"
 },
 {
   "City-State": "McCall-ID",
   "id": 1840019964,
   "city": "McCall",
   "city_ascii": "McCall",
   "state_id": "ID",
   "City-State": "McCall-ID",
   "state_name": "Idaho",
   "county_fips": 16085,
   "county_name": "Valley",
   "lat": 44.9076,
   "lng": -116.1125,
   "population": 3278,
   "population_proper": 3278,
   "density": 139,
   "source": "polygon",
   "incorporated": true,
   "timezone": "America/Boise",
   "zips": "83638 83635"
 },
 {
   "City-State": "Barber-ID",
   "id": 1840027141,
   "city": "Barber",
   "city_ascii": "Barber",
   "state_id": "ID",
   "City-State": "Barber-ID",
   "state_name": "Idaho",
   "county_fips": 16001,
   "county_name": "Ada",
   "lat": 43.5652,
   "lng": -116.1132,
   "population": null,
   "population_proper": null,
   "density": 37,
   "source": "point",
   "incorporated": false,
   "timezone": "America/Boise",
   "zips": "83712"
 },
 {
   "City-State": "Whitney-ID",
   "id": 1840027203,
   "city": "Whitney",
   "city_ascii": "Whitney",
   "state_id": "ID",
   "City-State": "Whitney-ID",
   "state_name": "Idaho",
   "county_fips": 16041,
   "county_name": "Franklin",
   "lat": 42.0658,
   "lng": -111.8377,
   "population": null,
   "population_proper": null,
   "density": 27.6,
   "source": "point",
   "incorporated": false,
   "timezone": "America/Boise",
   "zips": "83263"
 },
 {
   "City-State": "Grace-ID",
   "id": 1840020073,
   "city": "Grace",
   "city_ascii": "Grace",
   "state_id": "ID",
   "City-State": "Grace-ID",
   "state_name": "Idaho",
   "county_fips": 16029,
   "county_name": "Caribou",
   "lat": 42.5754,
   "lng": -111.7306,
   "population": 910,
   "population_proper": 910,
   "density": 356,
   "source": "polygon",
   "incorporated": true,
   "timezone": "America/Boise",
   "zips": "83241"
 },
 {
   "City-State": "Horseshoe Bend-ID",
   "id": 1840020005,
   "city": "Horseshoe Bend",
   "city_ascii": "Horseshoe Bend",
   "state_id": "ID",
   "City-State": "Horseshoe Bend-ID",
   "state_name": "Idaho",
   "county_fips": 16015,
   "county_name": "Boise",
   "lat": 43.9165,
   "lng": -116.2004,
   "population": 692,
   "population_proper": 692,
   "density": 247,
   "source": "polygon",
   "incorporated": true,
   "timezone": "America/Boise",
   "zips": "83629"
 },
 {
   "City-State": "Robin-ID",
   "id": 1840027161,
   "city": "Robin",
   "city_ascii": "Robin",
   "state_id": "ID",
   "City-State": "Robin-ID",
   "state_name": "Idaho",
   "county_fips": 16005,
   "county_name": "Bannock",
   "lat": 42.5771,
   "lng": -112.2466,
   "population": null,
   "population_proper": null,
   "density": 8,
   "source": "point",
   "incorporated": false,
   "timezone": "America/Boise",
   "zips": "83214"
 },
 {
   "City-State": "Lost River-ID",
   "id": 1840019984,
   "city": "Lost River",
   "city_ascii": "Lost River",
   "state_id": "ID",
   "City-State": "Lost River-ID",
   "state_name": "Idaho",
   "county_fips": 16037,
   "county_name": "Custer",
   "lat": 43.7385,
   "lng": -113.5469,
   "population": null,
   "population_proper": null,
   "density": 2,
   "source": "polygon",
   "incorporated": true,
   "timezone": "America/Boise",
   "zips": "83255"
 },
 {
   "City-State": "Lake Fork-ID",
   "id": 1840027098,
   "city": "Lake Fork",
   "city_ascii": "Lake Fork",
   "state_id": "ID",
   "City-State": "Lake Fork-ID",
   "state_name": "Idaho",
   "county_fips": 16085,
   "county_name": "Valley",
   "lat": 44.8327,
   "lng": -116.0848,
   "population": null,
   "population_proper": null,
   "density": 14.2,
   "source": "point",
   "incorporated": false,
   "timezone": "America/Boise",
   "zips": "83638"
 },
 {
   "City-State": "Holbrook-ID",
   "id": 1840027192,
   "city": "Holbrook",
   "city_ascii": "Holbrook",
   "state_id": "ID",
   "City-State": "Holbrook-ID",
   "state_name": "Idaho",
   "county_fips": 16071,
   "county_name": "Oneida",
   "lat": 42.1619,
   "lng": -112.6539,
   "population": null,
   "population_proper": null,
   "density": 36.2,
   "source": "point",
   "incorporated": false,
   "timezone": "America/Boise",
   "zips": "83243"
 },
 {
   "City-State": "Montpelier-ID",
   "id": 1840020091,
   "city": "Montpelier",
   "city_ascii": "Montpelier",
   "state_id": "ID",
   "City-State": "Montpelier-ID",
   "state_name": "Idaho",
   "county_fips": 16007,
   "county_name": "Bear Lake",
   "lat": 42.326,
   "lng": -111.2988,
   "population": 2506,
   "population_proper": 2506,
   "density": 415,
   "source": "polygon",
   "incorporated": true,
   "timezone": "America/Boise",
   "zips": "83254"
 },
 {
   "City-State": "Bancroft-ID",
   "id": 1840018671,
   "city": "Bancroft",
   "city_ascii": "Bancroft",
   "state_id": "ID",
   "City-State": "Bancroft-ID",
   "state_name": "Idaho",
   "county_fips": 16029,
   "county_name": "Caribou",
   "lat": 42.72,
   "lng": -111.8827,
   "population": 367,
   "population_proper": 367,
   "density": 218,
   "source": "polygon",
   "incorporated": true,
   "timezone": "America/Boise",
   "zips": "83217"
 },
 {
   "City-State": "Council-ID",
   "id": 1840018584,
   "city": "Council",
   "city_ascii": "Council",
   "state_id": "ID",
   "City-State": "Council-ID",
   "state_name": "Idaho",
   "county_fips": 16003,
   "county_name": "Adams",
   "lat": 44.7329,
   "lng": -116.4375,
   "population": 818,
   "population_proper": 818,
   "density": 316,
   "source": "polygon",
   "incorporated": true,
   "timezone": "America/Boise",
   "zips": "83612"
 },
 {
   "City-State": "Hayden Lake-ID",
   "id": 1840019809,
   "city": "Hayden Lake",
   "city_ascii": "Hayden Lake",
   "state_id": "ID",
   "City-State": "Hayden Lake-ID",
   "state_name": "Idaho",
   "county_fips": 16055,
   "county_name": "Kootenai",
   "lat": 47.7637,
   "lng": -116.7565,
   "population": 614,
   "population_proper": 614,
   "density": 403,
   "source": "polygon",
   "incorporated": true,
   "timezone": "America/Los_Angeles",
   "zips": "83835"
 },
 {
   "City-State": "Stanley-ID",
   "id": 1840021249,
   "city": "Stanley",
   "city_ascii": "Stanley",
   "state_id": "ID",
   "City-State": "Stanley-ID",
   "state_name": "Idaho",
   "county_fips": 16037,
   "county_name": "Custer",
   "lat": 44.2151,
   "lng": -114.9368,
   "population": 69,
   "population_proper": 69,
   "density": 43,
   "source": "polygon",
   "incorporated": true,
   "timezone": "America/Boise",
   "zips": "83278"
 },
 {
   "City-State": "Fruitland-ID",
   "id": 1840020013,
   "city": "Fruitland",
   "city_ascii": "Fruitland",
   "state_id": "ID",
   "City-State": "Fruitland-ID",
   "state_name": "Idaho",
   "county_fips": 16075,
   "county_name": "Payette",
   "lat": 44.0204,
   "lng": -116.9223,
   "population": 5136,
   "population_proper": 5136,
   "density": 889,
   "source": "polygon",
   "incorporated": true,
   "timezone": "America/Boise",
   "zips": "83619"
 },
 {
   "City-State": "Sublett-ID",
   "id": 1840027181,
   "city": "Sublett",
   "city_ascii": "Sublett",
   "state_id": "ID",
   "City-State": "Sublett-ID",
   "state_name": "Idaho",
   "county_fips": 16031,
   "county_name": "Cassia",
   "lat": 42.3121,
   "lng": -113.1369,
   "population": null,
   "population_proper": null,
   "density": 14,
   "source": "point",
   "incorporated": false,
   "timezone": "America/Boise",
   "zips": "83342"
 },
 {
   "City-State": "Rathdrum-ID",
   "id": 1840019812,
   "city": "Rathdrum",
   "city_ascii": "Rathdrum",
   "state_id": "ID",
   "City-State": "Rathdrum-ID",
   "state_name": "Idaho",
   "county_fips": 16055,
   "county_name": "Kootenai",
   "lat": 47.7992,
   "lng": -116.8911,
   "population": 7587,
   "population_proper": 7921,
   "density": 586,
   "source": "polygon",
   "incorporated": true,
   "timezone": "America/Los_Angeles",
   "zips": "83858"
 },
 {
   "City-State": "Juliaetta-ID",
   "id": 1840018461,
   "city": "Juliaetta",
   "city_ascii": "Juliaetta",
   "state_id": "ID",
   "City-State": "Juliaetta-ID",
   "state_name": "Idaho",
   "county_fips": 16057,
   "county_name": "Latah",
   "lat": 46.5741,
   "lng": -116.7095,
   "population": 582,
   "population_proper": 582,
   "density": 314,
   "source": "polygon",
   "incorporated": true,
   "timezone": "America/Los_Angeles",
   "zips": "83535"
 },
 {
   "City-State": "White Bird-ID",
   "id": 1840021171,
   "city": "White Bird",
   "city_ascii": "White Bird",
   "state_id": "ID",
   "City-State": "White Bird-ID",
   "state_name": "Idaho",
   "county_fips": 16049,
   "county_name": "Idaho",
   "lat": 45.7632,
   "lng": -116.3001,
   "population": 91,
   "population_proper": 91,
   "density": 516,
   "source": "polygon",
   "incorporated": true,
   "timezone": "America/Los_Angeles",
   "zips": "83554"
 },
 {
   "City-State": "Hot Springs-ID",
   "id": 1840027149,
   "city": "Hot Springs",
   "city_ascii": "Hot Springs",
   "state_id": "ID",
   "City-State": "Hot Springs-ID",
   "state_name": "Idaho",
   "county_fips": 16073,
   "county_name": "Owyhee",
   "lat": 42.7918,
   "lng": -115.7179,
   "population": null,
   "population_proper": null,
   "density": 2.8,
   "source": "point",
   "incorporated": false,
   "timezone": "America/Boise",
   "zips": "83604"
 },
 {
   "City-State": "De Smet-ID",
   "id": 1840023828,
   "city": "De Smet",
   "city_ascii": "De Smet",
   "state_id": "ID",
   "City-State": "De Smet-ID",
   "state_name": "Idaho",
   "county_fips": 16009,
   "county_name": "Benewah",
   "lat": 47.1411,
   "lng": -116.9113,
   "population": null,
   "population_proper": null,
   "density": 93.4,
   "source": "polygon",
   "incorporated": false,
   "timezone": "America/Los_Angeles",
   "zips": "83824"
 },
 {
   "City-State": "Homedale-ID",
   "id": 1840020049,
   "city": "Homedale",
   "city_ascii": "Homedale",
   "state_id": "ID",
   "City-State": "Homedale-ID",
   "state_name": "Idaho",
   "county_fips": 16073,
   "county_name": "Owyhee",
   "lat": 43.6153,
   "lng": -116.9375,
   "population": 2679,
   "population_proper": 2584,
   "density": 680,
   "source": "polygon",
   "incorporated": true,
   "timezone": "America/Boise",
   "zips": "83628"
 },
 {
   "City-State": "Stone-ID",
   "id": 1840027196,
   "city": "Stone",
   "city_ascii": "Stone",
   "state_id": "ID",
   "City-State": "Stone-ID",
   "state_name": "Idaho",
   "county_fips": 16071,
   "county_name": "Oneida",
   "lat": 42.0163,
   "lng": -112.6953,
   "population": null,
   "population_proper": null,
   "density": 7.8,
   "source": "point",
   "incorporated": false,
   "timezone": "America/Boise",
   "zips": "83252"
 },
 {
   "City-State": "New Meadows-ID",
   "id": 1840019963,
   "city": "New Meadows",
   "city_ascii": "New Meadows",
   "state_id": "ID",
   "City-State": "New Meadows-ID",
   "state_name": "Idaho",
   "county_fips": 16003,
   "county_name": "Adams",
   "lat": 44.9703,
   "lng": -116.2856,
   "population": 477,
   "population_proper": 477,
   "density": 343,
   "source": "polygon",
   "incorporated": true,
   "timezone": "America/Boise",
   "zips": "83654"
 },
 {
   "City-State": "Spirit Lake-ID",
   "id": 1840021098,
   "city": "Spirit Lake",
   "city_ascii": "Spirit Lake",
   "state_id": "ID",
   "City-State": "Spirit Lake-ID",
   "state_name": "Idaho",
   "county_fips": 16055,
   "county_name": "Kootenai",
   "lat": 47.9659,
   "lng": -116.87,
   "population": 2167,
   "population_proper": 2167,
   "density": 329,
   "source": "polygon",
   "incorporated": true,
   "timezone": "America/Los_Angeles",
   "zips": "83869"
 },
 {
   "City-State": "Moyie Springs-ID",
   "id": 1840019755,
   "city": "Moyie Springs",
   "city_ascii": "Moyie Springs",
   "state_id": "ID",
   "City-State": "Moyie Springs-ID",
   "state_name": "Idaho",
   "county_fips": 16021,
   "county_name": "Boundary",
   "lat": 48.7249,
   "lng": -116.1953,
   "population": 742,
   "population_proper": 742,
   "density": 188,
   "source": "polygon",
   "incorporated": true,
   "timezone": "America/Los_Angeles",
   "zips": "83845"
 },
 {
   "City-State": "Lucile-ID",
   "id": 1840027072,
   "city": "Lucile",
   "city_ascii": "Lucile",
   "state_id": "ID",
   "City-State": "Lucile-ID",
   "state_name": "Idaho",
   "county_fips": 16049,
   "county_name": "Idaho",
   "lat": 45.5352,
   "lng": -116.3104,
   "population": null,
   "population_proper": null,
   "density": 38.6,
   "source": "point",
   "incorporated": false,
   "timezone": "America/Boise",
   "zips": "83542"
 },
 {
   "City-State": "Hollister-ID",
   "id": 1840020082,
   "city": "Hollister",
   "city_ascii": "Hollister",
   "state_id": "ID",
   "City-State": "Hollister-ID",
   "state_name": "Idaho",
   "county_fips": 16083,
   "county_name": "Twin Falls",
   "lat": 42.3529,
   "lng": -114.5838,
   "population": 277,
   "population_proper": 277,
   "density": 99,
   "source": "polygon",
   "incorporated": true,
   "timezone": "America/Boise",
   "zips": "83301"
 },
 {
   "City-State": "Paul-ID",
   "id": 1840020068,
   "city": "Paul",
   "city_ascii": "Paul",
   "state_id": "ID",
   "City-State": "Paul-ID",
   "state_name": "Idaho",
   "county_fips": 16067,
   "county_name": "Minidoka",
   "lat": 42.6055,
   "lng": -113.7846,
   "population": 1202,
   "population_proper": 1202,
   "density": 727,
   "source": "polygon",
   "incorporated": true,
   "timezone": "America/Boise",
   "zips": "83347"
 },
 {
   "City-State": "Harpster-ID",
   "id": 1840027074,
   "city": "Harpster",
   "city_ascii": "Harpster",
   "state_id": "ID",
   "City-State": "Harpster-ID",
   "state_name": "Idaho",
   "county_fips": 16049,
   "county_name": "Idaho",
   "lat": 45.9866,
   "lng": -115.9635,
   "population": null,
   "population_proper": null,
   "density": 86.6,
   "source": "point",
   "incorporated": false,
   "timezone": "America/Los_Angeles",
   "zips": "83552"
 },
 {
   "City-State": "Ammon-ID",
   "id": 1840018643,
   "city": "Ammon",
   "city_ascii": "Ammon",
   "state_id": "ID",
   "City-State": "Ammon-ID",
   "state_name": "Idaho",
   "county_fips": 16019,
   "county_name": "Bonneville",
   "lat": 43.4748,
   "lng": -111.9559,
   "population": 15252,
   "population_proper": 15252,
   "density": 788,
   "source": "polygon",
   "incorporated": true,
   "timezone": "America/Boise",
   "zips": "83401 83406 83403"
 },
 {
   "City-State": "Middleton-ID",
   "id": 1840020040,
   "city": "Middleton",
   "city_ascii": "Middleton",
   "state_id": "ID",
   "City-State": "Middleton-ID",
   "state_name": "Idaho",
   "county_fips": 16027,
   "county_name": "Canyon",
   "lat": 43.7124,
   "lng": -116.6143,
   "population": 7168,
   "population_proper": 7168,
   "density": 490,
   "source": "polygon",
   "incorporated": true,
   "timezone": "America/Boise",
   "zips": "83644 83652"
 },
 {
   "City-State": "Careywood-ID",
   "id": 1840027047,
   "city": "Careywood",
   "city_ascii": "Careywood",
   "state_id": "ID",
   "City-State": "Careywood-ID",
   "state_name": "Idaho",
   "county_fips": 16017,
   "county_name": "Bonner",
   "lat": 48.0346,
   "lng": -116.6433,
   "population": null,
   "population_proper": null,
   "density": 11.1,
   "source": "point",
   "incorporated": false,
   "timezone": "America/Los_Angeles",
   "zips": "83809"
 },
 {
   "City-State": "Fernan Lake Village-ID",
   "id": 1840019805,
   "city": "Fernan Lake Village",
   "city_ascii": "Fernan Lake Village",
   "state_id": "ID",
   "City-State": "Fernan Lake Village-ID",
   "state_name": "Idaho",
   "county_fips": 16055,
   "county_name": "Kootenai",
   "lat": 47.6726,
   "lng": -116.7473,
   "population": 174,
   "population_proper": 174,
   "density": 906,
   "source": "polygon",
   "incorporated": true,
   "timezone": "America/Los_Angeles",
   "zips": "83814"
 },
 {
   "City-State": "Bliss-ID",
   "id": 1840018664,
   "city": "Bliss",
   "city_ascii": "Bliss",
   "state_id": "ID",
   "City-State": "Bliss-ID",
   "state_name": "Idaho",
   "county_fips": 16047,
   "county_name": "Gooding",
   "lat": 42.9241,
   "lng": -114.9476,
   "population": 297,
   "population_proper": 297,
   "density": 154,
   "source": "polygon",
   "incorporated": true,
   "timezone": "America/Boise",
   "zips": "83314"
 },
 {
   "City-State": "Elk River-ID",
   "id": 1840019875,
   "city": "Elk River",
   "city_ascii": "Elk River",
   "state_id": "ID",
   "City-State": "Elk River-ID",
   "state_name": "Idaho",
   "county_fips": 16035,
   "county_name": "Clearwater",
   "lat": 46.783,
   "lng": -116.1811,
   "population": 119,
   "population_proper": 119,
   "density": 309,
   "source": "polygon",
   "incorporated": true,
   "timezone": "America/Los_Angeles",
   "zips": "83827"
 },
 {
   "City-State": "Bowmont-ID",
   "id": 1840027136,
   "city": "Bowmont",
   "city_ascii": "Bowmont",
   "state_id": "ID",
   "City-State": "Bowmont-ID",
   "state_name": "Idaho",
   "county_fips": 16027,
   "county_name": "Canyon",
   "lat": 43.456,
   "lng": -116.541,
   "population": null,
   "population_proper": null,
   "density": 229.5,
   "source": "point",
   "incorporated": false,
   "timezone": "America/Boise",
   "zips": "83686"
 },
 {
   "City-State": "Byrne-ID",
   "id": 1840027134,
   "city": "Byrne",
   "city_ascii": "Byrne",
   "state_id": "ID",
   "City-State": "Byrne-ID",
   "state_name": "Idaho",
   "county_fips": 16065,
   "county_name": "Madison",
   "lat": 43.6919,
   "lng": -111.7466,
   "population": null,
   "population_proper": null,
   "density": 2.5,
   "source": "point",
   "incorporated": false,
   "timezone": "America/Boise",
   "zips": "83440"
 },
 {
   "City-State": "Hammett-ID",
   "id": 1840027117,
   "city": "Hammett",
   "city_ascii": "Hammett",
   "state_id": "ID",
   "City-State": "Hammett-ID",
   "state_name": "Idaho",
   "county_fips": 16039,
   "county_name": "Elmore",
   "lat": 42.9457,
   "lng": -115.4662,
   "population": null,
   "population_proper": null,
   "density": 144.4,
   "source": "point",
   "incorporated": false,
   "timezone": "America/Boise",
   "zips": "83627"
 },
 {
   "City-State": "Mesa-ID",
   "id": 1840027096,
   "city": "Mesa",
   "city_ascii": "Mesa",
   "state_id": "ID",
   "City-State": "Mesa-ID",
   "state_name": "Idaho",
   "county_fips": 16003,
   "county_name": "Adams",
   "lat": 44.6288,
   "lng": -116.4507,
   "population": null,
   "population_proper": null,
   "density": 11.9,
   "source": "point",
   "incorporated": false,
   "timezone": "America/Boise",
   "zips": "83643"
 },
 {
   "City-State": "Placerville-ID",
   "id": 1840020006,
   "city": "Placerville",
   "city_ascii": "Placerville",
   "state_id": "ID",
   "City-State": "Placerville-ID",
   "state_name": "Idaho",
   "county_fips": 16015,
   "county_name": "Boise",
   "lat": 43.943,
   "lng": -115.9456,
   "population": 54,
   "population_proper": 54,
   "density": 20,
   "source": "polygon",
   "incorporated": true,
   "timezone": "America/Boise",
   "zips": "83631 83666"
 },
 {
   "City-State": "Lincoln-ID",
   "id": 1840024022,
   "city": "Lincoln",
   "city_ascii": "Lincoln",
   "state_id": "ID",
   "City-State": "Lincoln-ID",
   "state_name": "Idaho",
   "county_fips": 16019,
   "county_name": "Bonneville",
   "lat": 43.5178,
   "lng": -111.9687,
   "population": null,
   "population_proper": null,
   "density": 1143.9,
   "source": "polygon",
   "incorporated": false,
   "timezone": "America/Boise",
   "zips": "83401"
 },
 {
   "City-State": "Lapwai-ID",
   "id": 1840019899,
   "city": "Lapwai",
   "city_ascii": "Lapwai",
   "state_id": "ID",
   "City-State": "Lapwai-ID",
   "state_name": "Idaho",
   "county_fips": 16069,
   "county_name": "Nez Perce",
   "lat": 46.4041,
   "lng": -116.8044,
   "population": 1148,
   "population_proper": 1148,
   "density": 556,
   "source": "polygon",
   "incorporated": true,
   "timezone": "America/Los_Angeles",
   "zips": "83540"
 },
 {
   "City-State": "Payette-ID",
   "id": 1840020015,
   "city": "Payette",
   "city_ascii": "Payette",
   "state_id": "ID",
   "City-State": "Payette-ID",
   "state_name": "Idaho",
   "county_fips": 16075,
   "county_name": "Payette",
   "lat": 44.079,
   "lng": -116.9256,
   "population": 7414,
   "population_proper": 7414,
   "density": 717,
   "source": "polygon",
   "incorporated": true,
   "timezone": "America/Boise",
   "zips": "83661"
 },
 {
   "City-State": "Plummer-ID",
   "id": 1840019851,
   "city": "Plummer",
   "city_ascii": "Plummer",
   "state_id": "ID",
   "City-State": "Plummer-ID",
   "state_name": "Idaho",
   "county_fips": 16009,
   "county_name": "Benewah",
   "lat": 47.3297,
   "lng": -116.885,
   "population": 1017,
   "population_proper": 1017,
   "density": 313,
   "source": "polygon",
   "incorporated": true,
   "timezone": "America/Los_Angeles",
   "zips": "83851"
 },
 {
   "City-State": "Lava Hot Springs-ID",
   "id": 1840020072,
   "city": "Lava Hot Springs",
   "city_ascii": "Lava Hot Springs",
   "state_id": "ID",
   "City-State": "Lava Hot Springs-ID",
   "state_name": "Idaho",
   "county_fips": 16005,
   "county_name": "Bannock",
   "lat": 42.6199,
   "lng": -112.0098,
   "population": 412,
   "population_proper": 412,
   "density": 235,
   "source": "polygon",
   "incorporated": true,
   "timezone": "America/Boise",
   "zips": "83246"
 },
 {
   "City-State": "Gifford-ID",
   "id": 1840027076,
   "city": "Gifford",
   "city_ascii": "Gifford",
   "state_id": "ID",
   "City-State": "Gifford-ID",
   "state_name": "Idaho",
   "county_fips": 16069,
   "county_name": "Nez Perce",
   "lat": 46.4432,
   "lng": -116.5565,
   "population": null,
   "population_proper": null,
   "density": 10.2,
   "source": "point",
   "incorporated": false,
   "timezone": "America/Los_Angeles",
   "zips": "83524"
 },
 {
   "City-State": "Oldtown-ID",
   "id": 1840019770,
   "city": "Oldtown",
   "city_ascii": "Oldtown",
   "state_id": "ID",
   "City-State": "Oldtown-ID",
   "state_name": "Idaho",
   "county_fips": 16017,
   "county_name": "Bonner",
   "lat": 48.184,
   "lng": -117.0204,
   "population": 182,
   "population_proper": 182,
   "density": 85,
   "source": "polygon",
   "incorporated": true,
   "timezone": "America/Los_Angeles",
   "zips": "83822"
 },
 {
   "City-State": "Bovill-ID",
   "id": 1840018460,
   "city": "Bovill",
   "city_ascii": "Bovill",
   "state_id": "ID",
   "City-State": "Bovill-ID",
   "state_name": "Idaho",
   "county_fips": 16057,
   "county_name": "Latah",
   "lat": 46.8587,
   "lng": -116.3933,
   "population": 247,
   "population_proper": 247,
   "density": 505,
   "source": "polygon",
   "incorporated": true,
   "timezone": "America/Los_Angeles",
   "zips": "83823 83806"
 },
 {
   "City-State": "Letha-ID",
   "id": 1840027109,
   "city": "Letha",
   "city_ascii": "Letha",
   "state_id": "ID",
   "City-State": "Letha-ID",
   "state_name": "Idaho",
   "county_fips": 16045,
   "county_name": "Gem",
   "lat": 43.8943,
   "lng": -116.6476,
   "population": null,
   "population_proper": null,
   "density": 171.3,
   "source": "point",
   "incorporated": false,
   "timezone": "America/Boise",
   "zips": "83636"
 },
 {
   "City-State": "Stites-ID",
   "id": 1840021170,
   "city": "Stites",
   "city_ascii": "Stites",
   "state_id": "ID",
   "City-State": "Stites-ID",
   "state_name": "Idaho",
   "county_fips": 16049,
   "county_name": "Idaho",
   "lat": 46.0922,
   "lng": -115.9764,
   "population": 228,
   "population_proper": 228,
   "density": 934,
   "source": "polygon",
   "incorporated": true,
   "timezone": "America/Los_Angeles",
   "zips": "83552"
 },
 {
   "City-State": "Kimberly-ID",
   "id": 1840020084,
   "city": "Kimberly",
   "city_ascii": "Kimberly",
   "state_id": "ID",
   "City-State": "Kimberly-ID",
   "state_name": "Idaho",
   "county_fips": 16083,
   "county_name": "Twin Falls",
   "lat": 42.5333,
   "lng": -114.37,
   "population": 3736,
   "population_proper": 3736,
   "density": 895,
   "source": "polygon",
   "incorporated": true,
   "timezone": "America/Boise",
   "zips": "83341"
 },
 {
   "City-State": "Downey-ID",
   "id": 1840018670,
   "city": "Downey",
   "city_ascii": "Downey",
   "state_id": "ID",
   "City-State": "Downey-ID",
   "state_name": "Idaho",
   "county_fips": 16005,
   "county_name": "Bannock",
   "lat": 42.4289,
   "lng": -112.1234,
   "population": 615,
   "population_proper": 615,
   "density": 240,
   "source": "polygon",
   "incorporated": true,
   "timezone": "America/Boise",
   "zips": "83234"
 },
 {
   "City-State": "Parma-ID",
   "id": 1840020043,
   "city": "Parma",
   "city_ascii": "Parma",
   "state_id": "ID",
   "City-State": "Parma-ID",
   "state_name": "Idaho",
   "county_fips": 16027,
   "county_name": "Canyon",
   "lat": 43.7864,
   "lng": -116.9429,
   "population": 2083,
   "population_proper": 2083,
   "density": 730,
   "source": "polygon",
   "incorporated": true,
   "timezone": "America/Boise",
   "zips": "83660"
 },
 {
   "City-State": "Osgood-ID",
   "id": 1840027152,
   "city": "Osgood",
   "city_ascii": "Osgood",
   "state_id": "ID",
   "City-State": "Osgood-ID",
   "state_name": "Idaho",
   "county_fips": 16019,
   "county_name": "Bonneville",
   "lat": 43.5702,
   "lng": -112.103,
   "population": null,
   "population_proper": null,
   "density": 3,
   "source": "point",
   "incorporated": false,
   "timezone": "America/Boise",
   "zips": "83402"
 },
 {
   "City-State": "Naples-ID",
   "id": 1840027041,
   "city": "Naples",
   "city_ascii": "Naples",
   "state_id": "ID",
   "City-State": "Naples-ID",
   "state_name": "Idaho",
   "county_fips": 16021,
   "county_name": "Boundary",
   "lat": 48.571,
   "lng": -116.3924,
   "population": null,
   "population_proper": null,
   "density": 136.2,
   "source": "point",
   "incorporated": false,
   "timezone": "America/Los_Angeles",
   "zips": "83847"
 },
 {
   "City-State": "Coolin-ID",
   "id": 1840027050,
   "city": "Coolin",
   "city_ascii": "Coolin",
   "state_id": "ID",
   "City-State": "Coolin-ID",
   "state_name": "Idaho",
   "county_fips": 16017,
   "county_name": "Bonner",
   "lat": 48.4796,
   "lng": -116.8494,
   "population": null,
   "population_proper": null,
   "density": 79.8,
   "source": "point",
   "incorporated": false,
   "timezone": "America/Los_Angeles",
   "zips": "83821"
 },
 {
   "City-State": "Moreland-ID",
   "id": 1840024024,
   "city": "Moreland",
   "city_ascii": "Moreland",
   "state_id": "ID",
   "City-State": "Moreland-ID",
   "state_name": "Idaho",
   "county_fips": 16011,
   "county_name": "Bingham",
   "lat": 43.2195,
   "lng": -112.4378,
   "population": null,
   "population_proper": null,
   "density": 371.6,
   "source": "polygon",
   "incorporated": false,
   "timezone": "America/Boise",
   "zips": "83221 83256"
 },
 {
   "City-State": "Murphy-ID",
   "id": 1840024021,
   "city": "Murphy",
   "city_ascii": "Murphy",
   "state_id": "ID",
   "City-State": "Murphy-ID",
   "state_name": "Idaho",
   "county_fips": 16073,
   "county_name": "Owyhee",
   "lat": 43.2121,
   "lng": -116.5485,
   "population": null,
   "population_proper": null,
   "density": 52.1,
   "source": "polygon",
   "incorporated": false,
   "timezone": "America/Boise",
   "zips": "83650"
 },
 {
   "City-State": "Virginia-ID",
   "id": 1840027162,
   "city": "Virginia",
   "city_ascii": "Virginia",
   "state_id": "ID",
   "City-State": "Virginia-ID",
   "state_name": "Idaho",
   "county_fips": 16005,
   "county_name": "Bannock",
   "lat": 42.4941,
   "lng": -112.1655,
   "population": null,
   "population_proper": null,
   "density": 51.5,
   "source": "point",
   "incorporated": false,
   "timezone": "America/Boise",
   "zips": "83234"
 },
 {
   "City-State": "Inkom-ID",
   "id": 1840018669,
   "city": "Inkom",
   "city_ascii": "Inkom",
   "state_id": "ID",
   "City-State": "Inkom-ID",
   "state_name": "Idaho",
   "county_fips": 16005,
   "county_name": "Bannock",
   "lat": 42.7973,
   "lng": -112.2461,
   "population": 877,
   "population_proper": 877,
   "density": 458,
   "source": "polygon",
   "incorporated": true,
   "timezone": "America/Boise",
   "zips": "83245"
 },
 {
   "City-State": "Santa-ID",
   "id": 1840027061,
   "city": "Santa",
   "city_ascii": "Santa",
   "state_id": "ID",
   "City-State": "Santa-ID",
   "state_name": "Idaho",
   "county_fips": 16009,
   "county_name": "Benewah",
   "lat": 47.1502,
   "lng": -116.4491,
   "population": null,
   "population_proper": null,
   "density": 118.7,
   "source": "point",
   "incorporated": false,
   "timezone": "America/Los_Angeles",
   "zips": "83866"
 },
 {
   "City-State": "Cambridge-ID",
   "id": 1840018601,
   "city": "Cambridge",
   "city_ascii": "Cambridge",
   "state_id": "ID",
   "City-State": "Cambridge-ID",
   "state_name": "Idaho",
   "county_fips": 16087,
   "county_name": "Washington",
   "lat": 44.5718,
   "lng": -116.6781,
   "population": 316,
   "population_proper": 316,
   "density": 257,
   "source": "polygon",
   "incorporated": true,
   "timezone": "America/Boise",
   "zips": "83610"
 },
 {
   "City-State": "Leadore-ID",
   "id": 1840019945,
   "city": "Leadore",
   "city_ascii": "Leadore",
   "state_id": "ID",
   "City-State": "Leadore-ID",
   "state_name": "Idaho",
   "county_fips": 16059,
   "county_name": "Lemhi",
   "lat": 44.6797,
   "lng": -113.3584,
   "population": 100,
   "population_proper": 100,
   "density": 122,
   "source": "polygon",
   "incorporated": true,
   "timezone": "America/Boise",
   "zips": "83464"
 },
 {
   "City-State": "Pierce-ID",
   "id": 1840019877,
   "city": "Pierce",
   "city_ascii": "Pierce",
   "state_id": "ID",
   "City-State": "Pierce-ID",
   "state_name": "Idaho",
   "county_fips": 16035,
   "county_name": "Clearwater",
   "lat": 46.4931,
   "lng": -115.7994,
   "population": 485,
   "population_proper": 485,
   "density": 227,
   "source": "polygon",
   "incorporated": true,
   "timezone": "America/Los_Angeles",
   "zips": "83546"
 },
 {
   "City-State": "Featherville-ID",
   "id": 1840027119,
   "city": "Featherville",
   "city_ascii": "Featherville",
   "state_id": "ID",
   "City-State": "Featherville-ID",
   "state_name": "Idaho",
   "county_fips": 16039,
   "county_name": "Elmore",
   "lat": 43.6099,
   "lng": -115.2581,
   "population": null,
   "population_proper": null,
   "density": 6.8,
   "source": "point",
   "incorporated": false,
   "timezone": "America/Boise",
   "zips": "83647"
 },
 {
   "City-State": "Fruitvale-ID",
   "id": 1840027095,
   "city": "Fruitvale",
   "city_ascii": "Fruitvale",
   "state_id": "ID",
   "City-State": "Fruitvale-ID",
   "state_name": "Idaho",
   "county_fips": 16003,
   "county_name": "Adams",
   "lat": 44.8152,
   "lng": -116.4401,
   "population": null,
   "population_proper": null,
   "density": 48.7,
   "source": "point",
   "incorporated": false,
   "timezone": "America/Boise",
   "zips": "83612"
 },
 {
   "City-State": "Bridge-ID",
   "id": 1840027177,
   "city": "Bridge",
   "city_ascii": "Bridge",
   "state_id": "ID",
   "City-State": "Bridge-ID",
   "state_name": "Idaho",
   "county_fips": 16031,
   "county_name": "Cassia",
   "lat": 42.1294,
   "lng": -113.3425,
   "population": null,
   "population_proper": null,
   "density": 2.2,
   "source": "point",
   "incorporated": false,
   "timezone": "America/Boise",
   "zips": "83342"
 },
 {
   "City-State": "Midvale-ID",
   "id": 1840019986,
   "city": "Midvale",
   "city_ascii": "Midvale",
   "state_id": "ID",
   "City-State": "Midvale-ID",
   "state_name": "Idaho",
   "county_fips": 16087,
   "county_name": "Washington",
   "lat": 44.4618,
   "lng": -116.7432,
   "population": 162,
   "population_proper": 162,
   "density": 24,
   "source": "polygon",
   "incorporated": true,
   "timezone": "America/Boise",
   "zips": "83645"
 },
 {
   "City-State": "Groveland-ID",
   "id": 1840024023,
   "city": "Groveland",
   "city_ascii": "Groveland",
   "state_id": "ID",
   "City-State": "Groveland-ID",
   "state_name": "Idaho",
   "county_fips": 16011,
   "county_name": "Bingham",
   "lat": 43.2235,
   "lng": -112.3755,
   "population": null,
   "population_proper": null,
   "density": 581.6,
   "source": "polygon",
   "incorporated": false,
   "timezone": "America/Boise",
   "zips": "83221"
 },
 {
   "City-State": "Sweetwater-ID",
   "id": 1840023869,
   "city": "Sweetwater",
   "city_ascii": "Sweetwater",
   "state_id": "ID",
   "City-State": "Sweetwater-ID",
   "state_name": "Idaho",
   "county_fips": 16069,
   "county_name": "Nez Perce",
   "lat": 46.3677,
   "lng": -116.7975,
   "population": null,
   "population_proper": null,
   "density": 110.3,
   "source": "polygon",
   "incorporated": false,
   "timezone": "America/Los_Angeles",
   "zips": "83540"
 },
 {
   "City-State": "Algoma-ID",
   "id": 1840027045,
   "city": "Algoma",
   "city_ascii": "Algoma",
   "state_id": "ID",
   "City-State": "Algoma-ID",
   "state_name": "Idaho",
   "county_fips": 16017,
   "county_name": "Bonner",
   "lat": 48.1969,
   "lng": -116.5721,
   "population": null,
   "population_proper": null,
   "density": 166.2,
   "source": "point",
   "incorporated": false,
   "timezone": "America/Los_Angeles",
   "zips": "83860"
 },
 {
   "City-State": "Weston-ID",
   "id": 1840021316,
   "city": "Weston",
   "city_ascii": "Weston",
   "state_id": "ID",
   "City-State": "Weston-ID",
   "state_name": "Idaho",
   "county_fips": 16041,
   "county_name": "Franklin",
   "lat": 42.0373,
   "lng": -111.9783,
   "population": 461,
   "population_proper": 461,
   "density": 90,
   "source": "polygon",
   "incorporated": true,
   "timezone": "America/Boise",
   "zips": "83286"
 },
 {
   "City-State": "Glenwood-ID",
   "id": 1840027069,
   "city": "Glenwood",
   "city_ascii": "Glenwood",
   "state_id": "ID",
   "City-State": "Glenwood-ID",
   "state_name": "Idaho",
   "county_fips": 16049,
   "county_name": "Idaho",
   "lat": 46.2441,
   "lng": -115.8329,
   "population": null,
   "population_proper": null,
   "density": 1.6,
   "source": "point",
   "incorporated": false,
   "timezone": "America/Los_Angeles",
   "zips": "83536"
 },
 {
   "City-State": "Cottonwood-ID",
   "id": 1840018483,
   "city": "Cottonwood",
   "city_ascii": "Cottonwood",
   "state_id": "ID",
   "City-State": "Cottonwood-ID",
   "state_name": "Idaho",
   "county_fips": 16049,
   "county_name": "Idaho",
   "lat": 46.051,
   "lng": -116.3498,
   "population": 917,
   "population_proper": 917,
   "density": 421,
   "source": "polygon",
   "incorporated": true,
   "timezone": "America/Los_Angeles",
   "zips": "83522"
 },
 {
   "City-State": "Rupert-ID",
   "id": 1840020066,
   "city": "Rupert",
   "city_ascii": "Rupert",
   "state_id": "ID",
   "City-State": "Rupert-ID",
   "state_name": "Idaho",
   "county_fips": 16067,
   "county_name": "Minidoka",
   "lat": 42.619,
   "lng": -113.6739,
   "population": 6642,
   "population_proper": 5813,
   "density": 1085,
   "source": "polygon",
   "incorporated": true,
   "timezone": "America/Boise",
   "zips": "83350"
 },
 {
   "City-State": "Emida-ID",
   "id": 1840027062,
   "city": "Emida",
   "city_ascii": "Emida",
   "state_id": "ID",
   "City-State": "Emida-ID",
   "state_name": "Idaho",
   "county_fips": 16009,
   "county_name": "Benewah",
   "lat": 47.1157,
   "lng": -116.5979,
   "population": null,
   "population_proper": null,
   "density": 62.6,
   "source": "point",
   "incorporated": false,
   "timezone": "America/Los_Angeles",
   "zips": "83861"
 },
 {
   "City-State": "Shoshone-ID",
   "id": 1840021295,
   "city": "Shoshone",
   "city_ascii": "Shoshone",
   "state_id": "ID",
   "City-State": "Shoshone-ID",
   "state_name": "Idaho",
   "county_fips": 16063,
   "county_name": "Lincoln",
   "lat": 42.9369,
   "lng": -114.4054,
   "population": 1503,
   "population_proper": 1503,
   "density": 507,
   "source": "polygon",
   "incorporated": true,
   "timezone": "America/Boise",
   "zips": "83352"
 },
 {
   "City-State": "Paris-ID",
   "id": 1840020092,
   "city": "Paris",
   "city_ascii": "Paris",
   "state_id": "ID",
   "City-State": "Paris-ID",
   "state_name": "Idaho",
   "county_fips": 16007,
   "county_name": "Bear Lake",
   "lat": 42.2273,
   "lng": -111.4031,
   "population": 504,
   "population_proper": 504,
   "density": 55,
   "source": "polygon",
   "incorporated": true,
   "timezone": "America/Boise",
   "zips": "83261"
 },
 {
   "City-State": "Carey-ID",
   "id": 1840018634,
   "city": "Carey",
   "city_ascii": "Carey",
   "state_id": "ID",
   "City-State": "Carey-ID",
   "state_name": "Idaho",
   "county_fips": 16013,
   "county_name": "Blaine",
   "lat": 43.3105,
   "lng": -113.9448,
   "population": 603,
   "population_proper": 603,
   "density": 70,
   "source": "polygon",
   "incorporated": true,
   "timezone": "America/Boise",
   "zips": "83320"
 },
 {
   "City-State": "Idaho City-ID",
   "id": 1840018620,
   "city": "Idaho City",
   "city_ascii": "Idaho City",
   "state_id": "ID",
   "City-State": "Idaho City-ID",
   "state_name": "Idaho",
   "county_fips": 16015,
   "county_name": "Boise",
   "lat": 43.8279,
   "lng": -115.8309,
   "population": 442,
   "population_proper": 442,
   "density": 254,
   "source": "polygon",
   "incorporated": true,
   "timezone": "America/Boise",
   "zips": "83631"
 },
 {
   "City-State": "Reubens-ID",
   "id": 1840019901,
   "city": "Reubens",
   "city_ascii": "Reubens",
   "state_id": "ID",
   "City-State": "Reubens-ID",
   "state_name": "Idaho",
   "county_fips": 16061,
   "county_name": "Lewis",
   "lat": 46.3219,
   "lng": -116.5415,
   "population": 64,
   "population_proper": 64,
   "density": 84,
   "source": "polygon",
   "incorporated": true,
   "timezone": "America/Los_Angeles",
   "zips": "83548"
 },
 {
   "City-State": "Mink Creek-ID",
   "id": 1840027202,
   "city": "Mink Creek",
   "city_ascii": "Mink Creek",
   "state_id": "ID",
   "City-State": "Mink Creek-ID",
   "state_name": "Idaho",
   "county_fips": 16041,
   "county_name": "Franklin",
   "lat": 42.2283,
   "lng": -111.7158,
   "population": null,
   "population_proper": null,
   "density": 24.5,
   "source": "point",
   "incorporated": false,
   "timezone": "America/Boise",
   "zips": "83263"
 },
 {
   "City-State": "Gibbonsville-ID",
   "id": 1840027085,
   "city": "Gibbonsville",
   "city_ascii": "Gibbonsville",
   "state_id": "ID",
   "City-State": "Gibbonsville-ID",
   "state_name": "Idaho",
   "county_fips": 16059,
   "county_name": "Lemhi",
   "lat": 45.5555,
   "lng": -113.9231,
   "population": null,
   "population_proper": null,
   "density": 4.1,
   "source": "point",
   "incorporated": false,
   "timezone": "America/Boise",
   "zips": "83463"
 },
 {
   "City-State": "Athol-ID",
   "id": 1840018401,
   "city": "Athol",
   "city_ascii": "Athol",
   "state_id": "ID",
   "City-State": "Athol-ID",
   "state_name": "Idaho",
   "county_fips": 16055,
   "county_name": "Kootenai",
   "lat": 47.9446,
   "lng": -116.7079,
   "population": 741,
   "population_proper": 741,
   "density": 365,
   "source": "polygon",
   "incorporated": true,
   "timezone": "America/Los_Angeles",
   "zips": "83801"
 },
 {
   "City-State": "Lewisville-ID",
   "id": 1840020019,
   "city": "Lewisville",
   "city_ascii": "Lewisville",
   "state_id": "ID",
   "City-State": "Lewisville-ID",
   "state_name": "Idaho",
   "county_fips": 16051,
   "county_name": "Jefferson",
   "lat": 43.6952,
   "lng": -112.0135,
   "population": 481,
   "population_proper": 481,
   "density": 297,
   "source": "polygon",
   "incorporated": true,
   "timezone": "America/Boise",
   "zips": "83431"
 },
 {
   "City-State": "North Fork-ID",
   "id": 1840027088,
   "city": "North Fork",
   "city_ascii": "North Fork",
   "state_id": "ID",
   "City-State": "North Fork-ID",
   "state_name": "Idaho",
   "county_fips": 16059,
   "county_name": "Lemhi",
   "lat": 45.406,
   "lng": -113.994,
   "population": null,
   "population_proper": null,
   "density": 1.4,
   "source": "point",
   "incorporated": false,
   "timezone": "America/Boise",
   "zips": "83466"
 },
 {
   "City-State": "Crystal-ID",
   "id": 1840027158,
   "city": "Crystal",
   "city_ascii": "Crystal",
   "state_id": "ID",
   "City-State": "Crystal-ID",
   "state_name": "Idaho",
   "county_fips": 16077,
   "county_name": "Power",
   "lat": 42.6538,
   "lng": -112.4964,
   "population": null,
   "population_proper": null,
   "density": 4.1,
   "source": "point",
   "incorporated": false,
   "timezone": "America/Boise",
   "zips": "83212"
 },
 {
   "City-State": "Kuna-ID",
   "id": 1840020047,
   "city": "Kuna",
   "city_ascii": "Kuna",
   "state_id": "ID",
   "City-State": "Kuna-ID",
   "state_name": "Idaho",
   "county_fips": 16001,
   "county_name": "Ada",
   "lat": 43.4849,
   "lng": -116.3993,
   "population": 17930,
   "population_proper": 17902,
   "density": 380,
   "source": "polygon",
   "incorporated": true,
   "timezone": "America/Boise",
   "zips": "83634 83642"
 },
 {
   "City-State": "Soda Springs-ID",
   "id": 1840021297,
   "city": "Soda Springs",
   "city_ascii": "Soda Springs",
   "state_id": "ID",
   "City-State": "Soda Springs-ID",
   "state_name": "Idaho",
   "county_fips": 16029,
   "county_name": "Caribou",
   "lat": 42.6589,
   "lng": -111.5876,
   "population": 2723,
   "population_proper": 2982,
   "density": 253,
   "source": "polygon",
   "incorporated": true,
   "timezone": "America/Boise",
   "zips": "83276"
 },
 {
   "City-State": "Conkling Park-ID",
   "id": 1840023788,
   "city": "Conkling Park",
   "city_ascii": "Conkling Park",
   "state_id": "ID",
   "City-State": "Conkling Park-ID",
   "state_name": "Idaho",
   "county_fips": 16055,
   "county_name": "Kootenai",
   "lat": 47.3997,
   "lng": -116.7704,
   "population": null,
   "population_proper": null,
   "density": 26.6,
   "source": "polygon",
   "incorporated": false,
   "timezone": "America/Los_Angeles",
   "zips": "83876"
 },
 {
   "City-State": "Moore-ID",
   "id": 1840020011,
   "city": "Moore",
   "city_ascii": "Moore",
   "state_id": "ID",
   "City-State": "Moore-ID",
   "state_name": "Idaho",
   "county_fips": 16023,
   "county_name": "Butte",
   "lat": 43.7344,
   "lng": -113.3673,
   "population": 164,
   "population_proper": 164,
   "density": 220,
   "source": "polygon",
   "incorporated": true,
   "timezone": "America/Boise",
   "zips": "83255"
 },
 {
   "City-State": "Kamiah-ID",
   "id": 1840018497,
   "city": "Kamiah",
   "city_ascii": "Kamiah",
   "state_id": "ID",
   "City-State": "Kamiah-ID",
   "state_name": "Idaho",
   "county_fips": 16061,
   "county_name": "Lewis",
   "lat": 46.2269,
   "lng": -116.0286,
   "population": 1292,
   "population_proper": 1292,
   "density": 461,
   "source": "polygon",
   "incorporated": true,
   "timezone": "America/Los_Angeles",
   "zips": "83536"
 },
 {
   "City-State": "Prairie-ID",
   "id": 1840027122,
   "city": "Prairie",
   "city_ascii": "Prairie",
   "state_id": "ID",
   "City-State": "Prairie-ID",
   "state_name": "Idaho",
   "county_fips": 16039,
   "county_name": "Elmore",
   "lat": 43.5049,
   "lng": -115.574,
   "population": null,
   "population_proper": null,
   "density": 14.6,
   "source": "point",
   "incorporated": false,
   "timezone": "America/Boise",
   "zips": "83647"
 },
 {
   "City-State": "Marion-ID",
   "id": 1840027176,
   "city": "Marion",
   "city_ascii": "Marion",
   "state_id": "ID",
   "City-State": "Marion-ID",
   "state_name": "Idaho",
   "county_fips": 16031,
   "county_name": "Cassia",
   "lat": 42.2866,
   "lng": -113.9111,
   "population": null,
   "population_proper": null,
   "density": 10.2,
   "source": "point",
   "incorporated": false,
   "timezone": "America/Boise",
   "zips": "83346"
 },
 {
   "City-State": "Palisades-ID",
   "id": 1840027153,
   "city": "Palisades",
   "city_ascii": "Palisades",
   "state_id": "ID",
   "City-State": "Palisades-ID",
   "state_name": "Idaho",
   "county_fips": 16019,
   "county_name": "Bonneville",
   "lat": 43.3519,
   "lng": -111.2177,
   "population": null,
   "population_proper": null,
   "density": 18.8,
   "source": "point",
   "incorporated": false,
   "timezone": "America/Boise",
   "zips": "83428"
 },
 {
   "City-State": "Darlington-ID",
   "id": 1840027115,
   "city": "Darlington",
   "city_ascii": "Darlington",
   "state_id": "ID",
   "City-State": "Darlington-ID",
   "state_name": "Idaho",
   "county_fips": 16023,
   "county_name": "Butte",
   "lat": 43.8135,
   "lng": -113.4147,
   "population": null,
   "population_proper": null,
   "density": 11.9,
   "source": "point",
   "incorporated": false,
   "timezone": "America/Boise",
   "zips": "83255"
 },
 {
   "City-State": "Jerome-ID",
   "id": 1840018680,
   "city": "Jerome",
   "city_ascii": "Jerome",
   "state_id": "ID",
   "City-State": "Jerome-ID",
   "state_name": "Idaho",
   "county_fips": 16053,
   "county_name": "Jerome",
   "lat": 42.7185,
   "lng": -114.5156,
   "population": 11319,
   "population_proper": 11317,
   "density": 791,
   "source": "polygon",
   "incorporated": true,
   "timezone": "America/Boise",
   "zips": "83338"
 },
 {
   "City-State": "Grant-ID",
   "id": 1840027124,
   "city": "Grant",
   "city_ascii": "Grant",
   "state_id": "ID",
   "City-State": "Grant-ID",
   "state_name": "Idaho",
   "county_fips": 16051,
   "county_name": "Jefferson",
   "lat": 43.6407,
   "lng": -112.0133,
   "population": null,
   "population_proper": null,
   "density": 48.2,
   "source": "point",
   "incorporated": false,
   "timezone": "America/Boise",
   "zips": "83442"
 },
 {
   "City-State": "Bennington-ID",
   "id": 1840024095,
   "city": "Bennington",
   "city_ascii": "Bennington",
   "state_id": "ID",
   "City-State": "Bennington-ID",
   "state_name": "Idaho",
   "county_fips": 16007,
   "county_name": "Bear Lake",
   "lat": 42.3824,
   "lng": -111.322,
   "population": null,
   "population_proper": null,
   "density": 108.6,
   "source": "polygon",
   "incorporated": false,
   "timezone": "America/Boise",
   "zips": "83254"
 },
 {
   "City-State": "Terreton-ID",
   "id": 1840027125,
   "city": "Terreton",
   "city_ascii": "Terreton",
   "state_id": "ID",
   "City-State": "Terreton-ID",
   "state_name": "Idaho",
   "county_fips": 16051,
   "county_name": "Jefferson",
   "lat": 43.8416,
   "lng": -112.4364,
   "population": null,
   "population_proper": null,
   "density": 28.7,
   "source": "point",
   "incorporated": false,
   "timezone": "America/Boise",
   "zips": "83450"
 },
 {
   "City-State": "Arbon-ID",
   "id": 1840027159,
   "city": "Arbon",
   "city_ascii": "Arbon",
   "state_id": "ID",
   "City-State": "Arbon-ID",
   "state_name": "Idaho",
   "county_fips": 16077,
   "county_name": "Power",
   "lat": 42.4557,
   "lng": -112.5683,
   "population": null,
   "population_proper": null,
   "density": 1.4,
   "source": "point",
   "incorporated": false,
   "timezone": "America/Boise",
   "zips": "83212"
 },
 {
   "City-State": "New Plymouth-ID",
   "id": 1840020014,
   "city": "New Plymouth",
   "city_ascii": "New Plymouth",
   "state_id": "ID",
   "City-State": "New Plymouth-ID",
   "state_name": "Idaho",
   "county_fips": 16075,
   "county_name": "Payette",
   "lat": 43.9706,
   "lng": -116.8188,
   "population": 1515,
   "population_proper": 1515,
   "density": 843,
   "source": "polygon",
   "incorporated": true,
   "timezone": "America/Boise",
   "zips": "83655"
 },
 {
   "City-State": "Basalt-ID",
   "id": 1840018649,
   "city": "Basalt",
   "city_ascii": "Basalt",
   "state_id": "ID",
   "City-State": "Basalt-ID",
   "state_name": "Idaho",
   "county_fips": 16011,
   "county_name": "Bingham",
   "lat": 43.3142,
   "lng": -112.1649,
   "population": 386,
   "population_proper": 386,
   "density": 504,
   "source": "polygon",
   "incorporated": true,
   "timezone": "America/Boise",
   "zips": "83236 83218"
 },
 {
   "City-State": "Drummond-ID",
   "id": 1840018609,
   "city": "Drummond",
   "city_ascii": "Drummond",
   "state_id": "ID",
   "City-State": "Drummond-ID",
   "state_name": "Idaho",
   "county_fips": 16043,
   "county_name": "Fremont",
   "lat": 43.9996,
   "lng": -111.3435,
   "population": 15,
   "population_proper": 15,
   "density": 56,
   "source": "polygon",
   "incorporated": true,
   "timezone": "America/Boise",
   "zips": "83420"
 },
 {
   "City-State": "Tensed-ID",
   "id": 1840021127,
   "city": "Tensed",
   "city_ascii": "Tensed",
   "state_id": "ID",
   "City-State": "Tensed-ID",
   "state_name": "Idaho",
   "county_fips": 16009,
   "county_name": "Benewah",
   "lat": 47.1593,
   "lng": -116.9237,
   "population": 121,
   "population_proper": 121,
   "density": 242,
   "source": "polygon",
   "incorporated": true,
   "timezone": "America/Los_Angeles",
   "zips": "83870"
 },
 {
   "City-State": "Peck-ID",
   "id": 1840019898,
   "city": "Peck",
   "city_ascii": "Peck",
   "state_id": "ID",
   "City-State": "Peck-ID",
   "state_name": "Idaho",
   "county_fips": 16069,
   "county_name": "Nez Perce",
   "lat": 46.4744,
   "lng": -116.4258,
   "population": 198,
   "population_proper": 198,
   "density": 284,
   "source": "polygon",
   "incorporated": true,
   "timezone": "America/Los_Angeles",
   "zips": "83545"
 },
 {
   "City-State": "Rockford-ID",
   "id": 1840024026,
   "city": "Rockford",
   "city_ascii": "Rockford",
   "state_id": "ID",
   "City-State": "Rockford-ID",
   "state_name": "Idaho",
   "county_fips": 16011,
   "county_name": "Bingham",
   "lat": 43.1892,
   "lng": -112.5306,
   "population": null,
   "population_proper": null,
   "density": 205.5,
   "source": "polygon",
   "incorporated": false,
   "timezone": "America/Boise",
   "zips": "83221"
 },
 {
   "City-State": "Niter-ID",
   "id": 1840027165,
   "city": "Niter",
   "city_ascii": "Niter",
   "state_id": "ID",
   "City-State": "Niter-ID",
   "state_name": "Idaho",
   "county_fips": 16029,
   "county_name": "Caribou",
   "lat": 42.5035,
   "lng": -111.7308,
   "population": null,
   "population_proper": null,
   "density": 5,
   "source": "point",
   "incorporated": false,
   "timezone": "America/Boise",
   "zips": "83241"
 },
 {
   "City-State": "Picabo-ID",
   "id": 1840027129,
   "city": "Picabo",
   "city_ascii": "Picabo",
   "state_id": "ID",
   "City-State": "Picabo-ID",
   "state_name": "Idaho",
   "county_fips": 16013,
   "county_name": "Blaine",
   "lat": 43.3057,
   "lng": -114.0678,
   "population": null,
   "population_proper": null,
   "density": 13.2,
   "source": "point",
   "incorporated": false,
   "timezone": "America/Boise",
   "zips": "83348"
 },
 {
   "City-State": "Hansen-ID",
   "id": 1840020081,
   "city": "Hansen",
   "city_ascii": "Hansen",
   "state_id": "ID",
   "City-State": "Hansen-ID",
   "state_name": "Idaho",
   "county_fips": 16083,
   "county_name": "Twin Falls",
   "lat": 42.5314,
   "lng": -114.3012,
   "population": 1245,
   "population_proper": 1245,
   "density": 1262,
   "source": "polygon",
   "incorporated": true,
   "timezone": "America/Boise",
   "zips": "83334"
 },
 {
   "City-State": "Potlatch-ID",
   "id": 1840019870,
   "city": "Potlatch",
   "city_ascii": "Potlatch",
   "state_id": "ID",
   "City-State": "Potlatch-ID",
   "state_name": "Idaho",
   "county_fips": 16057,
   "county_name": "Latah",
   "lat": 46.9232,
   "lng": -116.897,
   "population": 813,
   "population_proper": 813,
   "density": 725,
   "source": "polygon",
   "incorporated": true,
   "timezone": "America/Los_Angeles",
   "zips": "83855"
 },
 {
   "City-State": "Donnelly-ID",
   "id": 1840018586,
   "city": "Donnelly",
   "city_ascii": "Donnelly",
   "state_id": "ID",
   "City-State": "Donnelly-ID",
   "state_name": "Idaho",
   "county_fips": 16085,
   "county_name": "Valley",
   "lat": 44.7306,
   "lng": -116.0806,
   "population": 152,
   "population_proper": 152,
   "density": 128,
   "source": "polygon",
   "incorporated": true,
   "timezone": "America/Boise",
   "zips": "83615"
 },
 {
   "City-State": "Iona-ID",
   "id": 1840018645,
   "city": "Iona",
   "city_ascii": "Iona",
   "state_id": "ID",
   "City-State": "Iona-ID",
   "state_name": "Idaho",
   "county_fips": 16019,
   "county_name": "Bonneville",
   "lat": 43.5252,
   "lng": -111.931,
   "population": 2213,
   "population_proper": 2213,
   "density": 778,
   "source": "polygon",
   "incorporated": true,
   "timezone": "America/Boise",
   "zips": "83427 83401"
 },
 {
   "City-State": "Ponderay-ID",
   "id": 1840019771,
   "city": "Ponderay",
   "city_ascii": "Ponderay",
   "state_id": "ID",
   "City-State": "Ponderay-ID",
   "state_name": "Idaho",
   "county_fips": 16017,
   "county_name": "Bonner",
   "lat": 48.3113,
   "lng": -116.5395,
   "population": 1155,
   "population_proper": 1155,
   "density": 153,
   "source": "polygon",
   "incorporated": true,
   "timezone": "America/Los_Angeles",
   "zips": "83864 83852"
 },
 {
   "City-State": "Aberdeen-ID",
   "id": 1840018647,
   "city": "Aberdeen",
   "city_ascii": "Aberdeen",
   "state_id": "ID",
   "City-State": "Aberdeen-ID",
   "state_name": "Idaho",
   "county_fips": 16011,
   "county_name": "Bingham",
   "lat": 42.9441,
   "lng": -112.8384,
   "population": 1923,
   "population_proper": 1923,
   "density": 722,
   "source": "polygon",
   "incorporated": true,
   "timezone": "America/Boise",
   "zips": "83210"
 },
 {
   "City-State": "McCammon-ID",
   "id": 1840020070,
   "city": "McCammon",
   "city_ascii": "McCammon",
   "state_id": "ID",
   "City-State": "McCammon-ID",
   "state_name": "Idaho",
   "county_fips": 16005,
   "county_name": "Bannock",
   "lat": 42.6498,
   "lng": -112.1896,
   "population": 803,
   "population_proper": 803,
   "density": 138,
   "source": "polygon",
   "incorporated": true,
   "timezone": "America/Boise",
   "zips": "83250"
 },
 {
   "City-State": "Clementsville-ID",
   "id": 1840027131,
   "city": "Clementsville",
   "city_ascii": "Clementsville",
   "state_id": "ID",
   "City-State": "Clementsville-ID",
   "state_name": "Idaho",
   "county_fips": 16081,
   "county_name": "Teton",
   "lat": 43.8766,
   "lng": -111.37,
   "population": null,
   "population_proper": null,
   "density": 55.1,
   "source": "point",
   "incorporated": false,
   "timezone": "America/Boise",
   "zips": "83452"
 },
 {
   "City-State": "Gooding-ID",
   "id": 1840020063,
   "city": "Gooding",
   "city_ascii": "Gooding",
   "state_id": "ID",
   "City-State": "Gooding-ID",
   "state_name": "Idaho",
   "county_fips": 16047,
   "county_name": "Gooding",
   "lat": 42.9373,
   "lng": -114.7133,
   "population": 3651,
   "population_proper": 3495,
   "density": 913,
   "source": "polygon",
   "incorporated": true,
   "timezone": "America/Boise",
   "zips": "83330"
 },
 {
   "City-State": "Burley-ID",
   "id": 1840018683,
   "city": "Burley",
   "city_ascii": "Burley",
   "state_id": "ID",
   "City-State": "Burley-ID",
   "state_name": "Idaho",
   "county_fips": 16031,
   "county_name": "Cassia",
   "lat": 42.5371,
   "lng": -113.7933,
   "population": 16160,
   "population_proper": 10464,
   "density": 660,
   "source": "polygon",
   "incorporated": true,
   "timezone": "America/Boise",
   "zips": "83318"
 },
 {
   "City-State": "Firth-ID",
   "id": 1840020051,
   "city": "Firth",
   "city_ascii": "Firth",
   "state_id": "ID",
   "City-State": "Firth-ID",
   "state_name": "Idaho",
   "county_fips": 16011,
   "county_name": "Bingham",
   "lat": 43.3057,
   "lng": -112.1838,
   "population": 466,
   "population_proper": 466,
   "density": 333,
   "source": "polygon",
   "incorporated": true,
   "timezone": "America/Boise",
   "zips": "83236"
 },
 {
   "City-State": "Meadows-ID",
   "id": 1840027093,
   "city": "Meadows",
   "city_ascii": "Meadows",
   "state_id": "ID",
   "City-State": "Meadows-ID",
   "state_name": "Idaho",
   "county_fips": 16003,
   "county_name": "Adams",
   "lat": 44.961,
   "lng": -116.2437,
   "population": null,
   "population_proper": null,
   "density": 82.3,
   "source": "point",
   "incorporated": false,
   "timezone": "America/Boise",
   "zips": "83654"
 },
 {
   "City-State": "Eastport-ID",
   "id": 1840027043,
   "city": "Eastport",
   "city_ascii": "Eastport",
   "state_id": "ID",
   "City-State": "Eastport-ID",
   "state_name": "Idaho",
   "county_fips": 16021,
   "county_name": "Boundary",
   "lat": 48.9994,
   "lng": -116.1813,
   "population": null,
   "population_proper": null,
   "density": 8.7,
   "source": "point",
   "incorporated": false,
   "timezone": "America/Los_Angeles",
   "zips": "83826"
 },
 {
   "City-State": "Orofino-ID",
   "id": 1840019876,
   "city": "Orofino",
   "city_ascii": "Orofino",
   "state_id": "ID",
   "City-State": "Orofino-ID",
   "state_name": "Idaho",
   "county_fips": 16035,
   "county_name": "Clearwater",
   "lat": 46.4867,
   "lng": -116.2587,
   "population": 3506,
   "population_proper": 3038,
   "density": 490,
   "source": "polygon",
   "incorporated": true,
   "timezone": "America/Los_Angeles",
   "zips": "83544"
 },
 {
   "City-State": "Wendell-ID",
   "id": 1840021296,
   "city": "Wendell",
   "city_ascii": "Wendell",
   "state_id": "ID",
   "City-State": "Wendell-ID",
   "state_name": "Idaho",
   "county_fips": 16047,
   "county_name": "Gooding",
   "lat": 42.7746,
   "lng": -114.7026,
   "population": 2686,
   "population_proper": 2711,
   "density": 765,
   "source": "polygon",
   "incorporated": true,
   "timezone": "America/Boise",
   "zips": "83355"
 },
 {
   "City-State": "Salmon-ID",
   "id": 1840021213,
   "city": "Salmon",
   "city_ascii": "Salmon",
   "state_id": "ID",
   "City-State": "Salmon-ID",
   "state_name": "Idaho",
   "county_fips": 16059,
   "county_name": "Lemhi",
   "lat": 45.1744,
   "lng": -113.8945,
   "population": 3027,
   "population_proper": 3055,
   "density": 484,
   "source": "polygon",
   "incorporated": true,
   "timezone": "America/Boise",
   "zips": "83467"
 },
 {
   "City-State": "Melba-ID",
   "id": 1840020039,
   "city": "Melba",
   "city_ascii": "Melba",
   "state_id": "ID",
   "City-State": "Melba-ID",
   "state_name": "Idaho",
   "county_fips": 16027,
   "county_name": "Canyon",
   "lat": 43.3725,
   "lng": -116.5322,
   "population": 527,
   "population_proper": 527,
   "density": 518,
   "source": "polygon",
   "incorporated": true,
   "timezone": "America/Boise",
   "zips": "83641"
 },
 {
   "City-State": "Twin Falls-ID",
   "id": 1840021301,
   "city": "Twin Falls",
   "city_ascii": "Twin Falls",
   "state_id": "ID",
   "City-State": "Twin Falls-ID",
   "state_name": "Idaho",
   "county_fips": 16083,
   "county_name": "Twin Falls",
   "lat": 42.5631,
   "lng": -114.4637,
   "population": 53412,
   "population_proper": 48260,
   "density": 1017,
   "source": "polygon",
   "incorporated": true,
   "timezone": "America/Boise",
   "zips": "83301 83303"
 },
 {
   "City-State": "Warm River-ID",
   "id": 1840021257,
   "city": "Warm River",
   "city_ascii": "Warm River",
   "state_id": "ID",
   "City-State": "Warm River-ID",
   "state_name": "Idaho",
   "county_fips": 16043,
   "county_name": "Fremont",
   "lat": 44.1183,
   "lng": -111.32,
   "population": 3,
   "population_proper": 3,
   "density": 1,
   "source": "polygon",
   "incorporated": true,
   "timezone": "America/Boise",
   "zips": "83420"
 },
 {
   "City-State": "Gem-ID",
   "id": 1840027057,
   "city": "Gem",
   "city_ascii": "Gem",
   "state_id": "ID",
   "City-State": "Gem-ID",
   "state_name": "Idaho",
   "county_fips": 16079,
   "county_name": "Shoshone",
   "lat": 47.5083,
   "lng": -115.8679,
   "population": null,
   "population_proper": null,
   "density": 3.2,
   "source": "point",
   "incorporated": false,
   "timezone": "America/Los_Angeles",
   "zips": "83873"
 },
 {
   "City-State": "Princeton-ID",
   "id": 1840023849,
   "city": "Princeton",
   "city_ascii": "Princeton",
   "state_id": "ID",
   "City-State": "Princeton-ID",
   "state_name": "Idaho",
   "county_fips": 16057,
   "county_name": "Latah",
   "lat": 46.9152,
   "lng": -116.8315,
   "population": null,
   "population_proper": null,
   "density": 86.3,
   "source": "polygon",
   "incorporated": false,
   "timezone": "America/Los_Angeles",
   "zips": "83857"
 },
 {
   "City-State": "Ovid-ID",
   "id": 1840027187,
   "city": "Ovid",
   "city_ascii": "Ovid",
   "state_id": "ID",
   "City-State": "Ovid-ID",
   "state_name": "Idaho",
   "county_fips": 16007,
   "county_name": "Bear Lake",
   "lat": 42.2888,
   "lng": -111.3983,
   "population": null,
   "population_proper": null,
   "density": 37.3,
   "source": "point",
   "incorporated": false,
   "timezone": "America/Boise",
   "zips": "83254"
 },
 {
   "City-State": "Huetter-ID",
   "id": 1840019810,
   "city": "Huetter",
   "city_ascii": "Huetter",
   "state_id": "ID",
   "City-State": "Huetter-ID",
   "state_name": "Idaho",
   "county_fips": 16055,
   "county_name": "Kootenai",
   "lat": 47.7036,
   "lng": -116.85,
   "population": 105,
   "population_proper": 105,
   "density": 1329,
   "source": "polygon",
   "incorporated": true,
   "timezone": "America/Los_Angeles",
   "zips": "83814 83854"
 },
 {
   "City-State": "Glenns Ferry-ID",
   "id": 1840020016,
   "city": "Glenns Ferry",
   "city_ascii": "Glenns Ferry",
   "state_id": "ID",
   "City-State": "Glenns Ferry-ID",
   "state_name": "Idaho",
   "county_fips": 16039,
   "county_name": "Elmore",
   "lat": 42.9505,
   "lng": -115.3068,
   "population": 1235,
   "population_proper": 1235,
   "density": 248,
   "source": "polygon",
   "incorporated": true,
   "timezone": "America/Boise",
   "zips": "83623"
 },