[
 {
   "City-State": "Burney-IN",
   "id": 1840029920,
   "city": "Burney",
   "city_ascii": "Burney",
   "state_id": "IN",
   "City-State": "Burney-IN",
   "state_name": "Indiana",
   "county_fips": 18031,
   "county_name": "Decatur",
   "lat": 39.3173,
   "lng": -85.6403,
   "population": null,
   "population_proper": null,
   "density": 142.7,
   "source": "point",
   "incorporated": false,
   "timezone": "America/Indiana/Indianapolis",
   "zips": "47240"
 },
 {
   "City-State": "Delphi-IN",
   "id": 1840013728,
   "city": "Delphi",
   "city_ascii": "Delphi",
   "state_id": "IN",
   "City-State": "Delphi-IN",
   "state_name": "Indiana",
   "county_fips": 18015,
   "county_name": "Carroll",
   "lat": 40.5831,
   "lng": -86.6672,
   "population": 2990,
   "population_proper": 2877,
   "density": 407,
   "source": "polygon",
   "incorporated": true,
   "timezone": "America/Indiana/Indianapolis",
   "zips": "46923"
 },
 {
   "City-State": "Kouts-IN",
   "id": 1840009269,
   "city": "Kouts",
   "city_ascii": "Kouts",
   "state_id": "IN",
   "City-State": "Kouts-IN",
   "state_name": "Indiana",
   "county_fips": 18127,
   "county_name": "Porter",
   "lat": 41.3172,
   "lng": -87.0264,
   "population": 1962,
   "population_proper": 1962,
   "density": 677,
   "source": "polygon",
   "incorporated": true,
   "timezone": "America/Chicago",
   "zips": "46347"
 },
 {
   "City-State": "Bengal-IN",
   "id": 1840029913,
   "city": "Bengal",
   "city_ascii": "Bengal",
   "state_id": "IN",
   "City-State": "Bengal-IN",
   "state_name": "Indiana",
   "county_fips": 18145,
   "county_name": "Shelby",
   "lat": 39.4734,
   "lng": -85.9228,
   "population": null,
   "population_proper": null,
   "density": 10.6,
   "source": "point",
   "incorporated": false,
   "timezone": "America/Indiana/Indianapolis",
   "zips": "46131"
 },
 {
   "City-State": "Plainville-IN",
   "id": 1840010733,
   "city": "Plainville",
   "city_ascii": "Plainville",
   "state_id": "IN",
   "City-State": "Plainville-IN",
   "state_name": "Indiana",
   "county_fips": 18027,
   "county_name": "Daviess",
   "lat": 38.8048,
   "lng": -87.1517,
   "population": 494,
   "population_proper": 494,
   "density": 543,
   "source": "polygon",
   "incorporated": true,
   "timezone": "America/Indiana/Vincennes",
   "zips": "47568"
 },
 {
   "City-State": "Brownsburg-IN",
   "id": 1840009536,
   "city": "Brownsburg",
   "city_ascii": "Brownsburg",
   "state_id": "IN",
   "City-State": "Brownsburg-IN",
   "state_name": "Indiana",
   "county_fips": 18063,
   "county_name": "Hendricks",
   "lat": 39.833,
   "lng": -86.3828,
   "population": 25408,
   "population_proper": 25408,
   "density": 631,
   "source": "polygon",
   "incorporated": true,
   "timezone": "America/Indiana/Indianapolis",
   "zips": "46234 46112"
 },
 {
   "City-State": "Bippus-IN",
   "id": 1840029914,
   "city": "Bippus",
   "city_ascii": "Bippus",
   "state_id": "IN",
   "City-State": "Bippus-IN",
   "state_name": "Indiana",
   "county_fips": 18069,
   "county_name": "Huntington",
   "lat": 40.9442,
   "lng": -85.6239,
   "population": null,
   "population_proper": null,
   "density": 146.4,
   "source": "point",
   "incorporated": false,
   "timezone": "America/Indiana/Indianapolis",
   "zips": "46750"
 },
 {
   "City-State": "Wabash-IN",
   "id": 1840010335,
   "city": "Wabash",
   "city_ascii": "Wabash",
   "state_id": "IN",
   "City-State": "Wabash-IN",
   "state_name": "Indiana",
   "county_fips": 18169,
   "county_name": "Wabash",
   "lat": 40.8046,
   "lng": -85.831,
   "population": 10015,
   "population_proper": 10253,
   "density": 424,
   "source": "polygon",
   "incorporated": true,
   "timezone": "America/Indiana/Indianapolis",
   "zips": "46992"
 },
 {
   "City-State": "Otterbein-IN",
   "id": 1840009404,
   "city": "Otterbein",
   "city_ascii": "Otterbein",
   "state_id": "IN",
   "City-State": "Otterbein-IN",
   "state_name": "Indiana",
   "county_fips": 18007,
   "county_name": "Benton",
   "lat": 40.4886,
   "lng": -87.0936,
   "population": 1256,
   "population_proper": 1256,
   "density": 794,
   "source": "polygon",
   "incorporated": true,
   "timezone": "America/Indiana/Indianapolis",
   "zips": "47970"
 },
 {
   "City-State": "Highwoods-IN",
   "id": 1840029950,
   "city": "Highwoods",
   "city_ascii": "Highwoods",
   "state_id": "IN",
   "City-State": "Highwoods-IN",
   "state_name": "Indiana",
   "county_fips": 18097,
   "county_name": "Marion",
   "lat": 39.8442,
   "lng": -86.1833,
   "population": null,
   "population_proper": null,
   "density": 398.3,
   "source": "point",
   "incorporated": false,
   "timezone": "America/Indiana/Indianapolis",
   "zips": "46228"
 },
 {
   "City-State": "Crocker-IN",
   "id": 1840029932,
   "city": "Crocker",
   "city_ascii": "Crocker",
   "state_id": "IN",
   "City-State": "Crocker-IN",
   "state_name": "Indiana",
   "county_fips": 18127,
   "county_name": "Porter",
   "lat": 41.5881,
   "lng": -87.1223,
   "population": null,
   "population_proper": null,
   "density": 433.5,
   "source": "point",
   "incorporated": false,
   "timezone": "America/Chicago",
   "zips": "46304"
 },
 {
   "City-State": "Edwardsport-IN",
   "id": 1840010729,
   "city": "Edwardsport",
   "city_ascii": "Edwardsport",
   "state_id": "IN",
   "City-State": "Edwardsport-IN",
   "state_name": "Indiana",
   "county_fips": 18083,
   "county_name": "Knox",
   "lat": 38.8127,
   "lng": -87.2511,
   "population": 298,
   "population_proper": 298,
   "density": 413,
   "source": "polygon",
   "incorporated": true,
   "timezone": "America/Indiana/Vincennes",
   "zips": "47528"
 },
 {
   "City-State": "DeMotte-IN",
   "id": 1840030064,
   "city": "DeMotte",
   "city_ascii": "DeMotte",
   "state_id": "IN",
   "City-State": "DeMotte-IN",
   "state_name": "Indiana",
   "county_fips": 18073,
   "county_name": "Jasper",
   "lat": 41.1987,
   "lng": -87.1974,
   "population": 4915,
   "population_proper": 4030,
   "density": 431,
   "source": "polygon",
   "incorporated": true,
   "timezone": "America/Chicago",
   "zips": "46310"
 },
 {
   "City-State": "Etna Green-IN",
   "id": 1840010276,
   "city": "Etna Green",
   "city_ascii": "Etna Green",
   "state_id": "IN",
   "City-State": "Etna Green-IN",
   "state_name": "Indiana",
   "county_fips": 18085,
   "county_name": "Kosciusko",
   "lat": 41.2755,
   "lng": -86.0461,
   "population": 586,
   "population_proper": 586,
   "density": 451,
   "source": "polygon",
   "incorporated": true,
   "timezone": "America/Indiana/Indianapolis",
   "zips": "46524"
 },
 {
   "City-State": "Liverpool-IN",
   "id": 1840029975,
   "city": "Liverpool",
   "city_ascii": "Liverpool",
   "state_id": "IN",
   "City-State": "Liverpool-IN",
   "state_name": "Indiana",
   "county_fips": 18089,
   "county_name": "Lake",
   "lat": 41.5525,
   "lng": -87.2948,
   "population": null,
   "population_proper": null,
   "density": 836.6,
   "source": "point",
   "incorporated": false,
   "timezone": "America/Chicago",
   "zips": "46405"
 },
 {
   "City-State": "State Line-IN",
   "id": 1840030059,
   "city": "State Line",
   "city_ascii": "State Line",
   "state_id": "IN",
   "City-State": "State Line-IN",
   "state_name": "Indiana",
   "county_fips": 18171,
   "county_name": "Warren",
   "lat": 40.1973,
   "lng": -87.527,
   "population": null,
   "population_proper": null,
   "density": 203.8,
   "source": "point",
   "incorporated": true,
   "timezone": "America/Indiana/Indianapolis",
   "zips": "47982"
 },
 {
   "City-State": "Monroe City-IN",
   "id": 1840009732,
   "city": "Monroe City",
   "city_ascii": "Monroe City",
   "state_id": "IN",
   "City-State": "Monroe City-IN",
   "state_name": "Indiana",
   "county_fips": 18083,
   "county_name": "Knox",
   "lat": 38.6145,
   "lng": -87.3532,
   "population": 533,
   "population_proper": 533,
   "density": 764,
   "source": "polygon",
   "incorporated": true,
   "timezone": "America/Indiana/Vincennes",
   "zips": "47557"
 },
 {
   "City-State": "New Washington-IN",
   "id": 1840006209,
   "city": "New Washington",
   "city_ascii": "New Washington",
   "state_id": "IN",
   "City-State": "New Washington-IN",
   "state_name": "Indiana",
   "county_fips": 18019,
   "county_name": "Clark",
   "lat": 38.5657,
   "lng": -85.5461,
   "population": null,
   "population_proper": null,
   "density": 264.3,
   "source": "polygon",
   "incorporated": false,
   "timezone": "America/Kentucky/Louisville",
   "zips": "47147 47162"
 },
 {
   "City-State": "Shelby-IN",
   "id": 1840026272,
   "city": "Shelby",
   "city_ascii": "Shelby",
   "state_id": "IN",
   "City-State": "Shelby-IN",
   "state_name": "Indiana",
   "county_fips": 18089,
   "county_name": "Lake",
   "lat": 41.1934,
   "lng": -87.3427,
   "population": null,
   "population_proper": null,
   "density": 358.8,
   "source": "polygon",
   "incorporated": false,
   "timezone": "America/Chicago",
   "zips": "46377 46356"
 },
 {
   "City-State": "Fremont-IN",
   "id": 1840010204,
   "city": "Fremont",
   "city_ascii": "Fremont",
   "state_id": "IN",
   "City-State": "Fremont-IN",
   "state_name": "Indiana",
   "county_fips": 18151,
   "county_name": "Steuben",
   "lat": 41.7298,
   "lng": -84.9343,
   "population": 2135,
   "population_proper": 2135,
   "density": 372,
   "source": "polygon",
   "incorporated": true,
   "timezone": "America/Detroit",
   "zips": "46737"
 },
 {
   "City-State": "Judyville-IN",
   "id": 1840029960,
   "city": "Judyville",
   "city_ascii": "Judyville",
   "state_id": "IN",
   "City-State": "Judyville-IN",
   "state_name": "Indiana",
   "county_fips": 18171,
   "county_name": "Warren",
   "lat": 40.3584,
   "lng": -87.395,
   "population": null,
   "population_proper": null,
   "density": 37.5,
   "source": "point",
   "incorporated": false,
   "timezone": "America/Indiana/Indianapolis",
   "zips": "47993"
 },
 {
   "City-State": "Lydick-IN",
   "id": 1840030080,
   "city": "Lydick",
   "city_ascii": "Lydick",
   "state_id": "IN",
   "City-State": "Lydick-IN",
   "state_name": "Indiana",
   "county_fips": 18141,
   "county_name": "St. Joseph",
   "lat": 41.6934,
   "lng": -86.38,
   "population": null,
   "population_proper": null,
   "density": 315.1,
   "source": "point",
   "incorporated": false,
   "timezone": "America/Indiana/Indianapolis",
   "zips": "46628"
 },
 {
   "City-State": "Avilla-IN",
   "id": 1840010253,
   "city": "Avilla",
   "city_ascii": "Avilla",
   "state_id": "IN",
   "City-State": "Avilla-IN",
   "state_name": "Indiana",
   "county_fips": 18113,
   "county_name": "Noble",
   "lat": 41.3641,
   "lng": -85.2344,
   "population": 2411,
   "population_proper": 2411,
   "density": 628,
   "source": "polygon",
   "incorporated": true,
   "timezone": "America/Indiana/Indianapolis",
   "zips": "46710"
 },
 {
   "City-State": "Majenica-IN",
   "id": 1840029979,
   "city": "Majenica",
   "city_ascii": "Majenica",
   "state_id": "IN",
   "City-State": "Majenica-IN",
   "state_name": "Indiana",
   "county_fips": 18069,
   "county_name": "Huntington",
   "lat": 40.77,
   "lng": -85.4533,
   "population": null,
   "population_proper": null,
   "density": 94.4,
   "source": "point",
   "incorporated": false,
   "timezone": "America/Indiana/Indianapolis",
   "zips": "46750"
 },
 {
   "City-State": "Modoc-IN",
   "id": 1840009450,
   "city": "Modoc",
   "city_ascii": "Modoc",
   "state_id": "IN",
   "City-State": "Modoc-IN",
   "state_name": "Indiana",
   "county_fips": 18135,
   "county_name": "Randolph",
   "lat": 40.0455,
   "lng": -85.1261,
   "population": 190,
   "population_proper": 190,
   "density": 709,
   "source": "polygon",
   "incorporated": true,
   "timezone": "America/Indiana/Indianapolis",
   "zips": "47358"
 },
 {
   "City-State": "Shirley-IN",
   "id": 1840010567,
   "city": "Shirley",
   "city_ascii": "Shirley",
   "state_id": "IN",
   "City-State": "Shirley-IN",
   "state_name": "Indiana",
   "county_fips": 18059,
   "county_name": "Hancock",
   "lat": 39.8911,
   "lng": -85.5801,
   "population": 830,
   "population_proper": 830,
   "density": 924,
   "source": "polygon",
   "incorporated": true,
   "timezone": "America/Indiana/Indianapolis",
   "zips": "47384"
 },
 {
   "City-State": "Atlanta-IN",
   "id": 1840010498,
   "city": "Atlanta",
   "city_ascii": "Atlanta",
   "state_id": "IN",
   "City-State": "Atlanta-IN",
   "state_name": "Indiana",
   "county_fips": 18057,
   "county_name": "Hamilton",
   "lat": 40.2135,
   "lng": -86.0266,
   "population": 738,
   "population_proper": 738,
   "density": 944,
   "source": "polygon",
   "incorporated": true,
   "timezone": "America/Indiana/Indianapolis",
   "zips": "46031"
 },
 {
   "City-State": "Charlestown-IN",
   "id": 1840007489,
   "city": "Charlestown",
   "city_ascii": "Charlestown",
   "state_id": "IN",
   "City-State": "Charlestown-IN",
   "state_name": "Indiana",
   "county_fips": 18019,
   "county_name": "Clark",
   "lat": 38.427,
   "lng": -85.6677,
   "population": 7438,
   "population_proper": 8152,
   "density": 274,
   "source": "polygon",
   "incorporated": true,
   "timezone": "America/Kentucky/Louisville",
   "zips": "47111"
 },
 {
   "City-State": "Whitestown-IN",
   "id": 1840010514,
   "city": "Whitestown",
   "city_ascii": "Whitestown",
   "state_id": "IN",
   "City-State": "Whitestown-IN",
   "state_name": "Indiana",
   "county_fips": 18011,
   "county_name": "Boone",
   "lat": 39.9704,
   "lng": -86.3607,
   "population": 6590,
   "population_proper": 6590,
   "density": 183,
   "source": "polygon",
   "incorporated": true,
   "timezone": "America/Indiana/Indianapolis",
   "zips": "46052 46075"
 },
 {
   "City-State": "Batesville-IN",
   "id": 1840007379,
   "city": "Batesville",
   "city_ascii": "Batesville",
   "state_id": "IN",
   "City-State": "Batesville-IN",
   "state_name": "Indiana",
   "county_fips": 18137,
   "county_name": "Ripley",
   "lat": 39.2974,
   "lng": -85.2139,
   "population": 7922,
   "population_proper": 6679,
   "density": 419,
   "source": "polygon",
   "incorporated": true,
   "timezone": "America/Indiana/Indianapolis",
   "zips": "47006"
 },
 {
   "City-State": "Rolling Prairie-IN",
   "id": 1840026258,
   "city": "Rolling Prairie",
   "city_ascii": "Rolling Prairie",
   "state_id": "IN",
   "City-State": "Rolling Prairie-IN",
   "state_name": "Indiana",
   "county_fips": 18091,
   "county_name": "LaPorte",
   "lat": 41.6743,
   "lng": -86.6207,
   "population": null,
   "population_proper": null,
   "density": 208,
   "source": "polygon",
   "incorporated": false,
   "timezone": "America/Chicago",
   "zips": "46371"
 },
 {
   "City-State": "Holland-IN",
   "id": 1840010802,
   "city": "Holland",
   "city_ascii": "Holland",
   "state_id": "IN",
   "City-State": "Holland-IN",
   "state_name": "Indiana",
   "county_fips": 18037,
   "county_name": "Dubois",
   "lat": 38.2462,
   "lng": -87.038,
   "population": 626,
   "population_proper": 626,
   "density": 768,
   "source": "polygon",
   "incorporated": true,
   "timezone": "America/Indiana/Vincennes",
   "zips": "47541"
 },
 {
   "City-State": "Monterey-IN",
   "id": 1840009331,
   "city": "Monterey",
   "city_ascii": "Monterey",
   "state_id": "IN",
   "City-State": "Monterey-IN",
   "state_name": "Indiana",
   "county_fips": 18131,
   "county_name": "Pulaski",
   "lat": 41.1561,
   "lng": -86.4821,
   "population": 206,
   "population_proper": 206,
   "density": 434,
   "source": "polygon",
   "incorporated": true,
   "timezone": "America/Indiana/Winamac",
   "zips": "46960"
 },
 {
   "City-State": "Huntertown-IN",
   "id": 1840010297,
   "city": "Huntertown",
   "city_ascii": "Huntertown",
   "state_id": "IN",
   "City-State": "Huntertown-IN",
   "state_name": "Indiana",
   "county_fips": 18003,
   "county_name": "Allen",
   "lat": 41.2129,
   "lng": -85.1764,
   "population": 5286,
   "population_proper": 5286,
   "density": 513,
   "source": "polygon",
   "incorporated": true,
   "timezone": "America/Indiana/Indianapolis",
   "zips": "46748 46845 46818"
 },
 {
   "City-State": "New Amsterdam-IN",
   "id": 1840009825,
   "city": "New Amsterdam",
   "city_ascii": "New Amsterdam",
   "state_id": "IN",
   "City-State": "New Amsterdam-IN",
   "state_name": "Indiana",
   "county_fips": 18061,
   "county_name": "Harrison",
   "lat": 38.1019,
   "lng": -86.2754,
   "population": 27,
   "population_proper": 27,
   "density": 129,
   "source": "polygon",
   "incorporated": true,
   "timezone": "America/New_York",
   "zips": "47142"
 },
 {
   "City-State": "Monon-IN",
   "id": 1840009380,
   "city": "Monon",
   "city_ascii": "Monon",
   "state_id": "IN",
   "City-State": "Monon-IN",
   "state_name": "Indiana",
   "county_fips": 18181,
   "county_name": "White",
   "lat": 40.8642,
   "lng": -86.8788,
   "population": 1725,
   "population_proper": 1725,
   "density": 1180,
   "source": "polygon",
   "incorporated": true,
   "timezone": "America/Indiana/Indianapolis",
   "zips": "47959"
 },
 {
   "City-State": "Fowler-IN",
   "id": 1840010379,
   "city": "Fowler",
   "city_ascii": "Fowler",
   "state_id": "IN",
   "City-State": "Fowler-IN",
   "state_name": "Indiana",
   "county_fips": 18007,
   "county_name": "Benton",
   "lat": 40.6171,
   "lng": -87.3185,
   "population": 2265,
   "population_proper": 2265,
   "density": 626,
   "source": "polygon",
   "incorporated": true,
   "timezone": "America/Indiana/Indianapolis",
   "zips": "47944"
 },
 {
   "City-State": "Jonesville-IN",
   "id": 1840010670,
   "city": "Jonesville",
   "city_ascii": "Jonesville",
   "state_id": "IN",
   "City-State": "Jonesville-IN",
   "state_name": "Indiana",
   "county_fips": 18005,
   "county_name": "Bartholomew",
   "lat": 39.0598,
   "lng": -85.8878,
   "population": 185,
   "population_proper": 185,
   "density": 503,
   "source": "polygon",
   "incorporated": true,
   "timezone": "America/Indiana/Indianapolis",
   "zips": "47201 47247"
 },
 {
   "City-State": "Chesterfield-IN",
   "id": 1840009437,
   "city": "Chesterfield",
   "city_ascii": "Chesterfield",
   "state_id": "IN",
   "City-State": "Chesterfield-IN",
   "state_name": "Indiana",
   "county_fips": 18095,
   "county_name": "Madison",
   "lat": 40.113,
   "lng": -85.5942,
   "population": 2484,
   "population_proper": 2484,
   "density": 695,
   "source": "polygon",
   "incorporated": true,
   "timezone": "America/Indiana/Indianapolis",
   "zips": "46017"
 },
 {
   "City-State": "Lincoln Hills-IN",
   "id": 1840029973,
   "city": "Lincoln Hills",
   "city_ascii": "Lincoln Hills",
   "state_id": "IN",
   "City-State": "Lincoln Hills-IN",
   "state_name": "Indiana",
   "county_fips": 18127,
   "county_name": "Porter",
   "lat": 41.4684,
   "lng": -87.1078,
   "population": null,
   "population_proper": null,
   "density": 197.5,
   "source": "point",
   "incorporated": false,
   "timezone": "America/Chicago",
   "zips": "46385"
 },
 {
   "City-State": "McCordsville-IN",
   "id": 1840009526,
   "city": "McCordsville",
   "city_ascii": "McCordsville",
   "state_id": "IN",
   "City-State": "McCordsville-IN",
   "state_name": "Indiana",
   "county_fips": 18059,
   "county_name": "Hancock",
   "lat": 39.9036,
   "lng": -85.923,
   "population": 6485,
   "population_proper": 6485,
   "density": 509,
   "source": "polygon",
   "incorporated": true,
   "timezone": "America/Indiana/Indianapolis",
   "zips": "46055"
 },
 {
   "City-State": "Goshen-IN",
   "id": 1840013733,
   "city": "Goshen",
   "city_ascii": "Goshen",
   "state_id": "IN",
   "City-State": "Goshen-IN",
   "state_name": "Indiana",
   "county_fips": 18039,
   "county_name": "Elkhart",
   "lat": 41.5741,
   "lng": -85.8304,
   "population": 33034,
   "population_proper": 33034,
   "density": 765,
   "source": "polygon",
   "incorporated": true,
   "timezone": "America/Indiana/Indianapolis",
   "zips": "46528 46526 46527"
 },
 {
   "City-State": "Bucktown-IN",
   "id": 1840029917,
   "city": "Bucktown",
   "city_ascii": "Bucktown",
   "state_id": "IN",
   "City-State": "Bucktown-IN",
   "state_name": "Indiana",
   "county_fips": 18153,
   "county_name": "Sullivan",
   "lat": 38.9948,
   "lng": -87.26,
   "population": null,
   "population_proper": null,
   "density": 5.1,
   "source": "point",
   "incorporated": false,
   "timezone": "America/Indiana/Indianapolis",
   "zips": "47848"
 },
 {
   "City-State": "Williams Creek-IN",
   "id": 1840010576,
   "city": "Williams Creek",
   "city_ascii": "Williams Creek",
   "state_id": "IN",
   "City-State": "Williams Creek-IN",
   "state_name": "Indiana",
   "county_fips": 18097,
   "county_name": "Marion",
   "lat": 39.9001,
   "lng": -86.1502,
   "population": 421,
   "population_proper": 421,
   "density": 486,
   "source": "polygon",
   "incorporated": true,
   "timezone": "America/Indiana/Indianapolis",
   "zips": "46240"
 },
 {
   "City-State": "Blountsville-IN",
   "id": 1840009478,
   "city": "Blountsville",
   "city_ascii": "Blountsville",
   "state_id": "IN",
   "City-State": "Blountsville-IN",
   "state_name": "Indiana",
   "county_fips": 18065,
   "county_name": "Henry",
   "lat": 40.0599,
   "lng": -85.2384,
   "population": 131,
   "population_proper": 131,
   "density": 450,
   "source": "polygon",
   "incorporated": true,
   "timezone": "America/Indiana/Indianapolis",
   "zips": "47354"
 },
 {
   "City-State": "Herbst-IN",
   "id": 1840024290,
   "city": "Herbst",
   "city_ascii": "Herbst",
   "state_id": "IN",
   "City-State": "Herbst-IN",
   "state_name": "Indiana",
   "county_fips": 18053,
   "county_name": "Grant",
   "lat": 40.5145,
   "lng": -85.7815,
   "population": null,
   "population_proper": null,
   "density": 53.3,
   "source": "polygon",
   "incorporated": false,
   "timezone": "America/Indiana/Indianapolis",
   "zips": "46953"
 },
 {
   "City-State": "Pierceton-IN",
   "id": 1840010275,
   "city": "Pierceton",
   "city_ascii": "Pierceton",
   "state_id": "IN",
   "City-State": "Pierceton-IN",
   "state_name": "Indiana",
   "county_fips": 18085,
   "county_name": "Kosciusko",
   "lat": 41.1992,
   "lng": -85.7032,
   "population": 1028,
   "population_proper": 1028,
   "density": 318,
   "source": "polygon",
   "incorporated": true,
   "timezone": "America/Indiana/Indianapolis",
   "zips": "46562"
 },
 {
   "City-State": "Crandall-IN",
   "id": 1840009821,
   "city": "Crandall",
   "city_ascii": "Crandall",
   "state_id": "IN",
   "City-State": "Crandall-IN",
   "state_name": "Indiana",
   "county_fips": 18061,
   "county_name": "Harrison",
   "lat": 38.288,
   "lng": -86.066,
   "population": 152,
   "population_proper": 152,
   "density": 576,
   "source": "polygon",
   "incorporated": true,
   "timezone": "America/Kentucky/Louisville",
   "zips": "47114"
 },
 {
   "City-State": "Lagro-IN",
   "id": 1840014647,
   "city": "Lagro",
   "city_ascii": "Lagro",
   "state_id": "IN",
   "City-State": "Lagro-IN",
   "state_name": "Indiana",
   "county_fips": 18169,
   "county_name": "Wabash",
   "lat": 40.8392,
   "lng": -85.7276,
   "population": 402,
   "population_proper": 402,
   "density": 261,
   "source": "polygon",
   "incorporated": true,
   "timezone": "America/Indiana/Indianapolis",
   "zips": "46941"
 },
 {
   "City-State": "Vallonia-IN",
   "id": 1840026692,
   "city": "Vallonia",
   "city_ascii": "Vallonia",
   "state_id": "IN",
   "City-State": "Vallonia-IN",
   "state_name": "Indiana",
   "county_fips": 18071,
   "county_name": "Jackson",
   "lat": 38.8462,
   "lng": -86.0992,
   "population": null,
   "population_proper": null,
   "density": 218.4,
   "source": "polygon",
   "incorporated": false,
   "timezone": "America/Indiana/Indianapolis",
   "zips": "47281"
 },
 {
   "City-State": "Thorntown-IN",
   "id": 1840010512,
   "city": "Thorntown",
   "city_ascii": "Thorntown",
   "state_id": "IN",
   "City-State": "Thorntown-IN",
   "state_name": "Indiana",
   "county_fips": 18011,
   "county_name": "Boone",
   "lat": 40.1293,
   "lng": -86.61,
   "population": 1487,
   "population_proper": 1487,
   "density": 950,
   "source": "polygon",
   "incorporated": true,
   "timezone": "America/Indiana/Indianapolis",
   "zips": "46071"
 },
 {
   "City-State": "Alpine-IN",
   "id": 1840029905,
   "city": "Alpine",
   "city_ascii": "Alpine",
   "state_id": "IN",
   "City-State": "Alpine-IN",
   "state_name": "Indiana",
   "county_fips": 18041,
   "county_name": "Fayette",
   "lat": 39.5539,
   "lng": -85.1758,
   "population": null,
   "population_proper": null,
   "density": 33.1,
   "source": "point",
   "incorporated": false,
   "timezone": "America/Indiana/Indianapolis",
   "zips": "47331"
 },
 {
   "City-State": "Griffith-IN",
   "id": 1840010225,
   "city": "Griffith",
   "city_ascii": "Griffith",
   "state_id": "IN",
   "City-State": "Griffith-IN",
   "state_name": "Indiana",
   "county_fips": 18089,
   "county_name": "Lake",
   "lat": 41.5279,
   "lng": -87.424,
   "population": 16252,
   "population_proper": 16252,
   "density": 811,
   "source": "polygon",
   "incorporated": true,
   "timezone": "America/Chicago",
   "zips": "46319"
 },
 {
   "City-State": "Mecca-IN",
   "id": 1840009523,
   "city": "Mecca",
   "city_ascii": "Mecca",
   "state_id": "IN",
   "City-State": "Mecca-IN",
   "state_name": "Indiana",
   "county_fips": 18121,
   "county_name": "Parke",
   "lat": 39.7271,
   "lng": -87.3317,
   "population": 320,
   "population_proper": 320,
   "density": 314,
   "source": "polygon",
   "incorporated": true,
   "timezone": "America/Indiana/Indianapolis",
   "zips": "47860 47872"
 },
 {
   "City-State": "Winchester-IN",
   "id": 1840014526,
   "city": "Winchester",
   "city_ascii": "Winchester",
   "state_id": "IN",
   "City-State": "Winchester-IN",
   "state_name": "Indiana",
   "county_fips": 18135,
   "county_name": "Randolph",
   "lat": 40.172,
   "lng": -84.9765,
   "population": 4791,
   "population_proper": 4751,
   "density": 532,
   "source": "polygon",
   "incorporated": true,
   "timezone": "America/Indiana/Indianapolis",
   "zips": "47394"
 },
 {
   "City-State": "Jeffersonville-IN",
   "id": 1840008642,
   "city": "Jeffersonville",
   "city_ascii": "Jeffersonville",
   "state_id": "IN",
   "City-State": "Jeffersonville-IN",
   "state_name": "Indiana",
   "county_fips": 18019,
   "county_name": "Clark",
   "lat": 38.3377,
   "lng": -85.7026,
   "population": 47124,
   "population_proper": 47124,
   "density": 533,
   "source": "polygon",
   "incorporated": true,
   "timezone": "America/Kentucky/Louisville",
   "zips": "47130 47131 47132 47133 47134 47144 47190 47199"
 },
 {
   "City-State": "Lebanon-IN",
   "id": 1840008387,
   "city": "Lebanon",
   "city_ascii": "Lebanon",
   "state_id": "IN",
   "City-State": "Lebanon-IN",
   "state_name": "Indiana",
   "county_fips": 18011,
   "county_name": "Boone",
   "lat": 40.0318,
   "lng": -86.455,
   "population": 15713,
   "population_proper": 16098,
   "density": 397,
   "source": "polygon",
   "incorporated": true,
   "timezone": "America/Indiana/Indianapolis",
   "zips": "46052"
 },
 {
   "City-State": "Denver-IN",
   "id": 1840009366,
   "city": "Denver",
   "city_ascii": "Denver",
   "state_id": "IN",
   "City-State": "Denver-IN",
   "state_name": "Indiana",
   "county_fips": 18103,
   "county_name": "Miami",
   "lat": 40.8646,
   "lng": -86.0771,
   "population": 471,
   "population_proper": 471,
   "density": 780,
   "source": "polygon",
   "incorporated": true,
   "timezone": "America/Indiana/Indianapolis",
   "zips": "46926"
 },
 {
   "City-State": "Medaryville-IN",
   "id": 1840009330,
   "city": "Medaryville",
   "city_ascii": "Medaryville",
   "state_id": "IN",
   "City-State": "Medaryville-IN",
   "state_name": "Indiana",
   "county_fips": 18131,
   "county_name": "Pulaski",
   "lat": 41.0803,
   "lng": -86.8905,
   "population": 581,
   "population_proper": 581,
   "density": 488,
   "source": "polygon",
   "incorporated": true,
   "timezone": "America/Indiana/Winamac",
   "zips": "47957"
 },
 {
   "City-State": "Burlington-IN",
   "id": 1840009406,
   "city": "Burlington",
   "city_ascii": "Burlington",
   "state_id": "IN",
   "City-State": "Burlington-IN",
   "state_name": "Indiana",
   "county_fips": 18015,
   "county_name": "Carroll",
   "lat": 40.4808,
   "lng": -86.3943,
   "population": 600,
   "population_proper": 600,
   "density": 388,
   "source": "polygon",
   "incorporated": true,
   "timezone": "America/Indiana/Indianapolis",
   "zips": "46915"
 },
 {
   "City-State": "Somerset-IN",
   "id": 1840026385,
   "city": "Somerset",
   "city_ascii": "Somerset",
   "state_id": "IN",
   "City-State": "Somerset-IN",
   "state_name": "Indiana",
   "county_fips": 18169,
   "county_name": "Wabash",
   "lat": 40.6695,
   "lng": -85.8318,
   "population": null,
   "population_proper": null,
   "density": 336.1,
   "source": "polygon",
   "incorporated": false,
   "timezone": "America/Indiana/Indianapolis",
   "zips": "46984 46940"
 },
 {
   "City-State": "Hamlet-IN",
   "id": 1840010199,
   "city": "Hamlet",
   "city_ascii": "Hamlet",
   "state_id": "IN",
   "City-State": "Hamlet-IN",
   "state_name": "Indiana",
   "county_fips": 18149,
   "county_name": "Starke",
   "lat": 41.3792,
   "lng": -86.5831,
   "population": 769,
   "population_proper": 769,
   "density": 307,
   "source": "polygon",
   "incorporated": true,
   "timezone": "America/Chicago",
   "zips": "46532"
 },
 {
   "City-State": "Norway-IN",
   "id": 1840005345,
   "city": "Norway",
   "city_ascii": "Norway",
   "state_id": "IN",
   "City-State": "Norway-IN",
   "state_name": "Indiana",
   "county_fips": 18181,
   "county_name": "White",
   "lat": 40.7797,
   "lng": -86.7719,
   "population": null,
   "population_proper": null,
   "density": 376.1,
   "source": "polygon",
   "incorporated": false,
   "timezone": "America/Indiana/Indianapolis",
   "zips": "47960"
 },
 {
   "City-State": "Whiteland-IN",
   "id": 1840010618,
   "city": "Whiteland",
   "city_ascii": "Whiteland",
   "state_id": "IN",
   "City-State": "Whiteland-IN",
   "state_name": "Indiana",
   "county_fips": 18081,
   "county_name": "Johnson",
   "lat": 39.5507,
   "lng": -86.0742,
   "population": 4346,
   "population_proper": 4346,
   "density": 365,
   "source": "polygon",
   "incorporated": true,
   "timezone": "America/Indiana/Indianapolis",
   "zips": "46184"
 },
 {
   "City-State": "South Haven-IN",
   "id": 1840004834,
   "city": "South Haven",
   "city_ascii": "South Haven",
   "state_id": "IN",
   "City-State": "South Haven-IN",
   "state_name": "Indiana",
   "county_fips": 18127,
   "county_name": "Porter",
   "lat": 41.5438,
   "lng": -87.1367,
   "population": null,
   "population_proper": null,
   "density": 2091.6,
   "source": "polygon",
   "incorporated": false,
   "timezone": "America/Chicago",
   "zips": "46385"
 },
 {
   "City-State": "Churubusco-IN",
   "id": 1840009318,
   "city": "Churubusco",
   "city_ascii": "Churubusco",
   "state_id": "IN",
   "City-State": "Churubusco-IN",
   "state_name": "Indiana",
   "county_fips": 18183,
   "county_name": "Whitley",
   "lat": 41.2308,
   "lng": -85.3201,
   "population": 1811,
   "population_proper": 1811,
   "density": 636,
   "source": "polygon",
   "incorporated": true,
   "timezone": "America/Indiana/Indianapolis",
   "zips": "46723"
 },
 {
   "City-State": "Lamar-IN",
   "id": 1840029964,
   "city": "Lamar",
   "city_ascii": "Lamar",
   "state_id": "IN",
   "City-State": "Lamar-IN",
   "state_name": "Indiana",
   "county_fips": 18147,
   "county_name": "Spencer",
   "lat": 38.0692,
   "lng": -86.9055,
   "population": null,
   "population_proper": null,
   "density": 85.8,
   "source": "point",
   "incorporated": false,
   "timezone": "America/Chicago",
   "zips": "47550"
 },
 {
   "City-State": "Spring Hills-IN",
   "id": 1840030026,
   "city": "Spring Hills",
   "city_ascii": "Spring Hills",
   "state_id": "IN",
   "City-State": "Spring Hills-IN",
   "state_name": "Indiana",
   "county_fips": 18097,
   "county_name": "Marion",
   "lat": 39.8346,
   "lng": -86.1926,
   "population": 101,
   "population_proper": 101,
   "density": 363,
   "source": "polygon",
   "incorporated": true,
   "timezone": "America/Indiana/Indianapolis",
   "zips": "46228"
 },
 {
   "City-State": "Saint Meinrad-IN",
   "id": 1840026783,
   "city": "Saint Meinrad",
   "city_ascii": "Saint Meinrad",
   "state_id": "IN",
   "City-State": "Saint Meinrad-IN",
   "state_name": "Indiana",
   "county_fips": 18147,
   "county_name": "Spencer",
   "lat": 38.1692,
   "lng": -86.8257,
   "population": null,
   "population_proper": null,
   "density": 526.7,
   "source": "polygon",
   "incorporated": false,
   "timezone": "America/Chicago",
   "zips": "47577"
 },
 {
   "City-State": "Clear Creek-IN",
   "id": 1840030052,
   "city": "Clear Creek",
   "city_ascii": "Clear Creek",
   "state_id": "IN",
   "City-State": "Clear Creek-IN",
   "state_name": "Indiana",
   "county_fips": 18105,
   "county_name": "Monroe",
   "lat": 39.1092,
   "lng": -86.54,
   "population": null,
   "population_proper": null,
   "density": 639.3,
   "source": "point",
   "incorporated": false,
   "timezone": "America/Indiana/Indianapolis",
   "zips": "47403"
 },
 {
   "City-State": "Hammond-IN",
   "id": 1840007092,
   "city": "Hammond",
   "city_ascii": "Hammond",
   "state_id": "IN",
   "City-State": "Hammond-IN",
   "state_name": "Indiana",
   "county_fips": 18089,
   "county_name": "Lake",
   "lat": 41.617,
   "lng": -87.4908,
   "population": 77134,
   "population_proper": 77134,
   "density": 1307,
   "source": "polygon",
   "incorporated": true,
   "timezone": "America/Chicago",
   "zips": "46394 46323 46320 46327 46324"
 },
 {
   "City-State": "Kniman-IN",
   "id": 1840030062,
   "city": "Kniman",
   "city_ascii": "Kniman",
   "state_id": "IN",
   "City-State": "Kniman-IN",
   "state_name": "Indiana",
   "county_fips": 18073,
   "county_name": "Jasper",
   "lat": 41.1442,
   "lng": -87.1375,
   "population": null,
   "population_proper": null,
   "density": 60.5,
   "source": "point",
   "incorporated": false,
   "timezone": "America/Chicago",
   "zips": "46392"
 },
 {
   "City-State": "Hamilton-IN",
   "id": 1840010205,
   "city": "Hamilton",
   "city_ascii": "Hamilton",
   "state_id": "IN",
   "City-State": "Hamilton-IN",
   "state_name": "Indiana",
   "county_fips": 18151,
   "county_name": "Steuben",
   "lat": 41.5407,
   "lng": -84.9203,
   "population": 1530,
   "population_proper": 1530,
   "density": 273,
   "source": "polygon",
   "incorporated": true,
   "timezone": "America/Indiana/Indianapolis",
   "zips": "46742"
 },
 {
   "City-State": "Pimento-IN",
   "id": 1840030001,
   "city": "Pimento",
   "city_ascii": "Pimento",
   "state_id": "IN",
   "City-State": "Pimento-IN",
   "state_name": "Indiana",
   "county_fips": 18167,
   "county_name": "Vigo",
   "lat": 39.3095,
   "lng": -87.3792,
   "population": null,
   "population_proper": null,
   "density": 29.2,
   "source": "point",
   "incorporated": false,
   "timezone": "America/Indiana/Indianapolis",
   "zips": "47866"
 },
 {
   "City-State": "Freetown-IN",
   "id": 1840026691,
   "city": "Freetown",
   "city_ascii": "Freetown",
   "state_id": "IN",
   "City-State": "Freetown-IN",
   "state_name": "Indiana",
   "county_fips": 18071,
   "county_name": "Jackson",
   "lat": 38.9775,
   "lng": -86.1273,
   "population": null,
   "population_proper": null,
   "density": 292.6,
   "source": "polygon",
   "incorporated": false,
   "timezone": "America/Indiana/Indianapolis",
   "zips": "47235"
 },
 {
   "City-State": "Emma-IN",
   "id": 1840029939,
   "city": "Emma",
   "city_ascii": "Emma",
   "state_id": "IN",
   "City-State": "Emma-IN",
   "state_name": "Indiana",
   "county_fips": 18087,
   "county_name": "LaGrange",
   "lat": 41.6112,
   "lng": -85.5411,
   "population": null,
   "population_proper": null,
   "density": 43.8,
   "source": "point",
   "incorporated": false,
   "timezone": "America/Indiana/Indianapolis",
   "zips": "46571"
 },
 {
   "City-State": "Brownstown-IN",
   "id": 1840009709,
   "city": "Brownstown",
   "city_ascii": "Brownstown",
   "state_id": "IN",
   "City-State": "Brownstown-IN",
   "state_name": "Indiana",
   "county_fips": 18071,
   "county_name": "Jackson",
   "lat": 38.8791,
   "lng": -86.0466,
   "population": 3127,
   "population_proper": 2927,
   "density": 707,
   "source": "polygon",
   "incorporated": true,
   "timezone": "America/Indiana/Indianapolis",
   "zips": "47220"
 },
 {
   "City-State": "Freedom-IN",
   "id": 1840029943,
   "city": "Freedom",
   "city_ascii": "Freedom",
   "state_id": "IN",
   "City-State": "Freedom-IN",
   "state_name": "Indiana",
   "county_fips": 18119,
   "county_name": "Owen",
   "lat": 39.207,
   "lng": -86.8692,
   "population": null,
   "population_proper": null,
   "density": 56.5,
   "source": "point",
   "incorporated": false,
   "timezone": "America/Indiana/Indianapolis",
   "zips": "47431"
 },
 {
   "City-State": "Warren Park-IN",
   "id": 1840010575,
   "city": "Warren Park",
   "city_ascii": "Warren Park",
   "state_id": "IN",
   "City-State": "Warren Park-IN",
   "state_name": "Indiana",
   "county_fips": 18097,
   "county_name": "Marion",
   "lat": 39.7832,
   "lng": -86.0517,
   "population": 1543,
   "population_proper": 1543,
   "density": 1325,
   "source": "polygon",
   "incorporated": true,
   "timezone": "America/Indiana/Indianapolis",
   "zips": "46219"
 },
 {
   "City-State": "Dupont-IN",
   "id": 1840010725,
   "city": "Dupont",
   "city_ascii": "Dupont",
   "state_id": "IN",
   "City-State": "Dupont-IN",
   "state_name": "Indiana",
   "county_fips": 18077,
   "county_name": "Jefferson",
   "lat": 38.8915,
   "lng": -85.5169,
   "population": 338,
   "population_proper": 338,
   "density": 128,
   "source": "polygon",
   "incorporated": true,
   "timezone": "America/Indiana/Indianapolis",
   "zips": "47231"
 },
 {
   "City-State": "Uniondale-IN",
   "id": 1840010357,
   "city": "Uniondale",
   "city_ascii": "Uniondale",
   "state_id": "IN",
   "City-State": "Uniondale-IN",
   "state_name": "Indiana",
   "county_fips": 18179,
   "county_name": "Wells",
   "lat": 40.8299,
   "lng": -85.2415,
   "population": 310,
   "population_proper": 310,
   "density": 570,
   "source": "polygon",
   "incorporated": true,
   "timezone": "America/Indiana/Indianapolis",
   "zips": "46791"
 },
 {
   "City-State": "Silver Lake-IN",
   "id": 1840010279,
   "city": "Silver Lake",
   "city_ascii": "Silver Lake",
   "state_id": "IN",
   "City-State": "Silver Lake-IN",
   "state_name": "Indiana",
   "county_fips": 18085,
   "county_name": "Kosciusko",
   "lat": 41.0744,
   "lng": -85.8923,
   "population": 924,
   "population_proper": 924,
   "density": 662,
   "source": "polygon",
   "incorporated": true,
   "timezone": "America/Indiana/Indianapolis",
   "zips": "46982"
 },
 {
   "City-State": "West College Corner-IN",
   "id": 1840010608,
   "city": "West College Corner",
   "city_ascii": "West College Corner",
   "state_id": "IN",
   "City-State": "West College Corner-IN",
   "state_name": "Indiana",
   "county_fips": 18161,
   "county_name": "Union",
   "lat": 39.5694,
   "lng": -84.819,
   "population": 645,
   "population_proper": 645,
   "density": 933,
   "source": "polygon",
   "incorporated": true,
   "timezone": "America/New_York",
   "zips": "47003"
 },
 {
   "City-State": "English-IN",
   "id": 1840010810,
   "city": "English",
   "city_ascii": "English",
   "state_id": "IN",
   "City-State": "English-IN",
   "state_name": "Indiana",
   "county_fips": 18025,
   "county_name": "Crawford",
   "lat": 38.3408,
   "lng": -86.4592,
   "population": 632,
   "population_proper": 632,
   "density": 80,
   "source": "polygon",
   "incorporated": true,
   "timezone": "America/Indiana/Marengo",
   "zips": "47118"
 },
 {
   "City-State": "Medora-IN",
   "id": 1840009711,
   "city": "Medora",
   "city_ascii": "Medora",
   "state_id": "IN",
   "City-State": "Medora-IN",
   "state_name": "Indiana",
   "county_fips": 18071,
   "county_name": "Jackson",
   "lat": 38.8247,
   "lng": -86.1715,
   "population": 689,
   "population_proper": 689,
   "density": 808,
   "source": "polygon",
   "incorporated": true,
   "timezone": "America/Indiana/Indianapolis",
   "zips": "47260"
 },
 {
   "City-State": "Spencer-IN",
   "id": 1840010655,
   "city": "Spencer",
   "city_ascii": "Spencer",
   "state_id": "IN",
   "City-State": "Spencer-IN",
   "state_name": "Indiana",
   "county_fips": 18119,
   "county_name": "Owen",
   "lat": 39.2861,
   "lng": -86.7726,
   "population": 2271,
   "population_proper": 2271,
   "density": 553,
   "source": "polygon",
   "incorporated": true,
   "timezone": "America/Indiana/Indianapolis",
   "zips": "47460"
 },
 {
   "City-State": "Saint Mary-of-the-Woods-IN",
   "id": 1840030014,
   "city": "Saint Mary-of-the-Woods",
   "city_ascii": "Saint Mary-of-the-Woods",
   "state_id": "IN",
   "City-State": "Saint Mary-of-the-Woods-IN",
   "state_name": "Indiana",
   "county_fips": 18167,
   "county_name": "Vigo",
   "lat": 39.512,
   "lng": -87.4628,
   "population": null,
   "population_proper": null,
   "density": 209.4,
   "source": "polygon",
   "incorporated": false,
   "timezone": "America/Indiana/Indianapolis",
   "zips": "47876 47885"
 },
 {
   "City-State": "Borden-IN",
   "id": 1840009664,
   "city": "Borden",
   "city_ascii": "Borden",
   "state_id": "IN",
   "City-State": "Borden-IN",
   "state_name": "Indiana",
   "county_fips": 18019,
   "county_name": "Clark",
   "lat": 38.4699,
   "lng": -85.9491,
   "population": 911,
   "population_proper": 911,
   "density": 252,
   "source": "polygon",
   "incorporated": true,
   "timezone": "America/Kentucky/Louisville",
   "zips": "47106"
 },
 {
   "City-State": "Burket-IN",
   "id": 1840009303,
   "city": "Burket",
   "city_ascii": "Burket",
   "state_id": "IN",
   "City-State": "Burket-IN",
   "state_name": "Indiana",
   "county_fips": 18085,
   "county_name": "Kosciusko",
   "lat": 41.155,
   "lng": -85.9687,
   "population": 194,
   "population_proper": 194,
   "density": 1050,
   "source": "polygon",
   "incorporated": true,
   "timezone": "America/Indiana/Indianapolis",
   "zips": "46508"
 },
 {
   "City-State": "Lyons-IN",
   "id": 1840009694,
   "city": "Lyons",
   "city_ascii": "Lyons",
   "state_id": "IN",
   "City-State": "Lyons-IN",
   "state_name": "Indiana",
   "county_fips": 18055,
   "county_name": "Greene",
   "lat": 38.9879,
   "lng": -87.0813,
   "population": 720,
   "population_proper": 720,
   "density": 320,
   "source": "polygon",
   "incorporated": true,
   "timezone": "America/Indiana/Indianapolis",
   "zips": "47443"
 },
 {
   "City-State": "Wingate-IN",
   "id": 1840010504,
   "city": "Wingate",
   "city_ascii": "Wingate",
   "state_id": "IN",
   "City-State": "Wingate-IN",
   "state_name": "Indiana",
   "county_fips": 18107,
   "county_name": "Montgomery",
   "lat": 40.1724,
   "lng": -87.0726,
   "population": 262,
   "population_proper": 262,
   "density": 469,
   "source": "polygon",
   "incorporated": true,
   "timezone": "America/Indiana/Indianapolis",
   "zips": "47994"
 },
 {
   "City-State": "West Baden Springs-IN",
   "id": 1840010779,
   "city": "West Baden Springs",
   "city_ascii": "West Baden Springs",
   "state_id": "IN",
   "City-State": "West Baden Springs-IN",
   "state_name": "Indiana",
   "county_fips": 18117,
   "county_name": "Orange",
   "lat": 38.5675,
   "lng": -86.612,
   "population": 555,
   "population_proper": 555,
   "density": 196,
   "source": "polygon",
   "incorporated": true,
   "timezone": "America/Indiana/Indianapolis",
   "zips": "47469"
 },
 {
   "City-State": "Hatfield-IN",
   "id": 1840026784,
   "city": "Hatfield",
   "city_ascii": "Hatfield",
   "state_id": "IN",
   "City-State": "Hatfield-IN",
   "state_name": "Indiana",
   "county_fips": 18147,
   "county_name": "Spencer",
   "lat": 37.903,
   "lng": -87.2217,
   "population": null,
   "population_proper": null,
   "density": 429.6,
   "source": "polygon",
   "incorporated": false,
   "timezone": "America/Chicago",
   "zips": "47634 47617"
 },
 {
   "City-State": "Terre Haute-IN",
   "id": 1840009671,
   "city": "Terre Haute",
   "city_ascii": "Terre Haute",
   "state_id": "IN",
   "City-State": "Terre Haute-IN",
   "state_name": "Indiana",
   "county_fips": 18167,
   "county_name": "Vigo",
   "lat": 39.4654,
   "lng": -87.3763,
   "population": 92841,
   "population_proper": 60852,
   "density": 680,
   "source": "polygon",
   "incorporated": true,
   "timezone": "America/Indiana/Indianapolis",
   "zips": "47804 47807 47802 47803 47809 47801 47808"
 },
 {
   "City-State": "Corydon-IN",
   "id": 1840009820,
   "city": "Corydon",
   "city_ascii": "Corydon",
   "state_id": "IN",
   "City-State": "Corydon-IN",
   "state_name": "Indiana",
   "county_fips": 18061,
   "county_name": "Harrison",
   "lat": 38.2132,
   "lng": -86.1259,
   "population": 5578,
   "population_proper": 3163,
   "density": 740,
   "source": "polygon",
   "incorporated": true,
   "timezone": "America/Kentucky/Louisville",
   "zips": "47112"
 },
 {
   "City-State": "Sweetser-IN",
   "id": 1840010397,
   "city": "Sweetser",
   "city_ascii": "Sweetser",
   "state_id": "IN",
   "City-State": "Sweetser-IN",
   "state_name": "Indiana",
   "county_fips": 18053,
   "county_name": "Grant",
   "lat": 40.5688,
   "lng": -85.7668,
   "population": 1177,
   "population_proper": 1177,
   "density": 448,
   "source": "polygon",
   "incorporated": true,
   "timezone": "America/Indiana/Indianapolis",
   "zips": "46987 46952"
 },
 {
   "City-State": "LaPorte-IN",
   "id": 1840030063,
   "city": "LaPorte",
   "city_ascii": "LaPorte",
   "state_id": "IN",
   "City-State": "LaPorte-IN",
   "state_name": "Indiana",
   "county_fips": 18091,
   "county_name": "LaPorte",
   "lat": 41.6077,
   "lng": -86.7137,
   "population": 21732,
   "population_proper": 21732,
   "density": 718,
   "source": "polygon",
   "incorporated": true,
   "timezone": "America/Chicago",
   "zips": "46350 46352"
 },
 {
   "City-State": "Spring Grove-IN",
   "id": 1840010547,
   "city": "Spring Grove",
   "city_ascii": "Spring Grove",
   "state_id": "IN",
   "City-State": "Spring Grove-IN",
   "state_name": "Indiana",
   "county_fips": 18177,
   "county_name": "Wayne",
   "lat": 39.8472,
   "lng": -84.8912,
   "population": 330,
   "population_proper": 330,
   "density": 419,
   "source": "polygon",
   "incorporated": true,
   "timezone": "America/Indiana/Indianapolis",
   "zips": "47374"
 },
 {
   "City-State": "Orleans-IN",
   "id": 1840009657,
   "city": "Orleans",
   "city_ascii": "Orleans",
   "state_id": "IN",
   "City-State": "Orleans-IN",
   "state_name": "Indiana",
   "county_fips": 18117,
   "county_name": "Orange",
   "lat": 38.6615,
   "lng": -86.4517,
   "population": 2097,
   "population_proper": 2097,
   "density": 473,
   "source": "polygon",
   "incorporated": true,
   "timezone": "America/Indiana/Indianapolis",
   "zips": "47452"
 },
 {
   "City-State": "Russellville-IN",
   "id": 1840010595,
   "city": "Russellville",
   "city_ascii": "Russellville",
   "state_id": "IN",
   "City-State": "Russellville-IN",
   "state_name": "Indiana",
   "county_fips": 18133,
   "county_name": "Putnam",
   "lat": 39.8568,
   "lng": -86.9832,
   "population": 349,
   "population_proper": 349,
   "density": 668,
   "source": "polygon",
   "incorporated": true,
   "timezone": "America/Indiana/Indianapolis",
   "zips": "46175"
 },
 {
   "City-State": "Markle-IN",
   "id": 1840009361,
   "city": "Markle",
   "city_ascii": "Markle",
   "state_id": "IN",
   "City-State": "Markle-IN",
   "state_name": "Indiana",
   "county_fips": 18069,
   "county_name": "Huntington",
   "lat": 40.8275,
   "lng": -85.3393,
   "population": 1088,
   "population_proper": 1088,
   "density": 342,
   "source": "polygon",
   "incorporated": true,
   "timezone": "America/Indiana/Indianapolis",
   "zips": "46770"
 },
 {
   "City-State": "Middlebury-IN",
   "id": 1840009239,
   "city": "Middlebury",
   "city_ascii": "Middlebury",
   "state_id": "IN",
   "City-State": "Middlebury-IN",
   "state_name": "Indiana",
   "county_fips": 18039,
   "county_name": "Elkhart",
   "lat": 41.6701,
   "lng": -85.7073,
   "population": 4247,
   "population_proper": 3575,
   "density": 357,
   "source": "polygon",
   "incorporated": true,
   "timezone": "America/Indiana/Indianapolis",
   "zips": "46540"
 },
 {
   "City-State": "Odell-IN",
   "id": 1840029997,
   "city": "Odell",
   "city_ascii": "Odell",
   "state_id": "IN",
   "City-State": "Odell-IN",
   "state_name": "Indiana",
   "county_fips": 18157,
   "county_name": "Tippecanoe",
   "lat": 40.2878,
   "lng": -87.0742,
   "population": null,
   "population_proper": null,
   "density": 46.8,
   "source": "point",
   "incorporated": false,
   "timezone": "America/Indiana/Indianapolis",
   "zips": "47918"
 },
 {
   "City-State": "New Elliott-IN",
   "id": 1840029993,
   "city": "New Elliott",
   "city_ascii": "New Elliott",
   "state_id": "IN",
   "City-State": "New Elliott-IN",
   "state_name": "Indiana",
   "county_fips": 18089,
   "county_name": "Lake",
   "lat": 41.4931,
   "lng": -87.4175,
   "population": null,
   "population_proper": null,
   "density": 256.1,
   "source": "point",
   "incorporated": false,
   "timezone": "America/Chicago",
   "zips": "46319"
 },
 {
   "City-State": "Scottsburg-IN",
   "id": 1840009788,
   "city": "Scottsburg",
   "city_ascii": "Scottsburg",
   "state_id": "IN",
   "City-State": "Scottsburg-IN",
   "state_name": "Indiana",
   "county_fips": 18143,
   "county_name": "Scott",
   "lat": 38.6862,
   "lng": -85.7839,
   "population": 11326,
   "population_proper": 6684,
   "density": 511,
   "source": "polygon",
   "incorporated": true,
   "timezone": "America/Indiana/Indianapolis",
   "zips": "47170"
 },
 {
   "City-State": "Munster-IN",
   "id": 1840009262,
   "city": "Munster",
   "city_ascii": "Munster",
   "state_id": "IN",
   "City-State": "Munster-IN",
   "state_name": "Indiana",
   "county_fips": 18089,
   "county_name": "Lake",
   "lat": 41.5468,
   "lng": -87.5037,
   "population": 22825,
   "population_proper": 22825,
   "density": 1165,
   "source": "polygon",
   "incorporated": true,
   "timezone": "America/Chicago",
   "zips": "46321"
 },
 {
   "City-State": "Redkey-IN",
   "id": 1840010422,
   "city": "Redkey",
   "city_ascii": "Redkey",
   "state_id": "IN",
   "City-State": "Redkey-IN",
   "state_name": "Indiana",
   "county_fips": 18075,
   "county_name": "Jay",
   "lat": 40.3481,
   "lng": -85.1524,
   "population": 1338,
   "population_proper": 1338,
   "density": 552,
   "source": "polygon",
   "incorporated": true,
   "timezone": "America/Indiana/Indianapolis",
   "zips": "47373"
 },
 {
   "City-State": "Holton-IN",
   "id": 1840010674,
   "city": "Holton",
   "city_ascii": "Holton",
   "state_id": "IN",
   "City-State": "Holton-IN",
   "state_name": "Indiana",
   "county_fips": 18137,
   "county_name": "Ripley",
   "lat": 39.0752,
   "lng": -85.3847,
   "population": 471,
   "population_proper": 471,
   "density": 100,
   "source": "polygon",
   "incorporated": true,
   "timezone": "America/Indiana/Indianapolis",
   "zips": "47023"
 },
 {
   "City-State": "Laketon-IN",
   "id": 1840026384,
   "city": "Laketon",
   "city_ascii": "Laketon",
   "state_id": "IN",
   "City-State": "Laketon-IN",
   "state_name": "Indiana",
   "county_fips": 18169,
   "county_name": "Wabash",
   "lat": 40.9807,
   "lng": -85.8393,
   "population": null,
   "population_proper": null,
   "density": 271.7,
   "source": "polygon",
   "incorporated": false,
   "timezone": "America/Indiana/Indianapolis",
   "zips": "46943 46962"
 },
 {
   "City-State": "Richmond-IN",
   "id": 1840014176,
   "city": "Richmond",
   "city_ascii": "Richmond",
   "state_id": "IN",
   "City-State": "Richmond-IN",
   "state_name": "Indiana",
   "county_fips": 18177,
   "county_name": "Wayne",
   "lat": 39.8318,
   "lng": -84.8904,
   "population": 42759,
   "population_proper": 35664,
   "density": 573,
   "source": "polygon",
   "incorporated": true,
   "timezone": "America/Indiana/Indianapolis",
   "zips": "47374 47375"
 },
 {
   "City-State": "Gessie-IN",
   "id": 1840029944,
   "city": "Gessie",
   "city_ascii": "Gessie",
   "state_id": "IN",
   "City-State": "Gessie-IN",
   "state_name": "Indiana",
   "county_fips": 18165,
   "county_name": "Vermillion",
   "lat": 40.0825,
   "lng": -87.4997,
   "population": null,
   "population_proper": null,
   "density": 48.2,
   "source": "point",
   "incorporated": false,
   "timezone": "America/Indiana/Indianapolis",
   "zips": "47974"
 },
 {
   "City-State": "Town of Pines-IN",
   "id": 1840030032,
   "city": "Town of Pines",
   "city_ascii": "Town of Pines",
   "state_id": "IN",
   "City-State": "Town of Pines-IN",
   "state_name": "Indiana",
   "county_fips": 18127,
   "county_name": "Porter",
   "lat": 41.6882,
   "lng": -86.9518,
   "population": 700,
   "population_proper": 700,
   "density": 119,
   "source": "polygon",
   "incorporated": true,
   "timezone": "America/Chicago",
   "zips": "46360"
 },
 {
   "City-State": "Roachdale-IN",
   "id": 1840010594,
   "city": "Roachdale",
   "city_ascii": "Roachdale",
   "state_id": "IN",
   "City-State": "Roachdale-IN",
   "state_name": "Indiana",
   "county_fips": 18133,
   "county_name": "Putnam",
   "lat": 39.8491,
   "lng": -86.8004,
   "population": 895,
   "population_proper": 895,
   "density": 681,
   "source": "polygon",
   "incorporated": true,
   "timezone": "America/Indiana/Indianapolis",
   "zips": "46172"
 },
 {
   "City-State": "New Market-IN",
   "id": 1840009463,
   "city": "New Market",
   "city_ascii": "New Market",
   "state_id": "IN",
   "City-State": "New Market-IN",
   "state_name": "Indiana",
   "county_fips": 18107,
   "county_name": "Montgomery",
   "lat": 39.9527,
   "lng": -86.9217,
   "population": 629,
   "population_proper": 629,
   "density": 884,
   "source": "polygon",
   "incorporated": true,
   "timezone": "America/Indiana/Indianapolis",
   "zips": "47965"
 },
 {
   "City-State": "New Salem-IN",
   "id": 1840029995,
   "city": "New Salem",
   "city_ascii": "New Salem",
   "state_id": "IN",
   "City-State": "New Salem-IN",
   "state_name": "Indiana",
   "county_fips": 18139,
   "county_name": "Rush",
   "lat": 39.5423,
   "lng": -85.358,
   "population": null,
   "population_proper": null,
   "density": 20.2,
   "source": "point",
   "incorporated": false,
   "timezone": "America/Indiana/Indianapolis",
   "zips": "46173"
 },
 {
   "City-State": "Gas City-IN",
   "id": 1840008338,
   "city": "Gas City",
   "city_ascii": "Gas City",
   "state_id": "IN",
   "City-State": "Gas City-IN",
   "state_name": "Indiana",
   "county_fips": 18053,
   "county_name": "Grant",
   "lat": 40.4897,
   "lng": -85.5984,
   "population": 5874,
   "population_proper": 5874,
   "density": 501,
   "source": "polygon",
   "incorporated": true,
   "timezone": "America/Indiana/Indianapolis",
   "zips": "46933"
 },
 {
   "City-State": "Columbus-IN",
   "id": 1840013714,
   "city": "Columbus",
   "city_ascii": "Columbus",
   "state_id": "IN",
   "City-State": "Columbus-IN",
   "state_name": "Indiana",
   "county_fips": 18005,
   "county_name": "Bartholomew",
   "lat": 39.2094,
   "lng": -85.9178,
   "population": 58406,
   "population_proper": 46850,
   "density": 655,
   "source": "polygon",
   "incorporated": true,
   "timezone": "America/Indiana/Indianapolis",
   "zips": "47203 47201 47202"
 },
 {
   "City-State": "Buena Vista-IN",
   "id": 1840029918,
   "city": "Buena Vista",
   "city_ascii": "Buena Vista",
   "state_id": "IN",
   "City-State": "Buena Vista-IN",
   "state_name": "Indiana",
   "county_fips": 18047,
   "county_name": "Franklin",
   "lat": 39.4389,
   "lng": -85.2725,
   "population": null,
   "population_proper": null,
   "density": 61.5,
   "source": "point",
   "incorporated": false,
   "timezone": "America/Indiana/Indianapolis",
   "zips": "47024"
 },
 {
   "City-State": "Trevlac-IN",
   "id": 1840030033,
   "city": "Trevlac",
   "city_ascii": "Trevlac",
   "state_id": "IN",
   "City-State": "Trevlac-IN",
   "state_name": "Indiana",
   "county_fips": 18013,
   "county_name": "Brown",
   "lat": 39.2656,
   "lng": -86.3369,
   "population": null,
   "population_proper": null,
   "density": 59.9,
   "source": "point",
   "incorporated": false,
   "timezone": "America/Indiana/Indianapolis",
   "zips": "47448"
 },
 {
   "City-State": "Seymour-IN",
   "id": 1840009708,
   "city": "Seymour",
   "city_ascii": "Seymour",
   "state_id": "IN",
   "City-State": "Seymour-IN",
   "state_name": "Indiana",
   "county_fips": 18071,
   "county_name": "Jackson",
   "lat": 38.9474,
   "lng": -85.8914,
   "population": 22918,
   "population_proper": 19384,
   "density": 625,
   "source": "polygon",
   "incorporated": true,
   "timezone": "America/Indiana/Indianapolis",
   "zips": "47274"
 },
 {
   "City-State": "South Bend-IN",
   "id": 1840009241,
   "city": "South Bend",
   "city_ascii": "South Bend",
   "state_id": "IN",
   "City-State": "South Bend-IN",
   "state_name": "Indiana",
   "county_fips": 18141,
   "county_name": "St. Joseph",
   "lat": 41.6771,
   "lng": -86.269,
   "population": 279698,
   "population_proper": 101735,
   "density": 950,
   "source": "polygon",
   "incorporated": true,
   "timezone": "America/Indiana/Indianapolis",
   "zips": "46616 46635 46628 46601 46614 46613 46619 46617 46615 46624 46626 46634 46660 46680 46699"
 },
 {
   "City-State": "Vernon-IN",
   "id": 1840010695,
   "city": "Vernon",
   "city_ascii": "Vernon",
   "state_id": "IN",
   "City-State": "Vernon-IN",
   "state_name": "Indiana",
   "county_fips": 18079,
   "county_name": "Jennings",
   "lat": 38.9853,
   "lng": -85.6106,
   "population": 309,
   "population_proper": 309,
   "density": 501,
   "source": "polygon",
   "incorporated": true,
   "timezone": "America/Indiana/Indianapolis",
   "zips": "47282 47265"
 },
 {
   "City-State": "Wanatah-IN",
   "id": 1840010202,
   "city": "Wanatah",
   "city_ascii": "Wanatah",
   "state_id": "IN",
   "City-State": "Wanatah-IN",
   "state_name": "Indiana",
   "county_fips": 18091,
   "county_name": "LaPorte",
   "lat": 41.4304,
   "lng": -86.8926,
   "population": 1017,
   "population_proper": 1017,
   "density": 276,
   "source": "polygon",
   "incorporated": true,
   "timezone": "America/Chicago",
   "zips": "46390"
 },
 {
   "City-State": "Akron-IN",
   "id": 1840010309,
   "city": "Akron",
   "city_ascii": "Akron",
   "state_id": "IN",
   "City-State": "Akron-IN",
   "state_name": "Indiana",
   "county_fips": 18049,
   "county_name": "Fulton",
   "lat": 41.0389,
   "lng": -86.0249,
   "population": 1122,
   "population_proper": 1122,
   "density": 947,
   "source": "polygon",
   "incorporated": true,
   "timezone": "America/Indiana/Indianapolis",
   "zips": "46910"
 },
 {
   "City-State": "Carbon-IN",
   "id": 1840009672,
   "city": "Carbon",
   "city_ascii": "Carbon",
   "state_id": "IN",
   "City-State": "Carbon-IN",
   "state_name": "Indiana",
   "county_fips": 18021,
   "county_name": "Clay",
   "lat": 39.5991,
   "lng": -87.1078,
   "population": 389,
   "population_proper": 389,
   "density": 943,
   "source": "polygon",
   "incorporated": true,
   "timezone": "America/Indiana/Indianapolis",
   "zips": "47837"
 },
 {
   "City-State": "Kewanna-IN",
   "id": 1840010308,
   "city": "Kewanna",
   "city_ascii": "Kewanna",
   "state_id": "IN",
   "City-State": "Kewanna-IN",
   "state_name": "Indiana",
   "county_fips": 18049,
   "county_name": "Fulton",
   "lat": 41.0194,
   "lng": -86.4125,
   "population": 597,
   "population_proper": 597,
   "density": 430,
   "source": "polygon",
   "incorporated": true,
   "timezone": "America/Indiana/Indianapolis",
   "zips": "46939"
 },
 {
   "City-State": "Royal Center-IN",
   "id": 1840010361,
   "city": "Royal Center",
   "city_ascii": "Royal Center",
   "state_id": "IN",
   "City-State": "Royal Center-IN",
   "state_name": "Indiana",
   "county_fips": 18017,
   "county_name": "Cass",
   "lat": 40.8644,
   "lng": -86.5,
   "population": 835,
   "population_proper": 835,
   "density": 541,
   "source": "polygon",
   "incorporated": true,
   "timezone": "America/Indiana/Indianapolis",
   "zips": "46978"
 },
 {
   "City-State": "Cory-IN",
   "id": 1840029931,
   "city": "Cory",
   "city_ascii": "Cory",
   "state_id": "IN",
   "City-State": "Cory-IN",
   "state_name": "Indiana",
   "county_fips": 18021,
   "county_name": "Clay",
   "lat": 39.3823,
   "lng": -87.2058,
   "population": null,
   "population_proper": null,
   "density": 52.7,
   "source": "point",
   "incorporated": false,
   "timezone": "America/Indiana/Indianapolis",
   "zips": "47846"
 },
 {
   "City-State": "Attica-IN",
   "id": 1840007244,
   "city": "Attica",
   "city_ascii": "Attica",
   "state_id": "IN",
   "City-State": "Attica-IN",
   "state_name": "Indiana",
   "county_fips": 18045,
   "county_name": "Fountain",
   "lat": 40.2877,
   "lng": -87.2449,
   "population": 4948,
   "population_proper": 3092,
   "density": 739,
   "source": "polygon",
   "incorporated": true,
   "timezone": "America/Indiana/Indianapolis",
   "zips": "47918"
 },
 {
   "City-State": "West Lafayette-IN",
   "id": 1840010430,
   "city": "West Lafayette",
   "city_ascii": "West Lafayette",
   "state_id": "IN",
   "City-State": "West Lafayette-IN",
   "state_name": "Indiana",
   "county_fips": 18157,
   "county_name": "Tippecanoe",
   "lat": 40.4432,
   "lng": -86.9239,
   "population": 45872,
   "population_proper": 45872,
   "density": 1283,
   "source": "polygon",
   "incorporated": true,
   "timezone": "America/Indiana/Indianapolis",
   "zips": "47906 47907 47996"
 },
 {
   "City-State": "New Harmony-IN",
   "id": 1840013890,
   "city": "New Harmony",
   "city_ascii": "New Harmony",
   "state_id": "IN",
   "City-State": "New Harmony-IN",
   "state_name": "Indiana",
   "county_fips": 18129,
   "county_name": "Posey",
   "lat": 38.1291,
   "lng": -87.9308,
   "population": 763,
   "population_proper": 763,
   "density": 390,
   "source": "polygon",
   "incorporated": true,
   "timezone": "America/Chicago",
   "zips": "47631"
 },
 {
   "City-State": "Milan-IN",
   "id": 1840009620,
   "city": "Milan",
   "city_ascii": "Milan",
   "state_id": "IN",
   "City-State": "Milan-IN",
   "state_name": "Indiana",
   "county_fips": 18137,
   "county_name": "Ripley",
   "lat": 39.1255,
   "lng": -85.127,
   "population": 1886,
   "population_proper": 1886,
   "density": 363,
   "source": "polygon",
   "incorporated": true,
   "timezone": "America/Indiana/Indianapolis",
   "zips": "47031"
 },
 {
   "City-State": "Fair Oaks-IN",
   "id": 1840030054,
   "city": "Fair Oaks",
   "city_ascii": "Fair Oaks",
   "state_id": "IN",
   "City-State": "Fair Oaks-IN",
   "state_name": "Indiana",
   "county_fips": 18073,
   "county_name": "Jasper",
   "lat": 41.075,
   "lng": -87.2575,
   "population": null,
   "population_proper": null,
   "density": 33.3,
   "source": "point",
   "incorporated": false,
   "timezone": "America/Chicago",
   "zips": "47943"
 },
 {
   "City-State": "Burrows-IN",
   "id": 1840029921,
   "city": "Burrows",
   "city_ascii": "Burrows",
   "state_id": "IN",
   "City-State": "Burrows-IN",
   "state_name": "Indiana",
   "county_fips": 18015,
   "county_name": "Carroll",
   "lat": 40.6767,
   "lng": -86.5075,
   "population": null,
   "population_proper": null,
   "density": 46.3,
   "source": "point",
   "incorporated": false,
   "timezone": "America/Indiana/Indianapolis",
   "zips": "46917"
 },
 {
   "City-State": "New Pekin-IN",
   "id": 1840009794,
   "city": "New Pekin",
   "city_ascii": "New Pekin",
   "state_id": "IN",
   "City-State": "New Pekin-IN",
   "state_name": "Indiana",
   "county_fips": 18175,
   "county_name": "Washington",
   "lat": 38.5029,
   "lng": -86.0152,
   "population": 1371,
   "population_proper": 1371,
   "density": 223,
   "source": "polygon",
   "incorporated": true,
   "timezone": "America/Indiana/Indianapolis",
   "zips": "47165"
 },
 {
   "City-State": "Greens Fork-IN",
   "id": 1840010545,
   "city": "Greens Fork",
   "city_ascii": "Greens Fork",
   "state_id": "IN",
   "City-State": "Greens Fork-IN",
   "state_name": "Indiana",
   "county_fips": 18177,
   "county_name": "Wayne",
   "lat": 39.8917,
   "lng": -85.0411,
   "population": 408,
   "population_proper": 408,
   "density": 1124,
   "source": "polygon",
   "incorporated": true,
   "timezone": "America/Indiana/Indianapolis",
   "zips": "47345"
 },
 {
   "City-State": "Morocco-IN",
   "id": 1840009325,
   "city": "Morocco",
   "city_ascii": "Morocco",
   "state_id": "IN",
   "City-State": "Morocco-IN",
   "state_name": "Indiana",
   "county_fips": 18111,
   "county_name": "Newton",
   "lat": 40.9445,
   "lng": -87.4503,
   "population": 1109,
   "population_proper": 1109,
   "density": 401,
   "source": "polygon",
   "incorporated": true,
   "timezone": "America/Chicago",
   "zips": "47963"
 },
 {
   "City-State": "Vera Cruz-IN",
   "id": 1840010358,
   "city": "Vera Cruz",
   "city_ascii": "Vera Cruz",
   "state_id": "IN",
   "City-State": "Vera Cruz-IN",
   "state_name": "Indiana",
   "county_fips": 18179,
   "county_name": "Wells",
   "lat": 40.7016,
   "lng": -85.0795,
   "population": 80,
   "population_proper": 80,
   "density": 304,
   "source": "polygon",
   "incorporated": true,
   "timezone": "America/Indiana/Indianapolis",
   "zips": "46714"
 },
 {
   "City-State": "Dyer-IN",
   "id": 1840010224,
   "city": "Dyer",
   "city_ascii": "Dyer",
   "state_id": "IN",
   "City-State": "Dyer-IN",
   "state_name": "Indiana",
   "county_fips": 18089,
   "county_name": "Lake",
   "lat": 41.4977,
   "lng": -87.5088,
   "population": 15941,
   "population_proper": 15941,
   "density": 992,
   "source": "polygon",
   "incorporated": true,
   "timezone": "America/Chicago",
   "zips": "46311"
 },
 {
   "City-State": "Clinton-IN",
   "id": 1840007263,
   "city": "Clinton",
   "city_ascii": "Clinton",
   "state_id": "IN",
   "City-State": "Clinton-IN",
   "state_name": "Indiana",
   "county_fips": 18165,
   "county_name": "Vermillion",
   "lat": 39.6607,
   "lng": -87.4046,
   "population": 6294,
   "population_proper": 4794,
   "density": 827,
   "source": "polygon",
   "incorporated": true,
   "timezone": "America/Indiana/Indianapolis",
   "zips": "47842"
 },
 {
   "City-State": "Azalia-IN",
   "id": 1840029911,
   "city": "Azalia",
   "city_ascii": "Azalia",
   "state_id": "IN",
   "City-State": "Azalia-IN",
   "state_name": "Indiana",
   "county_fips": 18005,
   "county_name": "Bartholomew",
   "lat": 39.0917,
   "lng": -85.8472,
   "population": null,
   "population_proper": null,
   "density": 54.8,
   "source": "point",
   "incorporated": false,
   "timezone": "America/Indiana/Indianapolis",
   "zips": "47232"
 },
 {
   "City-State": "Dunreith-IN",
   "id": 1840010530,
   "city": "Dunreith",
   "city_ascii": "Dunreith",
   "state_id": "IN",
   "City-State": "Dunreith-IN",
   "state_name": "Indiana",
   "county_fips": 18065,
   "county_name": "Henry",
   "lat": 39.8028,
   "lng": -85.4364,
   "population": 173,
   "population_proper": 173,
   "density": 536,
   "source": "polygon",
   "incorporated": true,
   "timezone": "America/Indiana/Indianapolis",
   "zips": "47337"
 },
 {
   "City-State": "Upland-IN",
   "id": 1840010398,
   "city": "Upland",
   "city_ascii": "Upland",
   "state_id": "IN",
   "City-State": "Upland-IN",
   "state_name": "Indiana",
   "county_fips": 18053,
   "county_name": "Grant",
   "lat": 40.4639,
   "lng": -85.5008,
   "population": 3287,
   "population_proper": 3781,
   "density": 465,
   "source": "polygon",
   "incorporated": true,
   "timezone": "America/Indiana/Indianapolis",
   "zips": "46989"
 },
 {
   "City-State": "Albion-IN",
   "id": 1840010252,
   "city": "Albion",
   "city_ascii": "Albion",
   "state_id": "IN",
   "City-State": "Albion-IN",
   "state_name": "Indiana",
   "county_fips": 18113,
   "county_name": "Noble",
   "lat": 41.3966,
   "lng": -85.4187,
   "population": 2320,
   "population_proper": 2320,
   "density": 469,
   "source": "polygon",
   "incorporated": true,
   "timezone": "America/Indiana/Indianapolis",
   "zips": "46701"
 },
 {
   "City-State": "Saint Leon-IN",
   "id": 1840010677,
   "city": "Saint Leon",
   "city_ascii": "Saint Leon",
   "state_id": "IN",
   "City-State": "Saint Leon-IN",
   "state_name": "Indiana",
   "county_fips": 18029,
   "county_name": "Dearborn",
   "lat": 39.2933,
   "lng": -84.9639,
   "population": 666,
   "population_proper": 666,
   "density": 36,
   "source": "polygon",
   "incorporated": true,
   "timezone": "America/New_York",
   "zips": "47060 47012"
 },
 {
   "City-State": "Patricksburg-IN",
   "id": 1840030000,
   "city": "Patricksburg",
   "city_ascii": "Patricksburg",
   "state_id": "IN",
   "City-State": "Patricksburg-IN",
   "state_name": "Indiana",
   "county_fips": 18119,
   "county_name": "Owen",
   "lat": 39.3156,
   "lng": -86.9592,
   "population": null,
   "population_proper": null,
   "density": 81.2,
   "source": "point",
   "incorporated": false,
   "timezone": "America/Indiana/Indianapolis",
   "zips": "47455"
 },
 {
   "City-State": "Greenfield-IN",
   "id": 1840014673,
   "city": "Greenfield",
   "city_ascii": "Greenfield",
   "state_id": "IN",
   "City-State": "Greenfield-IN",
   "state_name": "Indiana",
   "county_fips": 18059,
   "county_name": "Hancock",
   "lat": 39.7937,
   "lng": -85.7739,
   "population": 21709,
   "population_proper": 21709,
   "density": 618,
   "source": "polygon",
   "incorporated": true,
   "timezone": "America/Indiana/Indianapolis",
   "zips": "46140 46129 46154"
 },
 {
   "City-State": "Greendale-IN",
   "id": 1840008522,
   "city": "Greendale",
   "city_ascii": "Greendale",
   "state_id": "IN",
   "City-State": "Greendale-IN",
   "state_name": "Indiana",
   "county_fips": 18029,
   "county_name": "Dearborn",
   "lat": 39.1317,
   "lng": -84.851,
   "population": 4402,
   "population_proper": 4402,
   "density": 297,
   "source": "polygon",
   "incorporated": true,
   "timezone": "America/New_York",
   "zips": "47025"
 },
 {
   "City-State": "Bath-IN",
   "id": 1840029912,
   "city": "Bath",
   "city_ascii": "Bath",
   "state_id": "IN",
   "City-State": "Bath-IN",
   "state_name": "Indiana",
   "county_fips": 18047,
   "county_name": "Franklin",
   "lat": 39.5084,
   "lng": -84.8625,
   "population": null,
   "population_proper": null,
   "density": 9.8,
   "source": "point",
   "incorporated": false,
   "timezone": "America/Indiana/Indianapolis",
   "zips": "47010"
 },
 {
   "City-State": "Westphalia-IN",
   "id": 1840024607,
   "city": "Westphalia",
   "city_ascii": "Westphalia",
   "state_id": "IN",
   "City-State": "Westphalia-IN",
   "state_name": "Indiana",
   "county_fips": 18083,
   "county_name": "Knox",
   "lat": 38.8665,
   "lng": -87.2277,
   "population": null,
   "population_proper": null,
   "density": 76.2,
   "source": "polygon",
   "incorporated": false,
   "timezone": "America/Indiana/Vincennes",
   "zips": "47596"
 },
 {
   "City-State": "Coal City-IN",
   "id": 1840029929,
   "city": "Coal City",
   "city_ascii": "Coal City",
   "state_id": "IN",
   "City-State": "Coal City-IN",
   "state_name": "Indiana",
   "county_fips": 18119,
   "county_name": "Owen",
   "lat": 39.2303,
   "lng": -87.0458,
   "population": null,
   "population_proper": null,
   "density": 132.6,
   "source": "point",
   "incorporated": false,
   "timezone": "America/Indiana/Indianapolis",
   "zips": "47427"
 },
 {
   "City-State": "Amboy-IN",
   "id": 1840010343,
   "city": "Amboy",
   "city_ascii": "Amboy",
   "state_id": "IN",
   "City-State": "Amboy-IN",
   "state_name": "Indiana",
   "county_fips": 18103,
   "county_name": "Miami",
   "lat": 40.602,
   "lng": -85.9275,
   "population": 379,
   "population_proper": 379,
   "density": 417,
   "source": "polygon",
   "incorporated": true,
   "timezone": "America/Indiana/Indianapolis",
   "zips": "46911"
 },
 {
   "City-State": "Centerville-IN",
   "id": 1840009494,
   "city": "Centerville",
   "city_ascii": "Centerville",
   "state_id": "IN",
   "City-State": "Centerville-IN",
   "state_name": "Indiana",
   "county_fips": 18177,
   "county_name": "Wayne",
   "lat": 39.8295,
   "lng": -84.9936,
   "population": 2563,
   "population_proper": 2563,
   "density": 336,
   "source": "polygon",
   "incorporated": true,
   "timezone": "America/Indiana/Indianapolis",
   "zips": "47330"
 },
 {
   "City-State": "Kentland-IN",
   "id": 1840010306,
   "city": "Kentland",
   "city_ascii": "Kentland",
   "state_id": "IN",
   "City-State": "Kentland-IN",
   "state_name": "Indiana",
   "county_fips": 18111,
   "county_name": "Newton",
   "lat": 40.7739,
   "lng": -87.4465,
   "population": 1683,
   "population_proper": 1683,
   "density": 481,
   "source": "polygon",
   "incorporated": true,
   "timezone": "America/Chicago",
   "zips": "47951"
 },
 {
   "City-State": "Crows Nest-IN",
   "id": 1840009531,
   "city": "Crows Nest",
   "city_ascii": "Crows Nest",
   "state_id": "IN",
   "City-State": "Crows Nest-IN",
   "state_name": "Indiana",
   "county_fips": 18097,
   "county_name": "Marion",
   "lat": 39.8566,
   "lng": -86.1691,
   "population": 75,
   "population_proper": 75,
   "density": 67,
   "source": "polygon",
   "incorporated": true,
   "timezone": "America/Indiana/Indianapolis",
   "zips": "46228"
 },
 {
   "City-State": "New Chicago-IN",
   "id": 1840009263,
   "city": "New Chicago",
   "city_ascii": "New Chicago",
   "state_id": "IN",
   "City-State": "New Chicago-IN",
   "state_name": "Indiana",
   "county_fips": 18089,
   "county_name": "Lake",
   "lat": 41.5587,
   "lng": -87.2718,
   "population": 1956,
   "population_proper": 1956,
   "density": 1128,
   "source": "polygon",
   "incorporated": true,
   "timezone": "America/Chicago",
   "zips": "46342 46405"
 },
 {
   "City-State": "Onward-IN",
   "id": 1840009382,
   "city": "Onward",
   "city_ascii": "Onward",
   "state_id": "IN",
   "City-State": "Onward-IN",
   "state_name": "Indiana",
   "county_fips": 18017,
   "county_name": "Cass",
   "lat": 40.6946,
   "lng": -86.1952,
   "population": 99,
   "population_proper": 99,
   "density": 387,
   "source": "polygon",
   "incorporated": true,
   "timezone": "America/Indiana/Indianapolis",
   "zips": "46967"
 },
 {
   "City-State": "Millgrove-IN",
   "id": 1840029989,
   "city": "Millgrove",
   "city_ascii": "Millgrove",
   "state_id": "IN",
   "City-State": "Millgrove-IN",
   "state_name": "Indiana",
   "county_fips": 18009,
   "county_name": "Blackford",
   "lat": 40.4084,
   "lng": -85.275,
   "population": null,
   "population_proper": null,
   "density": 20.3,
   "source": "point",
   "incorporated": false,
   "timezone": "America/Indiana/Indianapolis",
   "zips": "47348"
 },
 {
   "City-State": "Cato-IN",
   "id": 1840029926,
   "city": "Cato",
   "city_ascii": "Cato",
   "state_id": "IN",
   "City-State": "Cato-IN",
   "state_name": "Indiana",
   "county_fips": 18125,
   "county_name": "Pike",
   "lat": 38.4367,
   "lng": -87.1856,
   "population": null,
   "population_proper": null,
   "density": 41,
   "source": "point",
   "incorporated": false,
   "timezone": "America/Indiana/Petersburg",
   "zips": "47598"
 },
 {
   "City-State": "North Terre Haute-IN",
   "id": 1840005743,
   "city": "North Terre Haute",
   "city_ascii": "North Terre Haute",
   "state_id": "IN",
   "City-State": "North Terre Haute-IN",
   "state_name": "Indiana",
   "county_fips": 18167,
   "county_name": "Vigo",
   "lat": 39.537,
   "lng": -87.3653,
   "population": null,
   "population_proper": null,
   "density": 497.6,
   "source": "polygon",
   "incorporated": false,
   "timezone": "America/Indiana/Indianapolis",
   "zips": "47805"
 },
 {
   "City-State": "Plainfield-IN",
   "id": 1840010579,
   "city": "Plainfield",
   "city_ascii": "Plainfield",
   "state_id": "IN",
   "City-State": "Plainfield-IN",
   "state_name": "Indiana",
   "county_fips": 18063,
   "county_name": "Hendricks",
   "lat": 39.7005,
   "lng": -86.3726,
   "population": 31409,
   "population_proper": 31409,
   "density": 537,
   "source": "polygon",
   "incorporated": true,
   "timezone": "America/Indiana/Indianapolis",
   "zips": "46168 46231 46197"
 },
 {
   "City-State": "Mount Summit-IN",
   "id": 1840009484,
   "city": "Mount Summit",
   "city_ascii": "Mount Summit",
   "state_id": "IN",
   "City-State": "Mount Summit-IN",
   "state_name": "Indiana",
   "county_fips": 18065,
   "county_name": "Henry",
   "lat": 40.0035,
   "lng": -85.3861,
   "population": 343,
   "population_proper": 343,
   "density": 700,
   "source": "polygon",
   "incorporated": true,
   "timezone": "America/Indiana/Indianapolis",
   "zips": "47361 47362"
 },
 {
   "City-State": "Utica-IN",
   "id": 1840010787,
   "city": "Utica",
   "city_ascii": "Utica",
   "state_id": "IN",
   "City-State": "Utica-IN",
   "state_name": "Indiana",
   "county_fips": 18019,
   "county_name": "Clark",
   "lat": 38.338,
   "lng": -85.6561,
   "population": 808,
   "population_proper": 808,
   "density": 261,
   "source": "polygon",
   "incorporated": true,
   "timezone": "America/New_York",
   "zips": "47130"
 },
 {
   "City-State": "Syracuse-IN",
   "id": 1840010280,
   "city": "Syracuse",
   "city_ascii": "Syracuse",
   "state_id": "IN",
   "City-State": "Syracuse-IN",
   "state_name": "Indiana",
   "county_fips": 18085,
   "county_name": "Kosciusko",
   "lat": 41.4215,
   "lng": -85.749,
   "population": 7085,
   "population_proper": 2882,
   "density": 591,
   "source": "polygon",
   "incorporated": true,
   "timezone": "America/Indiana/Indianapolis",
   "zips": "46567"
 },
 {
   "City-State": "Waterloo-IN",
   "id": 1840010250,
   "city": "Waterloo",
   "city_ascii": "Waterloo",
   "state_id": "IN",
   "City-State": "Waterloo-IN",
   "state_name": "Indiana",
   "county_fips": 18033,
   "county_name": "DeKalb",
   "lat": 41.4319,
   "lng": -85.0286,
   "population": 2248,
   "population_proper": 2248,
   "density": 499,
   "source": "polygon",
   "incorporated": true,
   "timezone": "America/Indiana/Indianapolis",
   "zips": "46793"
 },
 {
   "City-State": "Owensburg-IN",
   "id": 1840024532,
   "city": "Owensburg",
   "city_ascii": "Owensburg",
   "state_id": "IN",
   "City-State": "Owensburg-IN",
   "state_name": "Indiana",
   "county_fips": 18055,
   "county_name": "Greene",
   "lat": 38.9305,
   "lng": -86.7292,
   "population": null,
   "population_proper": null,
   "density": 94.3,
   "source": "polygon",
   "incorporated": false,
   "timezone": "America/Indiana/Indianapolis",
   "zips": "47453 47462"
 },
 {
   "City-State": "Raymond-IN",
   "id": 1840030006,
   "city": "Raymond",
   "city_ascii": "Raymond",
   "state_id": "IN",
   "City-State": "Raymond-IN",
   "state_name": "Indiana",
   "county_fips": 18047,
   "county_name": "Franklin",
   "lat": 39.4717,
   "lng": -84.8494,
   "population": null,
   "population_proper": null,
   "density": 7.8,
   "source": "point",
   "incorporated": false,
   "timezone": "America/Indiana/Indianapolis",
   "zips": "47010"
 },
 {
   "City-State": "Chambersburg-IN",
   "id": 1840030066,
   "city": "Chambersburg",
   "city_ascii": "Chambersburg",
   "state_id": "IN",
   "City-State": "Chambersburg-IN",
   "state_name": "Indiana",
   "county_fips": 18117,
   "county_name": "Orange",
   "lat": 38.5181,
   "lng": -86.3922,
   "population": null,
   "population_proper": null,
   "density": 12,
   "source": "point",
   "incorporated": false,
   "timezone": "America/Indiana/Indianapolis",
   "zips": "47454"
 },
 {
   "City-State": "Underwood-IN",
   "id": 1840030035,
   "city": "Underwood",
   "city_ascii": "Underwood",
   "state_id": "IN",
   "City-State": "Underwood-IN",
   "state_name": "Indiana",
   "county_fips": 18019,
   "county_name": "Clark",
   "lat": 38.6037,
   "lng": -85.7744,
   "population": null,
   "population_proper": null,
   "density": 169.6,
   "source": "point",
   "incorporated": false,
   "timezone": "America/Indiana/Indianapolis",
   "zips": "47177"
 },
 {
   "City-State": "Knightsville-IN",
   "id": 1840009675,
   "city": "Knightsville",
   "city_ascii": "Knightsville",
   "state_id": "IN",
   "City-State": "Knightsville-IN",
   "state_name": "Indiana",
   "county_fips": 18021,
   "county_name": "Clay",
   "lat": 39.5253,
   "lng": -87.0891,
   "population": 768,
   "population_proper": 768,
   "density": 285,
   "source": "polygon",
   "incorporated": true,
   "timezone": "America/Indiana/Indianapolis",
   "zips": "47857 47834"
 },
 {
   "City-State": "Stroh-IN",
   "id": 1840030029,
   "city": "Stroh",
   "city_ascii": "Stroh",
   "state_id": "IN",
   "City-State": "Stroh-IN",
   "state_name": "Indiana",
   "county_fips": 18087,
   "county_name": "LaGrange",
   "lat": 41.5814,
   "lng": -85.1994,
   "population": null,
   "population_proper": null,
   "density": 206.7,
   "source": "point",
   "incorporated": false,
   "timezone": "America/Indiana/Indianapolis",
   "zips": "46761"
 },
 {
   "City-State": "Clayton-IN",
   "id": 1840009537,
   "city": "Clayton",
   "city_ascii": "Clayton",
   "state_id": "IN",
   "City-State": "Clayton-IN",
   "state_name": "Indiana",
   "county_fips": 18063,
   "county_name": "Hendricks",
   "lat": 39.6883,
   "lng": -86.5231,
   "population": 1005,
   "population_proper": 1005,
   "density": 508,
   "source": "polygon",
   "incorporated": true,
   "timezone": "America/Indiana/Indianapolis",
   "zips": "46118"
 },
 {
   "City-State": "Tocsin-IN",
   "id": 1840030031,
   "city": "Tocsin",
   "city_ascii": "Tocsin",
   "state_id": "IN",
   "City-State": "Tocsin-IN",
   "state_name": "Indiana",
   "county_fips": 18179,
   "county_name": "Wells",
   "lat": 40.8303,
   "lng": -85.1091,
   "population": null,
   "population_proper": null,
   "density": 109.6,
   "source": "point",
   "incorporated": false,
   "timezone": "America/Indiana/Indianapolis",
   "zips": "46777"
 },
 {
   "City-State": "Cedar Grove-IN",
   "id": 1840009595,
   "city": "Cedar Grove",
   "city_ascii": "Cedar Grove",
   "state_id": "IN",
   "City-State": "Cedar Grove-IN",
   "state_name": "Indiana",
   "county_fips": 18047,
   "county_name": "Franklin",
   "lat": 39.3561,
   "lng": -84.9371,
   "population": 152,
   "population_proper": 152,
   "density": 391,
   "source": "polygon",
   "incorporated": true,
   "timezone": "America/Indiana/Indianapolis",
   "zips": "47016"
 },
 {
   "City-State": "Columbia City-IN",
   "id": 1840007140,
   "city": "Columbia City",
   "city_ascii": "Columbia City",
   "state_id": "IN",
   "City-State": "Columbia City-IN",
   "state_name": "Indiana",
   "county_fips": 18183,
   "county_name": "Whitley",
   "lat": 41.1611,
   "lng": -85.4854,
   "population": 9342,
   "population_proper": 8861,
   "density": 613,
   "source": "polygon",
   "incorporated": true,
   "timezone": "America/Indiana/Indianapolis",
   "zips": "46725"
 },
 {
   "City-State": "Smithville-IN",
   "id": 1840030074,
   "city": "Smithville",
   "city_ascii": "Smithville",
   "state_id": "IN",
   "City-State": "Smithville-IN",
   "state_name": "Indiana",
   "county_fips": 18105,
   "county_name": "Monroe",
   "lat": 39.0712,
   "lng": -86.5069,
   "population": null,
   "population_proper": null,
   "density": 268.4,
   "source": "point",
   "incorporated": false,
   "timezone": "America/Indiana/Indianapolis",
   "zips": "47401"
 },
 {
   "City-State": "Hanover-IN",
   "id": 1840013778,
   "city": "Hanover",
   "city_ascii": "Hanover",
   "state_id": "IN",
   "City-State": "Hanover-IN",
   "state_name": "Indiana",
   "county_fips": 18077,
   "county_name": "Jefferson",
   "lat": 38.7137,
   "lng": -85.4724,
   "population": 3543,
   "population_proper": 3543,
   "density": 592,
   "source": "polygon",
   "incorporated": true,
   "timezone": "America/Indiana/Indianapolis",
   "zips": "47243"
 },
 {
   "City-State": "Simonton Lake-IN",
   "id": 1840004816,
   "city": "Simonton Lake",
   "city_ascii": "Simonton Lake",
   "state_id": "IN",
   "City-State": "Simonton Lake-IN",
   "state_name": "Indiana",
   "county_fips": 18039,
   "county_name": "Elkhart",
   "lat": 41.7478,
   "lng": -85.9657,
   "population": null,
   "population_proper": null,
   "density": 513.9,
   "source": "polygon",
   "incorporated": false,
   "timezone": "America/Detroit",
   "zips": "46514"
 },
 {
   "City-State": "Fish Lake-IN",
   "id": 1840026261,
   "city": "Fish Lake",
   "city_ascii": "Fish Lake",
   "state_id": "IN",
   "City-State": "Fish Lake-IN",
   "state_name": "Indiana",
   "county_fips": 18091,
   "county_name": "LaPorte",
   "lat": 41.5616,
   "lng": -86.5513,
   "population": null,
   "population_proper": null,
   "density": 134,
   "source": "polygon",
   "incorporated": false,
   "timezone": "America/Chicago",
   "zips": "46574"
 },
 {
   "City-State": "Lowell-IN",
   "id": 1840009260,
   "city": "Lowell",
   "city_ascii": "Lowell",
   "state_id": "IN",
   "City-State": "Lowell-IN",
   "state_name": "Indiana",
   "county_fips": 18089,
   "county_name": "Lake",
   "lat": 41.2934,
   "lng": -87.4183,
   "population": 10102,
   "population_proper": 9519,
   "density": 632,
   "source": "polygon",
   "incorporated": true,
   "timezone": "America/Chicago",
   "zips": "46356"
 },
 {
   "City-State": "Star City-IN",
   "id": 1840005179,
   "city": "Star City",
   "city_ascii": "Star City",
   "state_id": "IN",
   "City-State": "Star City-IN",
   "state_name": "Indiana",
   "county_fips": 18131,
   "county_name": "Pulaski",
   "lat": 40.9746,
   "lng": -86.5613,
   "population": null,
   "population_proper": null,
   "density": 327.4,
   "source": "polygon",
   "incorporated": false,
   "timezone": "America/Indiana/Winamac",
   "zips": "46985"
 },
 {
   "City-State": "Schneider-IN",
   "id": 1840010223,
   "city": "Schneider",
   "city_ascii": "Schneider",
   "state_id": "IN",
   "City-State": "Schneider-IN",
   "state_name": "Indiana",
   "county_fips": 18089,
   "county_name": "Lake",
   "lat": 41.1929,
   "lng": -87.4462,
   "population": 270,
   "population_proper": 270,
   "density": 121,
   "source": "polygon",
   "incorporated": true,
   "timezone": "America/Chicago",
   "zips": "46376"
 },
 {
   "City-State": "Cicero-IN",
   "id": 1840009459,
   "city": "Cicero",
   "city_ascii": "Cicero",
   "state_id": "IN",
   "City-State": "Cicero-IN",
   "state_name": "Indiana",
   "county_fips": 18057,
   "county_name": "Hamilton",
   "lat": 40.1248,
   "lng": -86.0244,
   "population": 4826,
   "population_proper": 4826,
   "density": 1090,
   "source": "polygon",
   "incorporated": true,
   "timezone": "America/Indiana/Indianapolis",
   "zips": "46034"
 },
 {
   "City-State": "Laud-IN",
   "id": 1840029965,
   "city": "Laud",
   "city_ascii": "Laud",
   "state_id": "IN",
   "City-State": "Laud-IN",
   "state_name": "Indiana",
   "county_fips": 18183,
   "county_name": "Whitley",
   "lat": 41.0495,
   "lng": -85.4522,
   "population": null,
   "population_proper": null,
   "density": 92.5,
   "source": "point",
   "incorporated": false,
   "timezone": "America/Indiana/Indianapolis",
   "zips": "46725"
 },
 {
   "City-State": "North Manchester-IN",
   "id": 1840009360,
   "city": "North Manchester",
   "city_ascii": "North Manchester",
   "state_id": "IN",
   "City-State": "North Manchester-IN",
   "state_name": "Indiana",
   "county_fips": 18169,
   "county_name": "Wabash",
   "lat": 41.0044,
   "lng": -85.775,
   "population": 5829,
   "population_proper": 5907,
   "density": 645,
   "source": "polygon",
   "incorporated": true,
   "timezone": "America/Indiana/Indianapolis",
   "zips": "46962"
 },
 {
   "City-State": "Bunker Hill-IN",
   "id": 1840009364,
   "city": "Bunker Hill",
   "city_ascii": "Bunker Hill",
   "state_id": "IN",
   "City-State": "Bunker Hill-IN",
   "state_name": "Indiana",
   "county_fips": 18103,
   "county_name": "Miami",
   "lat": 40.66,
   "lng": -86.1012,
   "population": 859,
   "population_proper": 859,
   "density": 791,
   "source": "polygon",
   "incorporated": true,
   "timezone": "America/Indiana/Indianapolis",
   "zips": "46914"
 },
 {
   "City-State": "Hartsville-IN",
   "id": 1840010668,
   "city": "Hartsville",
   "city_ascii": "Hartsville",
   "state_id": "IN",
   "City-State": "Hartsville-IN",
   "state_name": "Indiana",
   "county_fips": 18005,
   "county_name": "Bartholomew",
   "lat": 39.2669,
   "lng": -85.6992,
   "population": 390,
   "population_proper": 390,
   "density": 463,
   "source": "polygon",
   "incorporated": true,
   "timezone": "America/Indiana/Indianapolis",
   "zips": "47244"
 },
 {
   "City-State": "Dillsboro-IN",
   "id": 1840009623,
   "city": "Dillsboro",
   "city_ascii": "Dillsboro",
   "state_id": "IN",
   "City-State": "Dillsboro-IN",
   "state_name": "Indiana",
   "county_fips": 18029,
   "county_name": "Dearborn",
   "lat": 39.019,
   "lng": -85.055,
   "population": 1317,
   "population_proper": 1317,
   "density": 412,
   "source": "polygon",
   "incorporated": true,
   "timezone": "America/New_York",
   "zips": "47018"
 },
 {
   "City-State": "Jasonville-IN",
   "id": 1840008551,
   "city": "Jasonville",
   "city_ascii": "Jasonville",
   "state_id": "IN",
   "City-State": "Jasonville-IN",
   "state_name": "Indiana",
   "county_fips": 18055,
   "county_name": "Greene",
   "lat": 39.1619,
   "lng": -87.1995,
   "population": 2147,
   "population_proper": 2147,
   "density": 633,
   "source": "polygon",
   "incorporated": true,
   "timezone": "America/Indiana/Indianapolis",
   "zips": "47438"
 },
 {
   "City-State": "Michiana Shores-IN",
   "id": 1840009248,
   "city": "Michiana Shores",
   "city_ascii": "Michiana Shores",
   "state_id": "IN",
   "City-State": "Michiana Shores-IN",
   "state_name": "Indiana",
   "county_fips": 18091,
   "county_name": "LaPorte",
   "lat": 41.7563,
   "lng": -86.8181,
   "population": 302,
   "population_proper": 302,
   "density": 332,
   "source": "polygon",
   "incorporated": true,
   "timezone": "America/Detroit",
   "zips": "46360"
 },
 {
   "City-State": "Mexico-IN",
   "id": 1840005199,
   "city": "Mexico",
   "city_ascii": "Mexico",
   "state_id": "IN",
   "City-State": "Mexico-IN",
   "state_name": "Indiana",
   "county_fips": 18103,
   "county_name": "Miami",
   "lat": 40.8143,
   "lng": -86.1113,
   "population": null,
   "population_proper": null,
   "density": 374.5,
   "source": "polygon",
   "incorporated": false,
   "timezone": "America/Indiana/Indianapolis",
   "zips": "46970 46958"
 },
 {
   "City-State": "Shipshewana-IN",
   "id": 1840010207,
   "city": "Shipshewana",
   "city_ascii": "Shipshewana",
   "state_id": "IN",
   "City-State": "Shipshewana-IN",
   "state_name": "Indiana",
   "county_fips": 18087,
   "county_name": "LaGrange",
   "lat": 41.6749,
   "lng": -85.5763,
   "population": 703,
   "population_proper": 703,
   "density": 230,
   "source": "polygon",
   "incorporated": true,
   "timezone": "America/Indiana/Indianapolis",
   "zips": "46565"
 },
 {
   "City-State": "Kingman-IN",
   "id": 1840010465,
   "city": "Kingman",
   "city_ascii": "Kingman",
   "state_id": "IN",
   "City-State": "Kingman-IN",
   "state_name": "Indiana",
   "county_fips": 18045,
   "county_name": "Fountain",
   "lat": 39.9665,
   "lng": -87.2786,
   "population": 484,
   "population_proper": 484,
   "density": 228,
   "source": "polygon",
   "incorporated": true,
   "timezone": "America/Indiana/Indianapolis",
   "zips": "47952"
 },
 {
   "City-State": "Elnora-IN",
   "id": 1840010734,
   "city": "Elnora",
   "city_ascii": "Elnora",
   "state_id": "IN",
   "City-State": "Elnora-IN",
   "state_name": "Indiana",
   "county_fips": 18027,
   "county_name": "Daviess",
   "lat": 38.8762,
   "lng": -87.0849,
   "population": 657,
   "population_proper": 657,
   "density": 267,
   "source": "polygon",
   "incorporated": true,
   "timezone": "America/Indiana/Vincennes",
   "zips": "47529"
 },
 {
   "City-State": "Winamac-IN",
   "id": 1840014463,
   "city": "Winamac",
   "city_ascii": "Winamac",
   "state_id": "IN",
   "City-State": "Winamac-IN",
   "state_name": "Indiana",
   "county_fips": 18131,
   "county_name": "Pulaski",
   "lat": 41.0535,
   "lng": -86.6037,
   "population": 2422,
   "population_proper": 2361,
   "density": 669,
   "source": "polygon",
   "incorporated": true,
   "timezone": "America/Indiana/Winamac",
   "zips": "46996"
 },
 {
   "City-State": "Newport-IN",
   "id": 1840009472,
   "city": "Newport",
   "city_ascii": "Newport",
   "state_id": "IN",
   "City-State": "Newport-IN",
   "state_name": "Indiana",
   "county_fips": 18165,
   "county_name": "Vermillion",
   "lat": 39.8841,
   "lng": -87.4072,
   "population": 487,
   "population_proper": 487,
   "density": 216,
   "source": "polygon",
   "incorporated": true,
   "timezone": "America/Indiana/Indianapolis",
   "zips": "47966 47854"
 },
 {
   "City-State": "Metea-IN",
   "id": 1840029986,
   "city": "Metea",
   "city_ascii": "Metea",
   "state_id": "IN",
   "City-State": "Metea-IN",
   "state_name": "Indiana",
   "county_fips": 18017,
   "county_name": "Cass",
   "lat": 40.8692,
   "lng": -86.3094,
   "population": null,
   "population_proper": null,
   "density": 14.3,
   "source": "point",
   "incorporated": false,
   "timezone": "America/Indiana/Indianapolis",
   "zips": "46950"
 },
 {
   "City-State": "Monroe-IN",
   "id": 1840009375,
   "city": "Monroe",
   "city_ascii": "Monroe",
   "state_id": "IN",
   "City-State": "Monroe-IN",
   "state_name": "Indiana",
   "county_fips": 18001,
   "county_name": "Adams",
   "lat": 40.7452,
   "lng": -84.9413,
   "population": 867,
   "population_proper": 867,
   "density": 531,
   "source": "polygon",
   "incorporated": true,
   "timezone": "America/Indiana/Indianapolis",
   "zips": "46772"
 },
 {
   "City-State": "Oldenburg-IN",
   "id": 1840009598,
   "city": "Oldenburg",
   "city_ascii": "Oldenburg",
   "state_id": "IN",
   "City-State": "Oldenburg-IN",
   "state_name": "Indiana",
   "county_fips": 18047,
   "county_name": "Franklin",
   "lat": 39.3387,
   "lng": -85.2039,
   "population": 661,
   "population_proper": 661,
   "density": 588,
   "source": "polygon",
   "incorporated": true,
   "timezone": "America/Indiana/Indianapolis",
   "zips": "47006 47036"
 },
 {
   "City-State": "Moores Hill-IN",
   "id": 1840009624,
   "city": "Moores Hill",
   "city_ascii": "Moores Hill",
   "state_id": "IN",
   "City-State": "Moores Hill-IN",
   "state_name": "Indiana",
   "county_fips": 18029,
   "county_name": "Dearborn",
   "lat": 39.1115,
   "lng": -85.0905,
   "population": 584,
   "population_proper": 584,
   "density": 418,
   "source": "polygon",
   "incorporated": true,
   "timezone": "America/New_York",
   "zips": "47032"
 },
 {
   "City-State": "Markleville-IN",
   "id": 1840009440,
   "city": "Markleville",
   "city_ascii": "Markleville",
   "state_id": "IN",
   "City-State": "Markleville-IN",
   "state_name": "Indiana",
   "county_fips": 18095,
   "county_name": "Madison",
   "lat": 39.9765,
   "lng": -85.6171,
   "population": 515,
   "population_proper": 515,
   "density": 353,
   "source": "polygon",
   "incorporated": true,
   "timezone": "America/Indiana/Indianapolis",
   "zips": "46056"
 },
 {
   "City-State": "La Fontaine-IN",
   "id": 1840009358,
   "city": "La Fontaine",
   "city_ascii": "La Fontaine",
   "state_id": "IN",
   "City-State": "La Fontaine-IN",
   "state_name": "Indiana",
   "county_fips": 18169,
   "county_name": "Wabash",
   "lat": 40.6739,
   "lng": -85.7221,
   "population": 852,
   "population_proper": 852,
   "density": 547,
   "source": "polygon",
   "incorporated": true,
   "timezone": "America/Indiana/Indianapolis",
   "zips": "46940"
 },
 {
   "City-State": "Arlington-IN",
   "id": 1840026613,
   "city": "Arlington",
   "city_ascii": "Arlington",
   "state_id": "IN",
   "City-State": "Arlington-IN",
   "state_name": "Indiana",
   "county_fips": 18139,
   "county_name": "Rush",
   "lat": 39.6458,
   "lng": -85.5796,
   "population": null,
   "population_proper": null,
   "density": 185.9,
   "source": "polygon",
   "incorporated": false,
   "timezone": "America/Indiana/Indianapolis",
   "zips": "46104"
 },
 {
   "City-State": "Orland-IN",
   "id": 1840009250,
   "city": "Orland",
   "city_ascii": "Orland",
   "state_id": "IN",
   "City-State": "Orland-IN",
   "state_name": "Indiana",
   "county_fips": 18151,
   "county_name": "Steuben",
   "lat": 41.7306,
   "lng": -85.1723,
   "population": 434,
   "population_proper": 434,
   "density": 252,
   "source": "polygon",
   "incorporated": true,
   "timezone": "America/Detroit",
   "zips": "46776"
 },
 {
   "City-State": "New Salisbury-IN",
   "id": 1840026757,
   "city": "New Salisbury",
   "city_ascii": "New Salisbury",
   "state_id": "IN",
   "City-State": "New Salisbury-IN",
   "state_name": "Indiana",
   "county_fips": 18061,
   "county_name": "Harrison",
   "lat": 38.314,
   "lng": -86.1,
   "population": null,
   "population_proper": null,
   "density": 227.5,
   "source": "polygon",
   "incorporated": false,
   "timezone": "America/Kentucky/Louisville",
   "zips": "47161"
 },
 {
   "City-State": "Brook-IN",
   "id": 1840009324,
   "city": "Brook",
   "city_ascii": "Brook",
   "state_id": "IN",
   "City-State": "Brook-IN",
   "state_name": "Indiana",
   "county_fips": 18111,
   "county_name": "Newton",
   "lat": 40.8664,
   "lng": -87.3653,
   "population": 963,
   "population_proper": 963,
   "density": 548,
   "source": "polygon",
   "incorporated": true,
   "timezone": "America/Chicago",
   "zips": "47922"
 },
 {
   "City-State": "Milltown-IN",
   "id": 1840009819,
   "city": "Milltown",
   "city_ascii": "Milltown",
   "state_id": "IN",
   "City-State": "Milltown-IN",
   "state_name": "Indiana",
   "county_fips": 18025,
   "county_name": "Crawford",
   "lat": 38.3425,
   "lng": -86.2749,
   "population": 807,
   "population_proper": 807,
   "density": 220,
   "source": "polygon",
   "incorporated": true,
   "timezone": "America/Kentucky/Louisville",
   "zips": "47145 47115"
 },
 {
   "City-State": "Montgomery-IN",
   "id": 1840009737,
   "city": "Montgomery",
   "city_ascii": "Montgomery",
   "state_id": "IN",
   "City-State": "Montgomery-IN",
   "state_name": "Indiana",
   "county_fips": 18027,
   "county_name": "Daviess",
   "lat": 38.665,
   "lng": -87.0474,
   "population": 350,
   "population_proper": 350,
   "density": 559,
   "source": "polygon",
   "incorporated": true,
   "timezone": "America/Indiana/Vincennes",
   "zips": "47558"
 },
 {
   "City-State": "Covington-IN",
   "id": 1840007243,
   "city": "Covington",
   "city_ascii": "Covington",
   "state_id": "IN",
   "City-State": "Covington-IN",
   "state_name": "Indiana",
   "county_fips": 18045,
   "county_name": "Fountain",
   "lat": 40.1405,
   "lng": -87.391,
   "population": 2531,
   "population_proper": 2551,
   "density": 837,
   "source": "polygon",
   "incorporated": true,
   "timezone": "America/Indiana/Indianapolis",
   "zips": "47932"
 },
 {
   "City-State": "Mixersville-IN",
   "id": 1840029990,
   "city": "Mixersville",
   "city_ascii": "Mixersville",
   "state_id": "IN",
   "City-State": "Mixersville-IN",
   "state_name": "Indiana",
   "county_fips": 18047,
   "county_name": "Franklin",
   "lat": 39.4884,
   "lng": -84.825,
   "population": null,
   "population_proper": null,
   "density": 47.9,
   "source": "point",
   "incorporated": false,
   "timezone": "America/Indiana/Indianapolis",
   "zips": "47010"
 },
 {
   "City-State": "Indian Springs-IN",
   "id": 1840029956,
   "city": "Indian Springs",
   "city_ascii": "Indian Springs",
   "state_id": "IN",
   "City-State": "Indian Springs-IN",
   "state_name": "Indiana",
   "county_fips": 18101,
   "county_name": "Martin",
   "lat": 38.7964,
   "lng": -86.765,
   "population": null,
   "population_proper": null,
   "density": 28.6,
   "source": "point",
   "incorporated": false,
   "timezone": "America/Indiana/Vincennes",
   "zips": "47581"
 },