[
 {
   "City-State": "Natrona-KS",
   "id": 1840030338,
   "city": "Natrona",
   "city_ascii": "Natrona",
   "state_id": "KS",
   "City-State": "Natrona-KS",
   "state_name": "Kansas",
   "county_fips": 20151,
   "county_name": "Pratt",
   "lat": 37.712,
   "lng": -98.6648,
   "population": null,
   "population_proper": null,
   "density": 4.5,
   "source": "point",
   "incorporated": false,
   "timezone": "America/Chicago",
   "zips": "67583"
 },
 {
   "City-State": "Corbin-KS",
   "id": 1840030106,
   "city": "Corbin",
   "city_ascii": "Corbin",
   "state_id": "KS",
   "City-State": "Corbin-KS",
   "state_name": "Kansas",
   "county_fips": 20191,
   "county_name": "Sumner",
   "lat": 37.1264,
   "lng": -97.5439,
   "population": null,
   "population_proper": null,
   "density": 1.8,
   "source": "point",
   "incorporated": false,
   "timezone": "America/Chicago",
   "zips": "67022"
 },
 {
   "City-State": "Harper-KS",
   "id": 1840001710,
   "city": "Harper",
   "city_ascii": "Harper",
   "state_id": "KS",
   "City-State": "Harper-KS",
   "state_name": "Kansas",
   "county_fips": 20077,
   "county_name": "Harper",
   "lat": 37.2851,
   "lng": -98.0277,
   "population": 1376,
   "population_proper": 1376,
   "density": 325,
   "source": "polygon",
   "incorporated": true,
   "timezone": "America/Chicago",
   "zips": "67058"
 },
 {
   "City-State": "Park City-KS",
   "id": 1840009870,
   "city": "Park City",
   "city_ascii": "Park City",
   "state_id": "KS",
   "City-State": "Park City-KS",
   "state_name": "Kansas",
   "county_fips": 20173,
   "county_name": "Sedgwick",
   "lat": 37.8103,
   "lng": -97.3255,
   "population": 7632,
   "population_proper": 7632,
   "density": 297,
   "source": "polygon",
   "incorporated": true,
   "timezone": "America/Chicago",
   "zips": "67219 67147"
 },
 {
   "City-State": "Arkansas City-KS",
   "id": 1840001700,
   "city": "Arkansas City",
   "city_ascii": "Arkansas City",
   "state_id": "KS",
   "City-State": "Arkansas City-KS",
   "state_name": "Kansas",
   "county_fips": 20035,
   "county_name": "Cowley",
   "lat": 37.0726,
   "lng": -97.0386,
   "population": 12656,
   "population_proper": 12063,
   "density": 501,
   "source": "polygon",
   "incorporated": true,
   "timezone": "America/Chicago",
   "zips": "67005"
 },
 {
   "City-State": "Greenwich Heights-KS",
   "id": 1840030183,
   "city": "Greenwich Heights",
   "city_ascii": "Greenwich Heights",
   "state_id": "KS",
   "City-State": "Greenwich Heights-KS",
   "state_name": "Kansas",
   "county_fips": 20173,
   "county_name": "Sedgwick",
   "lat": 37.6533,
   "lng": -97.2053,
   "population": null,
   "population_proper": null,
   "density": 492.3,
   "source": "point",
   "incorporated": false,
   "timezone": "America/Chicago",
   "zips": "67207"
 },
 {
   "City-State": "Dundee-KS",
   "id": 1840030226,
   "city": "Dundee",
   "city_ascii": "Dundee",
   "state_id": "KS",
   "City-State": "Dundee-KS",
   "state_name": "Kansas",
   "county_fips": 20009,
   "county_name": "Barton",
   "lat": 38.3086,
   "lng": -98.8906,
   "population": null,
   "population_proper": null,
   "density": 16.4,
   "source": "point",
   "incorporated": false,
   "timezone": "America/Chicago",
   "zips": "67530"
 },
 {
   "City-State": "Ottawa-KS",
   "id": 1840003840,
   "city": "Ottawa",
   "city_ascii": "Ottawa",
   "state_id": "KS",
   "City-State": "Ottawa-KS",
   "state_name": "Kansas",
   "county_fips": 20059,
   "county_name": "Franklin",
   "lat": 38.5998,
   "lng": -95.2643,
   "population": 12161,
   "population_proper": 12356,
   "density": 489,
   "source": "polygon",
   "incorporated": true,
   "timezone": "America/Chicago",
   "zips": "66067"
 },
 {
   "City-State": "Plainville-KS",
   "id": 1840009576,
   "city": "Plainville",
   "city_ascii": "Plainville",
   "state_id": "KS",
   "City-State": "Plainville-KS",
   "state_name": "Kansas",
   "county_fips": 20163,
   "county_name": "Rooks",
   "lat": 39.2315,
   "lng": -99.3011,
   "population": 1858,
   "population_proper": 1858,
   "density": 576,
   "source": "polygon",
   "incorporated": true,
   "timezone": "America/Chicago",
   "zips": "67663 67669"
 },
 {
   "City-State": "Wayne-KS",
   "id": 1840030165,
   "city": "Wayne",
   "city_ascii": "Wayne",
   "state_id": "KS",
   "City-State": "Wayne-KS",
   "state_name": "Kansas",
   "county_fips": 20157,
   "county_name": "Republic",
   "lat": 39.7147,
   "lng": -97.542,
   "population": null,
   "population_proper": null,
   "density": 9.6,
   "source": "point",
   "incorporated": false,
   "timezone": "America/Chicago",
   "zips": "66930"
 },
 {
   "City-State": "Republic-KS",
   "id": 1840009502,
   "city": "Republic",
   "city_ascii": "Republic",
   "state_id": "KS",
   "City-State": "Republic-KS",
   "state_name": "Kansas",
   "county_fips": 20157,
   "county_name": "Republic",
   "lat": 39.924,
   "lng": -97.8247,
   "population": 109,
   "population_proper": 109,
   "density": 161,
   "source": "polygon",
   "incorporated": true,
   "timezone": "America/Chicago",
   "zips": "66964"
 },
 {
   "City-State": "Delavan-KS",
   "id": 1840030248,
   "city": "Delavan",
   "city_ascii": "Delavan",
   "state_id": "KS",
   "City-State": "Delavan-KS",
   "state_name": "Kansas",
   "county_fips": 20127,
   "county_name": "Morris",
   "lat": 38.6561,
   "lng": -96.8133,
   "population": null,
   "population_proper": null,
   "density": 21.2,
   "source": "point",
   "incorporated": false,
   "timezone": "America/Chicago",
   "zips": "67449"
 },
 {
   "City-State": "Pomona-KS",
   "id": 1840009637,
   "city": "Pomona",
   "city_ascii": "Pomona",
   "state_id": "KS",
   "City-State": "Pomona-KS",
   "state_name": "Kansas",
   "county_fips": 20059,
   "county_name": "Franklin",
   "lat": 38.6104,
   "lng": -95.453,
   "population": 799,
   "population_proper": 799,
   "density": 410,
   "source": "polygon",
   "incorporated": true,
   "timezone": "America/Chicago",
   "zips": "66076"
 },
 {
   "City-State": "Arlington-KS",
   "id": 1840007539,
   "city": "Arlington",
   "city_ascii": "Arlington",
   "state_id": "KS",
   "City-State": "Arlington-KS",
   "state_name": "Kansas",
   "county_fips": 20155,
   "county_name": "Reno",
   "lat": 37.8961,
   "lng": -98.177,
   "population": 450,
   "population_proper": 450,
   "density": 162,
   "source": "polygon",
   "incorporated": true,
   "timezone": "America/Chicago",
   "zips": "67514"
 },
 {
   "City-State": "Lake City-KS",
   "id": 1840030111,
   "city": "Lake City",
   "city_ascii": "Lake City",
   "state_id": "KS",
   "City-State": "Lake City-KS",
   "state_name": "Kansas",
   "county_fips": 20007,
   "county_name": "Barber",
   "lat": 37.3534,
   "lng": -98.8209,
   "population": null,
   "population_proper": null,
   "density": 25.4,
   "source": "point",
   "incorporated": false,
   "timezone": "America/Chicago",
   "zips": "67071"
 },
 {
   "City-State": "Jennings-KS",
   "id": 1840008419,
   "city": "Jennings",
   "city_ascii": "Jennings",
   "state_id": "KS",
   "City-State": "Jennings-KS",
   "state_name": "Kansas",
   "county_fips": 20039,
   "county_name": "Decatur",
   "lat": 39.6806,
   "lng": -100.2933,
   "population": 93,
   "population_proper": 93,
   "density": 133,
   "source": "polygon",
   "incorporated": true,
   "timezone": "America/Chicago",
   "zips": "67643"
 },
 {
   "City-State": "Weir-KS",
   "id": 1840001718,
   "city": "Weir",
   "city_ascii": "Weir",
   "state_id": "KS",
   "City-State": "Weir-KS",
   "state_name": "Kansas",
   "county_fips": 20021,
   "county_name": "Cherokee",
   "lat": 37.3082,
   "lng": -94.7746,
   "population": 636,
   "population_proper": 636,
   "density": 261,
   "source": "polygon",
   "incorporated": true,
   "timezone": "America/Chicago",
   "zips": "66781"
 },
 {
   "City-State": "Quinter-KS",
   "id": 1840009702,
   "city": "Quinter",
   "city_ascii": "Quinter",
   "state_id": "KS",
   "City-State": "Quinter-KS",
   "state_name": "Kansas",
   "county_fips": 20063,
   "county_name": "Gove",
   "lat": 39.0667,
   "lng": -100.2348,
   "population": 954,
   "population_proper": 954,
   "density": 372,
   "source": "polygon",
   "incorporated": true,
   "timezone": "America/Chicago",
   "zips": "67752"
 },
 {
   "City-State": "Brazilton-KS",
   "id": 1840030212,
   "city": "Brazilton",
   "city_ascii": "Brazilton",
   "state_id": "KS",
   "City-State": "Brazilton-KS",
   "state_name": "Kansas",
   "county_fips": 20037,
   "county_name": "Crawford",
   "lat": 37.5598,
   "lng": -94.9575,
   "population": null,
   "population_proper": null,
   "density": 23.7,
   "source": "point",
   "incorporated": false,
   "timezone": "America/Chicago",
   "zips": "66743"
 },
 {
   "City-State": "Brewster-KS",
   "id": 1840005754,
   "city": "Brewster",
   "city_ascii": "Brewster",
   "state_id": "KS",
   "City-State": "Brewster-KS",
   "state_name": "Kansas",
   "county_fips": 20193,
   "county_name": "Thomas",
   "lat": 39.3631,
   "lng": -101.3771,
   "population": 300,
   "population_proper": 300,
   "density": 448,
   "source": "polygon",
   "incorporated": true,
   "timezone": "America/Chicago",
   "zips": "67732"
 },
 {
   "City-State": "Willowbrook-KS",
   "id": 1840010832,
   "city": "Willowbrook",
   "city_ascii": "Willowbrook",
   "state_id": "KS",
   "City-State": "Willowbrook-KS",
   "state_name": "Kansas",
   "county_fips": 20155,
   "county_name": "Reno",
   "lat": 38.1011,
   "lng": -97.992,
   "population": 85,
   "population_proper": 85,
   "density": 107,
   "source": "polygon",
   "incorporated": true,
   "timezone": "America/Chicago",
   "zips": "67502"
 },
 {
   "City-State": "El Dorado-KS",
   "id": 1840001676,
   "city": "El Dorado",
   "city_ascii": "El Dorado",
   "state_id": "KS",
   "City-State": "El Dorado-KS",
   "state_name": "Kansas",
   "county_fips": 20015,
   "county_name": "Butler",
   "lat": 37.8208,
   "lng": -96.8612,
   "population": 14860,
   "population_proper": 13141,
   "density": 565,
   "source": "polygon",
   "incorporated": true,
   "timezone": "America/Chicago",
   "zips": "67042"
 },
 {
   "City-State": "Atlanta-KS",
   "id": 1840007606,
   "city": "Atlanta",
   "city_ascii": "Atlanta",
   "state_id": "KS",
   "City-State": "Atlanta-KS",
   "state_name": "Kansas",
   "county_fips": 20035,
   "county_name": "Cowley",
   "lat": 37.4357,
   "lng": -96.767,
   "population": 192,
   "population_proper": 192,
   "density": 154,
   "source": "polygon",
   "incorporated": true,
   "timezone": "America/Chicago",
   "zips": "67008"
 },
 {
   "City-State": "Easton-KS",
   "id": 1840008507,
   "city": "Easton",
   "city_ascii": "Easton",
   "state_id": "KS",
   "City-State": "Easton-KS",
   "state_name": "Kansas",
   "county_fips": 20103,
   "county_name": "Leavenworth",
   "lat": 39.3449,
   "lng": -95.1166,
   "population": 257,
   "population_proper": 257,
   "density": 720,
   "source": "polygon",
   "incorporated": true,
   "timezone": "America/Chicago",
   "zips": "66020"
 },
 {
   "City-State": "Burdick-KS",
   "id": 1840030250,
   "city": "Burdick",
   "city_ascii": "Burdick",
   "state_id": "KS",
   "City-State": "Burdick-KS",
   "state_name": "Kansas",
   "county_fips": 20127,
   "county_name": "Morris",
   "lat": 38.5636,
   "lng": -96.8456,
   "population": null,
   "population_proper": null,
   "density": 58.7,
   "source": "point",
   "incorporated": false,
   "timezone": "America/Chicago",
   "zips": "66838"
 },
 {
   "City-State": "Bellefont-KS",
   "id": 1840030173,
   "city": "Bellefont",
   "city_ascii": "Bellefont",
   "state_id": "KS",
   "City-State": "Bellefont-KS",
   "state_name": "Kansas",
   "county_fips": 20057,
   "county_name": "Ford",
   "lat": 37.8725,
   "lng": -99.6579,
   "population": null,
   "population_proper": null,
   "density": 20.7,
   "source": "point",
   "incorporated": false,
   "timezone": "America/Chicago",
   "zips": "67876"
 },
 {
   "City-State": "Kechi-KS",
   "id": 1840008707,
   "city": "Kechi",
   "city_ascii": "Kechi",
   "state_id": "KS",
   "City-State": "Kechi-KS",
   "state_name": "Kansas",
   "county_fips": 20173,
   "county_name": "Sedgwick",
   "lat": 37.8232,
   "lng": -97.2891,
   "population": 1995,
   "population_proper": 1995,
   "density": 128,
   "source": "polygon",
   "incorporated": true,
   "timezone": "America/Chicago",
   "zips": "67067 67147"
 },
 {
   "City-State": "Aliceville-KS",
   "id": 1840030265,
   "city": "Aliceville",
   "city_ascii": "Aliceville",
   "state_id": "KS",
   "City-State": "Aliceville-KS",
   "state_name": "Kansas",
   "county_fips": 20031,
   "county_name": "Coffey",
   "lat": 38.1545,
   "lng": -95.5519,
   "population": null,
   "population_proper": null,
   "density": 28.5,
   "source": "point",
   "incorporated": false,
   "timezone": "America/Chicago",
   "zips": "66093"
 },
 {
   "City-State": "Montrose-KS",
   "id": 1840030143,
   "city": "Montrose",
   "city_ascii": "Montrose",
   "state_id": "KS",
   "City-State": "Montrose-KS",
   "state_name": "Kansas",
   "county_fips": 20089,
   "county_name": "Jewell",
   "lat": 39.7845,
   "lng": -98.0878,
   "population": null,
   "population_proper": null,
   "density": 10.6,
   "source": "point",
   "incorporated": false,
   "timezone": "America/Chicago",
   "zips": "66956"
 },
 {
   "City-State": "Centralia-KS",
   "id": 1840007297,
   "city": "Centralia",
   "city_ascii": "Centralia",
   "state_id": "KS",
   "City-State": "Centralia-KS",
   "state_name": "Kansas",
   "county_fips": 20131,
   "county_name": "Nemaha",
   "lat": 39.7244,
   "lng": -96.1304,
   "population": 511,
   "population_proper": 511,
   "density": 419,
   "source": "polygon",
   "incorporated": true,
   "timezone": "America/Chicago",
   "zips": "66415"
 },
 {
   "City-State": "Kensington-KS",
   "id": 1840008411,
   "city": "Kensington",
   "city_ascii": "Kensington",
   "state_id": "KS",
   "City-State": "Kensington-KS",
   "state_name": "Kansas",
   "county_fips": 20183,
   "county_name": "Smith",
   "lat": 39.7668,
   "lng": -99.0332,
   "population": 443,
   "population_proper": 443,
   "density": 474,
   "source": "polygon",
   "incorporated": true,
   "timezone": "America/Chicago",
   "zips": "66951"
 },
 {
   "City-State": "Industry-KS",
   "id": 1840030233,
   "city": "Industry",
   "city_ascii": "Industry",
   "state_id": "KS",
   "City-State": "Industry-KS",
   "state_name": "Kansas",
   "county_fips": 20027,
   "county_name": "Clay",
   "lat": 39.1333,
   "lng": -97.1714,
   "population": null,
   "population_proper": null,
   "density": 2.7,
   "source": "point",
   "incorporated": false,
   "timezone": "America/Chicago",
   "zips": "67410"
 },
 {
   "City-State": "Silverdale-KS",
   "id": 1840030087,
   "city": "Silverdale",
   "city_ascii": "Silverdale",
   "state_id": "KS",
   "City-State": "Silverdale-KS",
   "state_name": "Kansas",
   "county_fips": 20035,
   "county_name": "Cowley",
   "lat": 37.042,
   "lng": -96.9034,
   "population": null,
   "population_proper": null,
   "density": 72.8,
   "source": "point",
   "incorporated": false,
   "timezone": "America/Chicago",
   "zips": "67005"
 },
 {
   "City-State": "Savonburg-KS",
   "id": 1840009862,
   "city": "Savonburg",
   "city_ascii": "Savonburg",
   "state_id": "KS",
   "City-State": "Savonburg-KS",
   "state_name": "Kansas",
   "county_fips": 20001,
   "county_name": "Allen",
   "lat": 37.7489,
   "lng": -95.1431,
   "population": 103,
   "population_proper": 103,
   "density": 201,
   "source": "polygon",
   "incorporated": true,
   "timezone": "America/Chicago",
   "zips": "66772"
 },
 {
   "City-State": "Canton-KS",
   "id": 1840007487,
   "city": "Canton",
   "city_ascii": "Canton",
   "state_id": "KS",
   "City-State": "Canton-KS",
   "state_name": "Kansas",
   "county_fips": 20113,
   "county_name": "McPherson",
   "lat": 38.3859,
   "lng": -97.4301,
   "population": 720,
   "population_proper": 720,
   "density": 553,
   "source": "polygon",
   "incorporated": true,
   "timezone": "America/Chicago",
   "zips": "67428"
 },
 {
   "City-State": "Bison-KS",
   "id": 1840007484,
   "city": "Bison",
   "city_ascii": "Bison",
   "state_id": "KS",
   "City-State": "Bison-KS",
   "state_name": "Kansas",
   "county_fips": 20165,
   "county_name": "Rush",
   "lat": 38.5198,
   "lng": -99.1977,
   "population": 237,
   "population_proper": 237,
   "density": 355,
   "source": "polygon",
   "incorporated": true,
   "timezone": "America/Chicago",
   "zips": "67520"
 },
 {
   "City-State": "Fowler-KS",
   "id": 1840008750,
   "city": "Fowler",
   "city_ascii": "Fowler",
   "state_id": "KS",
   "City-State": "Fowler-KS",
   "state_name": "Kansas",
   "county_fips": 20119,
   "county_name": "Meade",
   "lat": 37.3828,
   "lng": -100.1956,
   "population": 544,
   "population_proper": 544,
   "density": 450,
   "source": "polygon",
   "incorporated": true,
   "timezone": "America/Chicago",
   "zips": "67844"
 },
 {
   "City-State": "Varner-KS",
   "id": 1840030340,
   "city": "Varner",
   "city_ascii": "Varner",
   "state_id": "KS",
   "City-State": "Varner-KS",
   "state_name": "Kansas",
   "county_fips": 20095,
   "county_name": "Kingman",
   "lat": 37.7189,
   "lng": -98.0364,
   "population": null,
   "population_proper": null,
   "density": 5.7,
   "source": "point",
   "incorporated": false,
   "timezone": "America/Chicago",
   "zips": "67068"
 },
 {
   "City-State": "Galesburg-KS",
   "id": 1840008723,
   "city": "Galesburg",
   "city_ascii": "Galesburg",
   "state_id": "KS",
   "City-State": "Galesburg-KS",
   "state_name": "Kansas",
   "county_fips": 20133,
   "county_name": "Neosho",
   "lat": 37.4724,
   "lng": -95.3564,
   "population": 120,
   "population_proper": 120,
   "density": 268,
   "source": "polygon",
   "incorporated": true,
   "timezone": "America/Chicago",
   "zips": "66740"
 },
 {
   "City-State": "Ash Grove-KS",
   "id": 1840030151,
   "city": "Ash Grove",
   "city_ascii": "Ash Grove",
   "state_id": "KS",
   "City-State": "Ash Grove-KS",
   "state_name": "Kansas",
   "county_fips": 20105,
   "county_name": "Lincoln",
   "lat": 39.1614,
   "lng": -98.362,
   "population": null,
   "population_proper": null,
   "density": 1.1,
   "source": "point",
   "incorporated": false,
   "timezone": "America/Chicago",
   "zips": "67481"
 },
 {
   "City-State": "Trousdale-KS",
   "id": 1840030176,
   "city": "Trousdale",
   "city_ascii": "Trousdale",
   "state_id": "KS",
   "City-State": "Trousdale-KS",
   "state_name": "Kansas",
   "county_fips": 20047,
   "county_name": "Edwards",
   "lat": 37.8153,
   "lng": -99.0857,
   "population": null,
   "population_proper": null,
   "density": 23,
   "source": "point",
   "incorporated": false,
   "timezone": "America/Chicago",
   "zips": "67059"
 },
 {
   "City-State": "Kimball-KS",
   "id": 1840030204,
   "city": "Kimball",
   "city_ascii": "Kimball",
   "state_id": "KS",
   "City-State": "Kimball-KS",
   "state_name": "Kansas",
   "county_fips": 20133,
   "county_name": "Neosho",
   "lat": 37.6612,
   "lng": -95.1636,
   "population": null,
   "population_proper": null,
   "density": 4.1,
   "source": "point",
   "incorporated": false,
   "timezone": "America/Chicago",
   "zips": "66733"
 },
 {
   "City-State": "Cedar Point-KS",
   "id": 1840007498,
   "city": "Cedar Point",
   "city_ascii": "Cedar Point",
   "state_id": "KS",
   "City-State": "Cedar Point-KS",
   "state_name": "Kansas",
   "county_fips": 20017,
   "county_name": "Chase",
   "lat": 38.2599,
   "lng": -96.8215,
   "population": 27,
   "population_proper": 27,
   "density": 128,
   "source": "polygon",
   "incorporated": true,
   "timezone": "America/Chicago",
   "zips": "66843"
 },
 {
   "City-State": "Ulysses-KS",
   "id": 1840010856,
   "city": "Ulysses",
   "city_ascii": "Ulysses",
   "state_id": "KS",
   "City-State": "Ulysses-KS",
   "state_name": "Kansas",
   "county_fips": 20067,
   "county_name": "Grant",
   "lat": 37.5772,
   "lng": -101.3547,
   "population": 6151,
   "population_proper": 6035,
   "density": 732,
   "source": "polygon",
   "incorporated": true,
   "timezone": "America/Chicago",
   "zips": "67880"
 },
 {
   "City-State": "Bentley-KS",
   "id": 1840007567,
   "city": "Bentley",
   "city_ascii": "Bentley",
   "state_id": "KS",
   "City-State": "Bentley-KS",
   "state_name": "Kansas",
   "county_fips": 20173,
   "county_name": "Sedgwick",
   "lat": 37.8869,
   "lng": -97.5152,
   "population": 517,
   "population_proper": 517,
   "density": 664,
   "source": "polygon",
   "incorporated": true,
   "timezone": "America/Chicago",
   "zips": "67016"
 },
 {
   "City-State": "Unified Government of Greeley County (balance)-KS",
   "id": 1840014713,
   "city": "Unified Government of Greeley County (balance)",
   "city_ascii": "Unified Government of Greeley County (balance)",
   "state_id": "KS",
   "City-State": "Unified Government of Greeley County (balance)-KS",
   "state_name": "Kansas",
   "county_fips": 20071,
   "county_name": "Greeley",
   "lat": 38.4806,
   "lng": -101.8061,
   "population": 448,
   "population_proper": 448,
   "density": 0,
   "source": "polygon",
   "incorporated": true,
   "timezone": "America/Denver",
   "zips": "67879"
 },
 {
   "City-State": "Beaumont-KS",
   "id": 1840030200,
   "city": "Beaumont",
   "city_ascii": "Beaumont",
   "state_id": "KS",
   "City-State": "Beaumont-KS",
   "state_name": "Kansas",
   "county_fips": 20015,
   "county_name": "Butler",
   "lat": 37.6581,
   "lng": -96.5328,
   "population": null,
   "population_proper": null,
   "density": 8.1,
   "source": "point",
   "incorporated": false,
   "timezone": "America/Chicago",
   "zips": "67012"
 },
 {
   "City-State": "Grinnell-KS",
   "id": 1840007408,
   "city": "Grinnell",
   "city_ascii": "Grinnell",
   "state_id": "KS",
   "City-State": "Grinnell-KS",
   "state_name": "Kansas",
   "county_fips": 20063,
   "county_name": "Gove",
   "lat": 39.1266,
   "lng": -100.6312,
   "population": 238,
   "population_proper": 238,
   "density": 181,
   "source": "polygon",
   "incorporated": true,
   "timezone": "America/Chicago",
   "zips": "67738"
 },
 {
   "City-State": "Pawnee Station-KS",
   "id": 1840030206,
   "city": "Pawnee Station",
   "city_ascii": "Pawnee Station",
   "state_id": "KS",
   "City-State": "Pawnee Station-KS",
   "state_name": "Kansas",
   "county_fips": 20011,
   "county_name": "Bourbon",
   "lat": 37.7,
   "lng": -94.7914,
   "population": null,
   "population_proper": null,
   "density": 9.9,
   "source": "point",
   "incorporated": false,
   "timezone": "America/Chicago",
   "zips": "66701"
 },
 {
   "City-State": "Burrton-KS",
   "id": 1840007533,
   "city": "Burrton",
   "city_ascii": "Burrton",
   "state_id": "KS",
   "City-State": "Burrton-KS",
   "state_name": "Kansas",
   "county_fips": 20079,
   "county_name": "Harvey",
   "lat": 38.0238,
   "lng": -97.6711,
   "population": 887,
   "population_proper": 887,
   "density": 382,
   "source": "polygon",
   "incorporated": true,
   "timezone": "America/Chicago",
   "zips": "67020"
 },
 {
   "City-State": "La Cygne-KS",
   "id": 1840008666,
   "city": "La Cygne",
   "city_ascii": "La Cygne",
   "state_id": "KS",
   "City-State": "La Cygne-KS",
   "state_name": "Kansas",
   "county_fips": 20107,
   "county_name": "Linn",
   "lat": 38.3473,
   "lng": -94.7603,
   "population": 1112,
   "population_proper": 1112,
   "density": 283,
   "source": "polygon",
   "incorporated": true,
   "timezone": "America/Chicago",
   "zips": "66040"
 },
 {
   "City-State": "Iola-KS",
   "id": 1840001681,
   "city": "Iola",
   "city_ascii": "Iola",
   "state_id": "KS",
   "City-State": "Iola-KS",
   "state_name": "Kansas",
   "county_fips": 20001,
   "county_name": "Allen",
   "lat": 37.9275,
   "lng": -95.4006,
   "population": 5477,
   "population_proper": 5454,
   "density": 464,
   "source": "polygon",
   "incorporated": true,
   "timezone": "America/Chicago",
   "zips": "66749"
 },
 {
   "City-State": "Hunnewell-KS",
   "id": 1840007611,
   "city": "Hunnewell",
   "city_ascii": "Hunnewell",
   "state_id": "KS",
   "City-State": "Hunnewell-KS",
   "state_name": "Kansas",
   "county_fips": 20191,
   "county_name": "Sumner",
   "lat": 37.0047,
   "lng": -97.4076,
   "population": 65,
   "population_proper": 65,
   "density": 51,
   "source": "polygon",
   "incorporated": true,
   "timezone": "America/Chicago",
   "zips": "67140"
 },
 {
   "City-State": "Mound City-KS",
   "id": 1840008665,
   "city": "Mound City",
   "city_ascii": "Mound City",
   "state_id": "KS",
   "City-State": "Mound City-KS",
   "state_name": "Kansas",
   "county_fips": 20107,
   "county_name": "Linn",
   "lat": 38.1327,
   "lng": -94.8499,
   "population": 680,
   "population_proper": 680,
   "density": 246,
   "source": "polygon",
   "incorporated": true,
   "timezone": "America/Chicago",
   "zips": "66056"
 },
 {
   "City-State": "Belvue-KS",
   "id": 1840007353,
   "city": "Belvue",
   "city_ascii": "Belvue",
   "state_id": "KS",
   "City-State": "Belvue-KS",
   "state_name": "Kansas",
   "county_fips": 20149,
   "county_name": "Pottawatomie",
   "lat": 39.2164,
   "lng": -96.1788,
   "population": 206,
   "population_proper": 206,
   "density": 687,
   "source": "polygon",
   "incorporated": true,
   "timezone": "America/Chicago",
   "zips": "66407"
 },
 {
   "City-State": "Andale-KS",
   "id": 1840007566,
   "city": "Andale",
   "city_ascii": "Andale",
   "state_id": "KS",
   "City-State": "Andale-KS",
   "state_name": "Kansas",
   "county_fips": 20173,
   "county_name": "Sedgwick",
   "lat": 37.7915,
   "lng": -97.6275,
   "population": 993,
   "population_proper": 993,
   "density": 666,
   "source": "polygon",
   "incorporated": true,
   "timezone": "America/Chicago",
   "zips": "67001"
 },
 {
   "City-State": "Mulvane-KS",
   "id": 1840008748,
   "city": "Mulvane",
   "city_ascii": "Mulvane",
   "state_id": "KS",
   "City-State": "Mulvane-KS",
   "state_name": "Kansas",
   "county_fips": 20191,
   "county_name": "Sumner",
   "lat": 37.479,
   "lng": -97.2719,
   "population": 6316,
   "population_proper": 6316,
   "density": 539,
   "source": "polygon",
   "incorporated": true,
   "timezone": "America/Chicago",
   "zips": "67110 67120"
 },
 {
   "City-State": "Timken-KS",
   "id": 1840010777,
   "city": "Timken",
   "city_ascii": "Timken",
   "state_id": "KS",
   "City-State": "Timken-KS",
   "state_name": "Kansas",
   "county_fips": 20165,
   "county_name": "Rush",
   "lat": 38.473,
   "lng": -99.1775,
   "population": 71,
   "population_proper": 71,
   "density": 187,
   "source": "polygon",
   "incorporated": true,
   "timezone": "America/Chicago",
   "zips": "67575"
 },
 {
   "City-State": "Chase-KS",
   "id": 1840007500,
   "city": "Chase",
   "city_ascii": "Chase",
   "state_id": "KS",
   "City-State": "Chase-KS",
   "state_name": "Kansas",
   "county_fips": 20159,
   "county_name": "Rice",
   "lat": 38.3552,
   "lng": -98.3486,
   "population": 451,
   "population_proper": 451,
   "density": 593,
   "source": "polygon",
   "incorporated": true,
   "timezone": "America/Chicago",
   "zips": "67524"
 },
 {
   "City-State": "Medicine Lodge-KS",
   "id": 1840008754,
   "city": "Medicine Lodge",
   "city_ascii": "Medicine Lodge",
   "state_id": "KS",
   "City-State": "Medicine Lodge-KS",
   "state_name": "Kansas",
   "county_fips": 20007,
   "county_name": "Barber",
   "lat": 37.2851,
   "lng": -98.5813,
   "population": 1930,
   "population_proper": 1930,
   "density": 613,
   "source": "polygon",
   "incorporated": true,
   "timezone": "America/Chicago",
   "zips": "67104"
 },
 {
   "City-State": "Almena-KS",
   "id": 1840007290,
   "city": "Almena",
   "city_ascii": "Almena",
   "state_id": "KS",
   "City-State": "Almena-KS",
   "state_name": "Kansas",
   "county_fips": 20137,
   "county_name": "Norton",
   "lat": 39.8913,
   "lng": -99.7097,
   "population": 389,
   "population_proper": 389,
   "density": 247,
   "source": "polygon",
   "incorporated": true,
   "timezone": "America/Chicago",
   "zips": "67622"
 },
 {
   "City-State": "Winchester-KS",
   "id": 1840010660,
   "city": "Winchester",
   "city_ascii": "Winchester",
   "state_id": "KS",
   "City-State": "Winchester-KS",
   "state_name": "Kansas",
   "county_fips": 20087,
   "county_name": "Jefferson",
   "lat": 39.3226,
   "lng": -95.2687,
   "population": 530,
   "population_proper": 530,
   "density": 588,
   "source": "polygon",
   "incorporated": true,
   "timezone": "America/Chicago",
   "zips": "66097"
 },
 {
   "City-State": "Severance-KS",
   "id": 1840009516,
   "city": "Severance",
   "city_ascii": "Severance",
   "state_id": "KS",
   "City-State": "Severance-KS",
   "state_name": "Kansas",
   "county_fips": 20043,
   "county_name": "Doniphan",
   "lat": 39.767,
   "lng": -95.2491,
   "population": 91,
   "population_proper": 91,
   "density": 250,
   "source": "polygon",
   "incorporated": true,
   "timezone": "America/Chicago",
   "zips": "66087"
 },
 {
   "City-State": "Stippville-KS",
   "id": 1840030315,
   "city": "Stippville",
   "city_ascii": "Stippville",
   "state_id": "KS",
   "City-State": "Stippville-KS",
   "state_name": "Kansas",
   "county_fips": 20021,
   "county_name": "Cherokee",
   "lat": 37.2223,
   "lng": -94.8377,
   "population": null,
   "population_proper": null,
   "density": 11.3,
   "source": "point",
   "incorporated": false,
   "timezone": "America/Chicago",
   "zips": "66725"
 },
 {
   "City-State": "Ness City-KS",
   "id": 1840008625,
   "city": "Ness City",
   "city_ascii": "Ness City",
   "state_id": "KS",
   "City-State": "Ness City-KS",
   "state_name": "Kansas",
   "county_fips": 20135,
   "county_name": "Ness",
   "lat": 38.454,
   "lng": -99.9057,
   "population": 1386,
   "population_proper": 1386,
   "density": 381,
   "source": "polygon",
   "incorporated": true,
   "timezone": "America/Chicago",
   "zips": "67560"
 },
 {
   "City-State": "Arcadia-KS",
   "id": 1840007591,
   "city": "Arcadia",
   "city_ascii": "Arcadia",
   "state_id": "KS",
   "City-State": "Arcadia-KS",
   "state_name": "Kansas",
   "county_fips": 20037,
   "county_name": "Crawford",
   "lat": 37.6412,
   "lng": -94.624,
   "population": 311,
   "population_proper": 311,
   "density": 272,
   "source": "polygon",
   "incorporated": true,
   "timezone": "America/Chicago",
   "zips": "66711"
 },
 {
   "City-State": "Basehor-KS",
   "id": 1840007373,
   "city": "Basehor",
   "city_ascii": "Basehor",
   "state_id": "KS",
   "City-State": "Basehor-KS",
   "state_name": "Kansas",
   "county_fips": 20103,
   "county_name": "Leavenworth",
   "lat": 39.1341,
   "lng": -94.9324,
   "population": 4714,
   "population_proper": 5651,
   "density": 322,
   "source": "polygon",
   "incorporated": true,
   "timezone": "America/Chicago",
   "zips": "66012 66007"
 },
 {
   "City-State": "Valley Center-KS",
   "id": 1840010848,
   "city": "Valley Center",
   "city_ascii": "Valley Center",
   "state_id": "KS",
   "City-State": "Valley Center-KS",
   "state_name": "Kansas",
   "county_fips": 20173,
   "county_name": "Sedgwick",
   "lat": 37.8325,
   "lng": -97.3647,
   "population": 7343,
   "population_proper": 7343,
   "density": 404,
   "source": "polygon",
   "incorporated": true,
   "timezone": "America/Chicago",
   "zips": "67147 67204"
 },
 {
   "City-State": "Burlington-KS",
   "id": 1840001664,
   "city": "Burlington",
   "city_ascii": "Burlington",
   "state_id": "KS",
   "City-State": "Burlington-KS",
   "state_name": "Kansas",
   "county_fips": 20031,
   "county_name": "Coffey",
   "lat": 38.1932,
   "lng": -95.7452,
   "population": 2443,
   "population_proper": 2610,
   "density": 457,
   "source": "polygon",
   "incorporated": true,
   "timezone": "America/Chicago",
   "zips": "66839"
 },
 {
   "City-State": "Wamego-KS",
   "id": 1840010634,
   "city": "Wamego",
   "city_ascii": "Wamego",
   "state_id": "KS",
   "City-State": "Wamego-KS",
   "state_name": "Kansas",
   "county_fips": 20149,
   "county_name": "Pottawatomie",
   "lat": 39.2054,
   "lng": -96.3104,
   "population": 4765,
   "population_proper": 4715,
   "density": 814,
   "source": "polygon",
   "incorporated": true,
   "timezone": "America/Chicago",
   "zips": "66547"
 },
 {
   "City-State": "Bucyrus-KS",
   "id": 1840026727,
   "city": "Bucyrus",
   "city_ascii": "Bucyrus",
   "state_id": "KS",
   "City-State": "Bucyrus-KS",
   "state_name": "Kansas",
   "county_fips": 20121,
   "county_name": "Miami",
   "lat": 38.7237,
   "lng": -94.714,
   "population": null,
   "population_proper": null,
   "density": 82.9,
   "source": "polygon",
   "incorporated": false,
   "timezone": "America/Chicago",
   "zips": "66013"
 },
 {
   "City-State": "Luray-KS",
   "id": 1840009706,
   "city": "Luray",
   "city_ascii": "Luray",
   "state_id": "KS",
   "City-State": "Luray-KS",
   "state_name": "Kansas",
   "county_fips": 20167,
   "county_name": "Russell",
   "lat": 39.1149,
   "lng": -98.6919,
   "population": 196,
   "population_proper": 196,
   "density": 233,
   "source": "polygon",
   "incorporated": true,
   "timezone": "America/Chicago",
   "zips": "67649"
 },
 {
   "City-State": "Rice-KS",
   "id": 1840030168,
   "city": "Rice",
   "city_ascii": "Rice",
   "state_id": "KS",
   "City-State": "Rice-KS",
   "state_name": "Kansas",
   "county_fips": 20029,
   "county_name": "Cloud",
   "lat": 39.5722,
   "lng": -97.5556,
   "population": null,
   "population_proper": null,
   "density": 7.2,
   "source": "point",
   "incorporated": false,
   "timezone": "America/Chicago",
   "zips": "66901"
 },
 {
   "City-State": "Norway-KS",
   "id": 1840030164,
   "city": "Norway",
   "city_ascii": "Norway",
   "state_id": "KS",
   "City-State": "Norway-KS",
   "state_name": "Kansas",
   "county_fips": 20157,
   "county_name": "Republic",
   "lat": 39.6961,
   "lng": -97.7739,
   "population": null,
   "population_proper": null,
   "density": 13.3,
   "source": "point",
   "incorporated": false,
   "timezone": "America/Chicago",
   "zips": "66966"
 },
 {
   "City-State": "New Strawn-KS",
   "id": 1840008656,
   "city": "New Strawn",
   "city_ascii": "New Strawn",
   "state_id": "KS",
   "City-State": "New Strawn-KS",
   "state_name": "Kansas",
   "county_fips": 20031,
   "county_name": "Coffey",
   "lat": 38.262,
   "lng": -95.7423,
   "population": 407,
   "population_proper": 407,
   "density": 200,
   "source": "polygon",
   "incorporated": true,
   "timezone": "America/Chicago",
   "zips": "66839"
 },
 {
   "City-State": "Morganville-KS",
   "id": 1840008476,
   "city": "Morganville",
   "city_ascii": "Morganville",
   "state_id": "KS",
   "City-State": "Morganville-KS",
   "state_name": "Kansas",
   "county_fips": 20027,
   "county_name": "Clay",
   "lat": 39.4665,
   "lng": -97.2037,
   "population": 189,
   "population_proper": 189,
   "density": 218,
   "source": "polygon",
   "incorporated": true,
   "timezone": "America/Chicago",
   "zips": "67468"
 },
 {
   "City-State": "South Haven-KS",
   "id": 1840009899,
   "city": "South Haven",
   "city_ascii": "South Haven",
   "state_id": "KS",
   "City-State": "South Haven-KS",
   "state_name": "Kansas",
   "county_fips": 20191,
   "county_name": "Sumner",
   "lat": 37.0498,
   "lng": -97.4009,
   "population": 346,
   "population_proper": 346,
   "density": 169,
   "source": "polygon",
   "incorporated": true,
   "timezone": "America/Chicago",
   "zips": "67140"
 },
 {
   "City-State": "Gove-KS",
   "id": 1840030128,
   "city": "Gove",
   "city_ascii": "Gove",
   "state_id": "KS",
   "City-State": "Gove-KS",
   "state_name": "Kansas",
   "county_fips": 20063,
   "county_name": "Gove",
   "lat": 38.9578,
   "lng": -100.4887,
   "population": null,
   "population_proper": null,
   "density": 44.3,
   "source": "point",
   "incorporated": true,
   "timezone": "America/Chicago",
   "zips": "67736"
 },
 {
   "City-State": "Hammond-KS",
   "id": 1840030196,
   "city": "Hammond",
   "city_ascii": "Hammond",
   "state_id": "KS",
   "City-State": "Hammond-KS",
   "state_name": "Kansas",
   "county_fips": 20011,
   "county_name": "Bourbon",
   "lat": 37.9356,
   "lng": -94.6952,
   "population": null,
   "population_proper": null,
   "density": 26.4,
   "source": "point",
   "incorporated": false,
   "timezone": "America/Chicago",
   "zips": "66701"
 },
 {
   "City-State": "Weskan-KS",
   "id": 1840026684,
   "city": "Weskan",
   "city_ascii": "Weskan",
   "state_id": "KS",
   "City-State": "Weskan-KS",
   "state_name": "Kansas",
   "county_fips": 20199,
   "county_name": "Wallace",
   "lat": 38.8653,
   "lng": -101.9682,
   "population": null,
   "population_proper": null,
   "density": 82.2,
   "source": "polygon",
   "incorporated": false,
   "timezone": "America/Denver",
   "zips": "67762"
 },
 {
   "City-State": "Ford-KS",
   "id": 1840008702,
   "city": "Ford",
   "city_ascii": "Ford",
   "state_id": "KS",
   "City-State": "Ford-KS",
   "state_name": "Kansas",
   "county_fips": 20057,
   "county_name": "Ford",
   "lat": 37.6366,
   "lng": -99.7538,
   "population": 215,
   "population_proper": 215,
   "density": 196,
   "source": "polygon",
   "incorporated": true,
   "timezone": "America/Chicago",
   "zips": "67842"
 },
 {
   "City-State": "Spivey-KS",
   "id": 1840009883,
   "city": "Spivey",
   "city_ascii": "Spivey",
   "state_id": "KS",
   "City-State": "Spivey-KS",
   "state_name": "Kansas",
   "county_fips": 20095,
   "county_name": "Kingman",
   "lat": 37.4484,
   "lng": -98.1658,
   "population": 74,
   "population_proper": 74,
   "density": 55,
   "source": "polygon",
   "incorporated": true,
   "timezone": "America/Chicago",
   "zips": "67142"
 },
 {
   "City-State": "Linn-KS",
   "id": 1840009504,
   "city": "Linn",
   "city_ascii": "Linn",
   "state_id": "KS",
   "City-State": "Linn-KS",
   "state_name": "Kansas",
   "county_fips": 20201,
   "county_name": "Washington",
   "lat": 39.6794,
   "lng": -97.0869,
   "population": 395,
   "population_proper": 395,
   "density": 449,
   "source": "polygon",
   "incorporated": true,
   "timezone": "America/Chicago",
   "zips": "66953"
 },
 {
   "City-State": "Stilwell-KS",
   "id": 1840030299,
   "city": "Stilwell",
   "city_ascii": "Stilwell",
   "state_id": "KS",
   "City-State": "Stilwell-KS",
   "state_name": "Kansas",
   "county_fips": 20091,
   "county_name": "Johnson",
   "lat": 38.7692,
   "lng": -94.6563,
   "population": null,
   "population_proper": null,
   "density": 243,
   "source": "point",
   "incorporated": false,
   "timezone": "America/Chicago",
   "zips": "66085"
 },
 {
   "City-State": "Altoona-KS",
   "id": 1840007588,
   "city": "Altoona",
   "city_ascii": "Altoona",
   "state_id": "KS",
   "City-State": "Altoona-KS",
   "state_name": "Kansas",
   "county_fips": 20205,
   "county_name": "Wilson",
   "lat": 37.5251,
   "lng": -95.6615,
   "population": 374,
   "population_proper": 374,
   "density": 273,
   "source": "polygon",
   "incorporated": true,
   "timezone": "America/Chicago",
   "zips": "66710"
 },
 {
   "City-State": "Hamilton-KS",
   "id": 1840007536,
   "city": "Hamilton",
   "city_ascii": "Hamilton",
   "state_id": "KS",
   "City-State": "Hamilton-KS",
   "state_name": "Kansas",
   "county_fips": 20073,
   "county_name": "Greenwood",
   "lat": 37.9806,
   "lng": -96.1641,
   "population": 247,
   "population_proper": 247,
   "density": 310,
   "source": "polygon",
   "incorporated": true,
   "timezone": "America/Chicago",
   "zips": "66853"
 },
 {
   "City-State": "Ozawkie-KS",
   "id": 1840009610,
   "city": "Ozawkie",
   "city_ascii": "Ozawkie",
   "state_id": "KS",
   "City-State": "Ozawkie-KS",
   "state_name": "Kansas",
   "county_fips": 20087,
   "county_name": "Jefferson",
   "lat": 39.2356,
   "lng": -95.4651,
   "population": 629,
   "population_proper": 629,
   "density": 639,
   "source": "polygon",
   "incorporated": true,
   "timezone": "America/Chicago",
   "zips": "66070"
 },
 {
   "City-State": "Sedan-KS",
   "id": 1840009918,
   "city": "Sedan",
   "city_ascii": "Sedan",
   "state_id": "KS",
   "City-State": "Sedan-KS",
   "state_name": "Kansas",
   "county_fips": 20019,
   "county_name": "Chautauqua",
   "lat": 37.1284,
   "lng": -96.1849,
   "population": 1034,
   "population_proper": 1034,
   "density": 492,
   "source": "polygon",
   "incorporated": true,
   "timezone": "America/Chicago",
   "zips": "67361"
 },
 {
   "City-State": "Randall-KS",
   "id": 1840009500,
   "city": "Randall",
   "city_ascii": "Randall",
   "state_id": "KS",
   "City-State": "Randall-KS",
   "state_name": "Kansas",
   "county_fips": 20089,
   "county_name": "Jewell",
   "lat": 39.6416,
   "lng": -98.0455,
   "population": 62,
   "population_proper": 62,
   "density": 133,
   "source": "polygon",
   "incorporated": true,
   "timezone": "America/Chicago",
   "zips": "66963"
 },
 {
   "City-State": "Elmdale-KS",
   "id": 1840008647,
   "city": "Elmdale",
   "city_ascii": "Elmdale",
   "state_id": "KS",
   "City-State": "Elmdale-KS",
   "state_name": "Kansas",
   "county_fips": 20017,
   "county_name": "Chase",
   "lat": 38.3732,
   "lng": -96.6459,
   "population": 53,
   "population_proper": 53,
   "density": 123,
   "source": "polygon",
   "incorporated": true,
   "timezone": "America/Chicago",
   "zips": "66850"
 },
 {
   "City-State": "Bern-KS",
   "id": 1840007298,
   "city": "Bern",
   "city_ascii": "Bern",
   "state_id": "KS",
   "City-State": "Bern-KS",
   "state_name": "Kansas",
   "county_fips": 20131,
   "county_name": "Nemaha",
   "lat": 39.9614,
   "lng": -95.9713,
   "population": 166,
   "population_proper": 166,
   "density": 224,
   "source": "polygon",
   "incorporated": true,
   "timezone": "America/Chicago",
   "zips": "66408"
 },
 {
   "City-State": "Rock Creek-KS",
   "id": 1840030277,
   "city": "Rock Creek",
   "city_ascii": "Rock Creek",
   "state_id": "KS",
   "City-State": "Rock Creek-KS",
   "state_name": "Kansas",
   "county_fips": 20087,
   "county_name": "Jefferson",
   "lat": 39.2458,
   "lng": -95.5372,
   "population": null,
   "population_proper": null,
   "density": 123.3,
   "source": "point",
   "incorporated": false,
   "timezone": "America/Chicago",
   "zips": "66512"
 },
 {
   "City-State": "Blue Rapids-KS",
   "id": 1840007294,
   "city": "Blue Rapids",
   "city_ascii": "Blue Rapids",
   "state_id": "KS",
   "City-State": "Blue Rapids-KS",
   "state_name": "Kansas",
   "county_fips": 20117,
   "county_name": "Marshall",
   "lat": 39.6791,
   "lng": -96.6593,
   "population": 971,
   "population_proper": 971,
   "density": 188,
   "source": "polygon",
   "incorporated": true,
   "timezone": "America/Chicago",
   "zips": "66411"
 },
 {
   "City-State": "Overland Park-KS",
   "id": 1840003834,
   "city": "Overland Park",
   "city_ascii": "Overland Park",
   "state_id": "KS",
   "City-State": "Overland Park-KS",
   "state_name": "Kansas",
   "county_fips": 20091,
   "county_name": "Johnson",
   "lat": 38.8871,
   "lng": -94.6871,
   "population": 188966,
   "population_proper": 188966,
   "density": 971,
   "source": "polygon",
   "incorporated": true,
   "timezone": "America/Chicago",
   "zips": "66214 66210 66211 66212 66213 66221 66223 66209 66202 66207 66204 66062 66085 66224 66201 66222 66225 66250 66251 66276 66282 66283 66285 66286"
 },
 {
   "City-State": "Cunningham-KS",
   "id": 1840007585,
   "city": "Cunningham",
   "city_ascii": "Cunningham",
   "state_id": "KS",
   "City-State": "Cunningham-KS",
   "state_name": "Kansas",
   "county_fips": 20095,
   "county_name": "Kingman",
   "lat": 37.6446,
   "lng": -98.431,
   "population": 458,
   "population_proper": 458,
   "density": 374,
   "source": "polygon",
   "incorporated": true,
   "timezone": "America/Chicago",
   "zips": "67035"
 },
 {
   "City-State": "Haddam-KS",
   "id": 1840007286,
   "city": "Haddam",
   "city_ascii": "Haddam",
   "state_id": "KS",
   "City-State": "Haddam-KS",
   "state_name": "Kansas",
   "county_fips": 20201,
   "county_name": "Washington",
   "lat": 39.8554,
   "lng": -97.3046,
   "population": 100,
   "population_proper": 100,
   "density": 110,
   "source": "polygon",
   "incorporated": true,
   "timezone": "America/Chicago",
   "zips": "66944"
 },
 {
   "City-State": "Matfield Green-KS",
   "id": 1840008648,
   "city": "Matfield Green",
   "city_ascii": "Matfield Green",
   "state_id": "KS",
   "City-State": "Matfield Green-KS",
   "state_name": "Kansas",
   "county_fips": 20017,
   "county_name": "Chase",
   "lat": 38.1595,
   "lng": -96.5625,
   "population": 45,
   "population_proper": 45,
   "density": 122,
   "source": "polygon",
   "incorporated": true,
   "timezone": "America/Chicago",
   "zips": "66862"
 },
 {
   "City-State": "Leavenworth-KS",
   "id": 1840001591,
   "city": "Leavenworth",
   "city_ascii": "Leavenworth",
   "state_id": "KS",
   "City-State": "Leavenworth-KS",
   "state_name": "Kansas",
   "county_fips": 20103,
   "county_name": "Leavenworth",
   "lat": 39.3225,
   "lng": -94.9246,
   "population": 46445,
   "population_proper": 36154,
   "density": 580,
   "source": "polygon",
   "incorporated": true,
   "timezone": "America/Chicago",
   "zips": "66027 66048"
 },
 {
   "City-State": "Hickok-KS",
   "id": 1840030333,
   "city": "Hickok",
   "city_ascii": "Hickok",
   "state_id": "KS",
   "City-State": "Hickok-KS",
   "state_name": "Kansas",
   "county_fips": 20067,
   "county_name": "Grant",
   "lat": 37.5611,
   "lng": -101.2288,
   "population": null,
   "population_proper": null,
   "density": 50.9,
   "source": "point",
   "incorporated": false,
   "timezone": "America/Chicago",
   "zips": "67880"
 },
 {
   "City-State": "Wetmore-KS",
   "id": 1840010554,
   "city": "Wetmore",
   "city_ascii": "Wetmore",
   "state_id": "KS",
   "City-State": "Wetmore-KS",
   "state_name": "Kansas",
   "county_fips": 20131,
   "county_name": "Nemaha",
   "lat": 39.6356,
   "lng": -95.8112,
   "population": 368,
   "population_proper": 368,
   "density": 367,
   "source": "polygon",
   "incorporated": true,
   "timezone": "America/Chicago",
   "zips": "66550"
 },
 {
   "City-State": "Upland-KS",
   "id": 1840030236,
   "city": "Upland",
   "city_ascii": "Upland",
   "state_id": "KS",
   "City-State": "Upland-KS",
   "state_name": "Kansas",
   "county_fips": 20041,
   "county_name": "Dickinson",
   "lat": 39.0889,
   "lng": -97.0192,
   "population": null,
   "population_proper": null,
   "density": 5.4,
   "source": "point",
   "incorporated": false,
   "timezone": "America/Chicago",
   "zips": "67431"
 },
 {
   "City-State": "Green-KS",
   "id": 1840008474,
   "city": "Green",
   "city_ascii": "Green",
   "state_id": "KS",
   "City-State": "Green-KS",
   "state_name": "Kansas",
   "county_fips": 20027,
   "county_name": "Clay",
   "lat": 39.4299,
   "lng": -97.0002,
   "population": 125,
   "population_proper": 125,
   "density": 245,
   "source": "polygon",
   "incorporated": true,
   "timezone": "America/Chicago",
   "zips": "67447"
 },
 {
   "City-State": "Clinton-KS",
   "id": 1840030289,
   "city": "Clinton",
   "city_ascii": "Clinton",
   "state_id": "KS",
   "City-State": "Clinton-KS",
   "state_name": "Kansas",
   "county_fips": 20045,
   "county_name": "Douglas",
   "lat": 38.9117,
   "lng": -95.3905,
   "population": null,
   "population_proper": null,
   "density": 23.5,
   "source": "point",
   "incorporated": false,
   "timezone": "America/Chicago",
   "zips": "66047"
 },
 {
   "City-State": "South Hutchinson-KS",
   "id": 1840009762,
   "city": "South Hutchinson",
   "city_ascii": "South Hutchinson",
   "state_id": "KS",
   "City-State": "South Hutchinson-KS",
   "state_name": "Kansas",
   "county_fips": 20155,
   "county_name": "Reno",
   "lat": 38.0276,
   "lng": -97.9427,
   "population": 2539,
   "population_proper": 2539,
   "density": 342,
   "source": "polygon",
   "incorporated": true,
   "timezone": "America/Chicago",
   "zips": "67505"
 },
 {
   "City-State": "Medora-KS",
   "id": 1840030264,
   "city": "Medora",
   "city_ascii": "Medora",
   "state_id": "KS",
   "City-State": "Medora-KS",
   "state_name": "Kansas",
   "county_fips": 20155,
   "county_name": "Reno",
   "lat": 38.1489,
   "lng": -97.8456,
   "population": null,
   "population_proper": null,
   "density": 80,
   "source": "point",
   "incorporated": false,
   "timezone": "America/Chicago",
   "zips": "67502"
 },
 {
   "City-State": "Lyons-KS",
   "id": 1840001662,
   "city": "Lyons",
   "city_ascii": "Lyons",
   "state_id": "KS",
   "City-State": "Lyons-KS",
   "state_name": "Kansas",
   "county_fips": 20159,
   "county_name": "Rice",
   "lat": 38.3466,
   "lng": -98.2052,
   "population": 3585,
   "population_proper": 3671,
   "density": 531,
   "source": "polygon",
   "incorporated": true,
   "timezone": "America/Chicago",
   "zips": "67554"
 },
 {
   "City-State": "Zurich-KS",
   "id": 1840010629,
   "city": "Zurich",
   "city_ascii": "Zurich",
   "state_id": "KS",
   "City-State": "Zurich-KS",
   "state_name": "Kansas",
   "county_fips": 20163,
   "county_name": "Rooks",
   "lat": 39.232,
   "lng": -99.4346,
   "population": 97,
   "population_proper": 97,
   "density": 215,
   "source": "polygon",
   "incorporated": true,
   "timezone": "America/Chicago",
   "zips": "67663"
 },
 {
   "City-State": "Clare-KS",
   "id": 1840030350,
   "city": "Clare",
   "city_ascii": "Clare",
   "state_id": "KS",
   "City-State": "Clare-KS",
   "state_name": "Kansas",
   "county_fips": 20091,
   "county_name": "Johnson",
   "lat": 38.827,
   "lng": -94.8714,
   "population": null,
   "population_proper": null,
   "density": 6.6,
   "source": "point",
   "incorporated": false,
   "timezone": "America/Chicago",
   "zips": "66061"
 },
 {
   "City-State": "Bucklin-KS",
   "id": 1840007562,
   "city": "Bucklin",
   "city_ascii": "Bucklin",
   "state_id": "KS",
   "City-State": "Bucklin-KS",
   "state_name": "Kansas",
   "county_fips": 20057,
   "county_name": "Ford",
   "lat": 37.5488,
   "lng": -99.6346,
   "population": 780,
   "population_proper": 780,
   "density": 534,
   "source": "polygon",
   "incorporated": true,
   "timezone": "America/Chicago",
   "zips": "67834"
 },
 {
   "City-State": "Lindsborg-KS",
   "id": 1840001658,
   "city": "Lindsborg",
   "city_ascii": "Lindsborg",
   "state_id": "KS",
   "City-State": "Lindsborg-KS",
   "state_name": "Kansas",
   "county_fips": 20113,
   "county_name": "McPherson",
   "lat": 38.5766,
   "lng": -97.6744,
   "population": 3287,
   "population_proper": 3338,
   "density": 774,
   "source": "polygon",
   "incorporated": true,
   "timezone": "America/Chicago",
   "zips": "67456"
 },
 {
   "City-State": "Scott City-KS",
   "id": 1840009647,
   "city": "Scott City",
   "city_ascii": "Scott City",
   "state_id": "KS",
   "City-State": "Scott City-KS",
   "state_name": "Kansas",
   "county_fips": 20171,
   "county_name": "Scott",
   "lat": 38.4782,
   "lng": -100.9022,
   "population": 3718,
   "population_proper": 3890,
   "density": 565,
   "source": "polygon",
   "incorporated": true,
   "timezone": "America/Chicago",
   "zips": "67871"
 },
 {
   "City-State": "Jewell-KS",
   "id": 1840008409,
   "city": "Jewell",
   "city_ascii": "Jewell",
   "state_id": "KS",
   "City-State": "Jewell-KS",
   "state_name": "Kansas",
   "county_fips": 20089,
   "county_name": "Jewell",
   "lat": 39.6716,
   "lng": -98.1523,
   "population": 402,
   "population_proper": 402,
   "density": 363,
   "source": "polygon",
   "incorporated": true,
   "timezone": "America/Chicago",
   "zips": "66949"
 },
 {
   "City-State": "Sylvan Grove-KS",
   "id": 1840009684,
   "city": "Sylvan Grove",
   "city_ascii": "Sylvan Grove",
   "state_id": "KS",
   "City-State": "Sylvan Grove-KS",
   "state_name": "Kansas",
   "county_fips": 20105,
   "county_name": "Lincoln",
   "lat": 39.0122,
   "lng": -98.3946,
   "population": 258,
   "population_proper": 258,
   "density": 269,
   "source": "polygon",
   "incorporated": true,
   "timezone": "America/Chicago",
   "zips": "67481"
 },
 {
   "City-State": "Greenleaf-KS",
   "id": 1840008415,
   "city": "Greenleaf",
   "city_ascii": "Greenleaf",
   "state_id": "KS",
   "City-State": "Greenleaf-KS",
   "state_name": "Kansas",
   "county_fips": 20201,
   "county_name": "Washington",
   "lat": 39.7273,
   "lng": -96.9802,
   "population": 308,
   "population_proper": 308,
   "density": 257,
   "source": "polygon",
   "incorporated": true,
   "timezone": "America/Chicago",
   "zips": "66943"
 },
 {
   "City-State": "Rexford-KS",
   "id": 1840009577,
   "city": "Rexford",
   "city_ascii": "Rexford",
   "state_id": "KS",
   "City-State": "Rexford-KS",
   "state_name": "Kansas",
   "county_fips": 20193,
   "county_name": "Thomas",
   "lat": 39.4705,
   "lng": -100.744,
   "population": 229,
   "population_proper": 229,
   "density": 341,
   "source": "polygon",
   "incorporated": true,
   "timezone": "America/Chicago",
   "zips": "67753"
 },
 {
   "City-State": "Home-KS",
   "id": 1840026603,
   "city": "Home",
   "city_ascii": "Home",
   "state_id": "KS",
   "City-State": "Home-KS",
   "state_name": "Kansas",
   "county_fips": 20117,
   "county_name": "Marshall",
   "lat": 39.8415,
   "lng": -96.5199,
   "population": null,
   "population_proper": null,
   "density": 54.4,
   "source": "polygon",
   "incorporated": false,
   "timezone": "America/Chicago",
   "zips": "66508 66438"
 },
 {
   "City-State": "Elk City-KS",
   "id": 1840008762,
   "city": "Elk City",
   "city_ascii": "Elk City",
   "state_id": "KS",
   "City-State": "Elk City-KS",
   "state_name": "Kansas",
   "county_fips": 20125,
   "county_name": "Montgomery",
   "lat": 37.2897,
   "lng": -95.9101,
   "population": 294,
   "population_proper": 294,
   "density": 330,
   "source": "polygon",
   "incorporated": true,
   "timezone": "America/Chicago",
   "zips": "67344"
 },
 {
   "City-State": "Antonino-KS",
   "id": 1840030217,
   "city": "Antonino",
   "city_ascii": "Antonino",
   "state_id": "KS",
   "City-State": "Antonino-KS",
   "state_name": "Kansas",
   "county_fips": 20051,
   "county_name": "Ellis",
   "lat": 38.7839,
   "lng": -99.3926,
   "population": null,
   "population_proper": null,
   "density": 27.1,
   "source": "point",
   "incorporated": false,
   "timezone": "America/Chicago",
   "zips": "67601"
 },
 {
   "City-State": "Mission Woods-KS",
   "id": 1840030285,
   "city": "Mission Woods",
   "city_ascii": "Mission Woods",
   "state_id": "KS",
   "City-State": "Mission Woods-KS",
   "state_name": "Kansas",
   "county_fips": 20091,
   "county_name": "Johnson",
   "lat": 39.0337,
   "lng": -94.611,
   "population": 198,
   "population_proper": 198,
   "density": 740,
   "source": "polygon",
   "incorporated": true,
   "timezone": "America/Chicago",
   "zips": "66205"
 },
 {
   "City-State": "Copeland-KS",
   "id": 1840007559,
   "city": "Copeland",
   "city_ascii": "Copeland",
   "state_id": "KS",
   "City-State": "Copeland-KS",
   "state_name": "Kansas",
   "county_fips": 20069,
   "county_name": "Gray",
   "lat": 37.5408,
   "lng": -100.6297,
   "population": 300,
   "population_proper": 300,
   "density": 456,
   "source": "polygon",
   "incorporated": true,
   "timezone": "America/Chicago",
   "zips": "67837"
 },
 {
   "City-State": "Brownell-KS",
   "id": 1840006170,
   "city": "Brownell",
   "city_ascii": "Brownell",
   "state_id": "KS",
   "City-State": "Brownell-KS",
   "state_name": "Kansas",
   "county_fips": 20135,
   "county_name": "Ness",
   "lat": 38.6406,
   "lng": -99.7443,
   "population": 28,
   "population_proper": 28,
   "density": 55,
   "source": "polygon",
   "incorporated": true,
   "timezone": "America/Chicago",
   "zips": "67521"
 },
 {
   "City-State": "Dexter-KS",
   "id": 1840007607,
   "city": "Dexter",
   "city_ascii": "Dexter",
   "state_id": "KS",
   "City-State": "Dexter-KS",
   "state_name": "Kansas",
   "county_fips": 20035,
   "county_name": "Cowley",
   "lat": 37.1794,
   "lng": -96.7161,
   "population": 274,
   "population_proper": 274,
   "density": 382,
   "source": "polygon",
   "incorporated": true,
   "timezone": "America/Chicago",
   "zips": "67038"
 },
 {
   "City-State": "Quincy-KS",
   "id": 1840030192,
   "city": "Quincy",
   "city_ascii": "Quincy",
   "state_id": "KS",
   "City-State": "Quincy-KS",
   "state_name": "Kansas",
   "county_fips": 20073,
   "county_name": "Greenwood",
   "lat": 37.882,
   "lng": -95.9928,
   "population": null,
   "population_proper": null,
   "density": 12.7,
   "source": "point",
   "incorporated": false,
   "timezone": "America/Chicago",
   "zips": "66870"
 },
 {
   "City-State": "Quenemo-KS",
   "id": 1840009779,
   "city": "Quenemo",
   "city_ascii": "Quenemo",
   "state_id": "KS",
   "City-State": "Quenemo-KS",
   "state_name": "Kansas",
   "county_fips": 20139,
   "county_name": "Osage",
   "lat": 38.5804,
   "lng": -95.5267,
   "population": 370,
   "population_proper": 370,
   "density": 327,
   "source": "polygon",
   "incorporated": true,
   "timezone": "America/Chicago",
   "zips": "66528"
 },
 {
   "City-State": "Chiles-KS",
   "id": 1840030294,
   "city": "Chiles",
   "city_ascii": "Chiles",
   "state_id": "KS",
   "City-State": "Chiles-KS",
   "state_name": "Kansas",
   "county_fips": 20121,
   "county_name": "Miami",
   "lat": 38.6797,
   "lng": -94.7616,
   "population": null,
   "population_proper": null,
   "density": 19.3,
   "source": "point",
   "incorporated": false,
   "timezone": "America/Chicago",
   "zips": "66071"
 },
 {
   "City-State": "Chicopee-KS",
   "id": 1840026832,
   "city": "Chicopee",
   "city_ascii": "Chicopee",
   "state_id": "KS",
   "City-State": "Chicopee-KS",
   "state_name": "Kansas",
   "county_fips": 20037,
   "county_name": "Crawford",
   "lat": 37.3834,
   "lng": -94.7445,
   "population": null,
   "population_proper": null,
   "density": 157.8,
   "source": "polygon",
   "incorporated": false,
   "timezone": "America/Chicago",
   "zips": "66762"
 },
 {
   "City-State": "Carneiro-KS",
   "id": 1840030222,
   "city": "Carneiro",
   "city_ascii": "Carneiro",
   "state_id": "KS",
   "City-State": "Carneiro-KS",
   "state_name": "Kansas",
   "county_fips": 20053,
   "county_name": "Ellsworth",
   "lat": 38.7389,
   "lng": -98.0309,
   "population": null,
   "population_proper": null,
   "density": 13.8,
   "source": "point",
   "incorporated": false,
   "timezone": "America/Chicago",
   "zips": "67425"
 },
 {
   "City-State": "Nicodemus-KS",
   "id": 1840030148,
   "city": "Nicodemus",
   "city_ascii": "Nicodemus",
   "state_id": "KS",
   "City-State": "Nicodemus-KS",
   "state_name": "Kansas",
   "county_fips": 20065,
   "county_name": "Graham",
   "lat": 39.3945,
   "lng": -99.6171,
   "population": null,
   "population_proper": null,
   "density": 18.2,
   "source": "point",
   "incorporated": false,
   "timezone": "America/Chicago",
   "zips": "67625"
 },
 {
   "City-State": "Holton-KS",
   "id": 1840001542,
   "city": "Holton",
   "city_ascii": "Holton",
   "state_id": "KS",
   "City-State": "Holton-KS",
   "state_name": "Kansas",
   "county_fips": 20085,
   "county_name": "Jackson",
   "lat": 39.47,
   "lng": -95.7319,
   "population": 3202,
   "population_proper": 3285,
   "density": 469,
   "source": "polygon",
   "incorporated": true,
   "timezone": "America/Chicago",
   "zips": "66436"
 },
 {
   "City-State": "Lansing-KS",
   "id": 1840001590,
   "city": "Lansing",
   "city_ascii": "Lansing",
   "state_id": "KS",
   "City-State": "Lansing-KS",
   "state_name": "Kansas",
   "county_fips": 20103,
   "county_name": "Leavenworth",
   "lat": 39.2435,
   "lng": -94.8981,
   "population": 11849,
   "population_proper": 11849,
   "density": 369,
   "source": "polygon",
   "incorporated": true,
   "timezone": "America/Chicago",
   "zips": "66043 66048"
 },
 {
   "City-State": "Richmond-KS",
   "id": 1840009640,
   "city": "Richmond",
   "city_ascii": "Richmond",
   "state_id": "KS",
   "City-State": "Richmond-KS",
   "state_name": "Kansas",
   "county_fips": 20059,
   "county_name": "Franklin",
   "lat": 38.4013,
   "lng": -95.2535,
   "population": 452,
   "population_proper": 452,
   "density": 577,
   "source": "polygon",
   "incorporated": true,
   "timezone": "America/Chicago",
   "zips": "66080"
 },
 {
   "City-State": "Clearwater-KS",
   "id": 1840007563,
   "city": "Clearwater",
   "city_ascii": "Clearwater",
   "state_id": "KS",
   "City-State": "Clearwater-KS",
   "state_name": "Kansas",
   "county_fips": 20173,
   "county_name": "Sedgwick",
   "lat": 37.509,
   "lng": -97.4974,
   "population": 2519,
   "population_proper": 2519,
   "density": 513,
   "source": "polygon",
   "incorporated": true,
   "timezone": "America/Chicago",
   "zips": "67026"
 },
 {
   "City-State": "Gypsum-KS",
   "id": 1840007430,
   "city": "Gypsum",
   "city_ascii": "Gypsum",
   "state_id": "KS",
   "City-State": "Gypsum-KS",
   "state_name": "Kansas",
   "county_fips": 20169,
   "county_name": "Saline",
   "lat": 38.7058,
   "lng": -97.4269,
   "population": 391,
   "population_proper": 391,
   "density": 415,
   "source": "polygon",
   "incorporated": true,
   "timezone": "America/Chicago",
   "zips": "67448"
 },
 {
   "City-State": "Muscotah-KS",
   "id": 1840008458,
   "city": "Muscotah",
   "city_ascii": "Muscotah",
   "state_id": "KS",
   "City-State": "Muscotah-KS",
   "state_name": "Kansas",
   "county_fips": 20005,
   "county_name": "Atchison",
   "lat": 39.5535,
   "lng": -95.5203,
   "population": 171,
   "population_proper": 171,
   "density": 196,
   "source": "polygon",
   "incorporated": true,
   "timezone": "America/Chicago",
   "zips": "66058"
 },
 {
   "City-State": "Page City-KS",
   "id": 1840030127,
   "city": "Page City",
   "city_ascii": "Page City",
   "state_id": "KS",
   "City-State": "Page City-KS",
   "state_name": "Kansas",
   "county_fips": 20109,
   "county_name": "Logan",
   "lat": 39.0897,
   "lng": -101.1463,
   "population": null,
   "population_proper": null,
   "density": 9.8,
   "source": "point",
   "incorporated": false,
   "timezone": "America/Chicago",
   "zips": "67764"
 },
 {
   "City-State": "Bazine-KS",
   "id": 1840007479,
   "city": "Bazine",
   "city_ascii": "Bazine",
   "state_id": "KS",
   "City-State": "Bazine-KS",
   "state_name": "Kansas",
   "county_fips": 20135,
   "county_name": "Ness",
   "lat": 38.4463,
   "lng": -99.6927,
   "population": 320,
   "population_proper": 320,
   "density": 283,
   "source": "polygon",
   "incorporated": true,
   "timezone": "America/Chicago",
   "zips": "67516"
 },
 {
   "City-State": "Langley-KS",
   "id": 1840030249,
   "city": "Langley",
   "city_ascii": "Langley",
   "state_id": "KS",
   "City-State": "Langley-KS",
   "state_name": "Kansas",
   "county_fips": 20053,
   "county_name": "Ellsworth",
   "lat": 38.5467,
   "lng": -97.9628,
   "population": null,
   "population_proper": null,
   "density": 7.3,
   "source": "point",
   "incorporated": false,
   "timezone": "America/Chicago",
   "zips": "67464"
 },
 {
   "City-State": "Columbus-KS",
   "id": 1840001715,
   "city": "Columbus",
   "city_ascii": "Columbus",
   "state_id": "KS",
   "City-State": "Columbus-KS",
   "state_name": "Kansas",
   "county_fips": 20021,
   "county_name": "Cherokee",
   "lat": 37.1723,
   "lng": -94.8442,
   "population": 3066,
   "population_proper": 3104,
   "density": 494,
   "source": "polygon",
   "incorporated": true,
   "timezone": "America/Chicago",
   "zips": "66725"
 },
 {
   "City-State": "Netawaka-KS",
   "id": 1840008456,
   "city": "Netawaka",
   "city_ascii": "Netawaka",
   "state_id": "KS",
   "City-State": "Netawaka-KS",
   "state_name": "Kansas",
   "county_fips": 20085,
   "county_name": "Jackson",
   "lat": 39.603,
   "lng": -95.7189,
   "population": 143,
   "population_proper": 143,
   "density": 56,
   "source": "polygon",
   "incorporated": true,
   "timezone": "America/Chicago",
   "zips": "66516"
 },
 {
   "City-State": "Alden-KS",
   "id": 1840007501,
   "city": "Alden",
   "city_ascii": "Alden",
   "state_id": "KS",
   "City-State": "Alden-KS",
   "state_name": "Kansas",
   "county_fips": 20159,
   "county_name": "Rice",
   "lat": 38.2441,
   "lng": -98.3119,
   "population": 144,
   "population_proper": 144,
   "density": 291,
   "source": "polygon",
   "incorporated": true,
   "timezone": "America/Chicago",
   "zips": "67512"
 },
 {
   "City-State": "Niles-KS",
   "id": 1840030239,
   "city": "Niles",
   "city_ascii": "Niles",
   "state_id": "KS",
   "City-State": "Niles-KS",
   "state_name": "Kansas",
   "county_fips": 20143,
   "county_name": "Ottawa",
   "lat": 38.9694,
   "lng": -97.4628,
   "population": null,
   "population_proper": null,
   "density": 59.8,
   "source": "point",
   "incorporated": false,
   "timezone": "America/Chicago",
   "zips": "67480"
 },
 {
   "City-State": "Downs-KS",
   "id": 1840008472,
   "city": "Downs",
   "city_ascii": "Downs",
   "state_id": "KS",
   "City-State": "Downs-KS",
   "state_name": "Kansas",
   "county_fips": 20141,
   "county_name": "Osborne",
   "lat": 39.5031,
   "lng": -98.5472,
   "population": 844,
   "population_proper": 844,
   "density": 325,
   "source": "polygon",
   "incorporated": true,
   "timezone": "America/Chicago",
   "zips": "67437"
 },
 {
   "City-State": "Aulne-KS",
   "id": 1840030254,
   "city": "Aulne",
   "city_ascii": "Aulne",
   "state_id": "KS",
   "City-State": "Aulne-KS",
   "state_name": "Kansas",
   "county_fips": 20115,
   "county_name": "Marion",
   "lat": 38.2761,
   "lng": -97.0767,
   "population": null,
   "population_proper": null,
   "density": 10.8,
   "source": "point",
   "incorporated": false,
   "timezone": "America/Chicago",
   "zips": "66861"
 },
 {
   "City-State": "Valley Falls-KS",
   "id": 1840010659,
   "city": "Valley Falls",
   "city_ascii": "Valley Falls",
   "state_id": "KS",
   "City-State": "Valley Falls-KS",
   "state_name": "Kansas",
   "county_fips": 20087,
   "county_name": "Jefferson",
   "lat": 39.3405,
   "lng": -95.4609,
   "population": 1149,
   "population_proper": 1149,
   "density": 578,
   "source": "polygon",
   "incorporated": true,
   "timezone": "America/Chicago",
   "zips": "66088"
 },
 {
   "City-State": "Duquoin-KS",
   "id": 1840030109,
   "city": "Duquoin",
   "city_ascii": "Duquoin",
   "state_id": "KS",
   "City-State": "Duquoin-KS",
   "state_name": "Kansas",
   "county_fips": 20077,
   "county_name": "Harper",
   "lat": 37.3828,
   "lng": -98.0737,
   "population": null,
   "population_proper": null,
   "density": 3.6,
   "source": "point",
   "incorporated": false,
   "timezone": "America/Chicago",
   "zips": "67058"
 },
 {
   "City-State": "Neutral-KS",
   "id": 1840030313,
   "city": "Neutral",
   "city_ascii": "Neutral",
   "state_id": "KS",
   "City-State": "Neutral-KS",
   "state_name": "Kansas",
   "county_fips": 20021,
   "county_name": "Cherokee",
   "lat": 37.0978,
   "lng": -94.795,
   "population": null,
   "population_proper": null,
   "density": 10.1,
   "source": "point",
   "incorporated": false,
   "timezone": "America/Chicago",
   "zips": "66725"
 },
 {
   "City-State": "Corning-KS",
   "id": 1840007296,
   "city": "Corning",
   "city_ascii": "Corning",
   "state_id": "KS",
   "City-State": "Corning-KS",
   "state_name": "Kansas",
   "county_fips": 20131,
   "county_name": "Nemaha",
   "lat": 39.6566,
   "lng": -96.0288,
   "population": 157,
   "population_proper": 157,
   "density": 227,
   "source": "polygon",
   "incorporated": true,
   "timezone": "America/Chicago",
   "zips": "66417"
 },
 {
   "City-State": "Hedville-KS",
   "id": 1840030242,
   "city": "Hedville",
   "city_ascii": "Hedville",
   "state_id": "KS",
   "City-State": "Hedville-KS",
   "state_name": "Kansas",
   "county_fips": 20169,
   "county_name": "Saline",
   "lat": 38.8628,
   "lng": -97.7614,
   "population": null,
   "population_proper": null,
   "density": 34.3,
   "source": "point",
   "incorporated": false,
   "timezone": "America/Chicago",
   "zips": "67401"
 },
 {
   "City-State": "Akron-KS",
   "id": 1840030323,
   "city": "Akron",
   "city_ascii": "Akron",
   "state_id": "KS",
   "City-State": "Akron-KS",
   "state_name": "Kansas",
   "county_fips": 20035,
   "county_name": "Cowley",
   "lat": 37.3517,
   "lng": -97.015,
   "population": null,
   "population_proper": null,
   "density": 3,
   "source": "point",
   "incorporated": false,
   "timezone": "America/Chicago",
   "zips": "67156"
 },
 {
   "City-State": "Partridge-KS",
   "id": 1840009764,
   "city": "Partridge",
   "city_ascii": "Partridge",
   "state_id": "KS",
   "City-State": "Partridge-KS",
   "state_name": "Kansas",
   "county_fips": 20155,
   "county_name": "Reno",
   "lat": 37.9665,
   "lng": -98.0923,
   "population": 242,
   "population_proper": 242,
   "density": 309,
   "source": "polygon",
   "incorporated": true,
   "timezone": "America/Chicago",
   "zips": "67566"
 },
 {
   "City-State": "Junction City-KS",
   "id": 1840001620,
   "city": "Junction City",
   "city_ascii": "Junction City",
   "state_id": "KS",
   "City-State": "Junction City-KS",
   "state_name": "Kansas",
   "county_fips": 20061,
   "county_name": "Geary",
   "lat": 39.0268,
   "lng": -96.8495,
   "population": 40157,
   "population_proper": 24180,
   "density": 842,
   "source": "polygon",
   "incorporated": true,
   "timezone": "America/Chicago",
   "zips": "66441"
 },
 {
   "City-State": "Hesston-KS",
   "id": 1840007534,
   "city": "Hesston",
   "city_ascii": "Hesston",
   "state_id": "KS",
   "City-State": "Hesston-KS",
   "state_name": "Kansas",
   "county_fips": 20079,
   "county_name": "Harvey",
   "lat": 38.1403,
   "lng": -97.4266,
   "population": 3390,
   "population_proper": 3803,
   "density": 407,
   "source": "polygon",
   "incorporated": true,
   "timezone": "America/Chicago",
   "zips": "67062"
 },
 {
   "City-State": "Neosho Falls-KS",
   "id": 1840008691,
   "city": "Neosho Falls",
   "city_ascii": "Neosho Falls",
   "state_id": "KS",
   "City-State": "Neosho Falls-KS",
   "state_name": "Kansas",
   "county_fips": 20207,
   "county_name": "Woodson",
   "lat": 38.0056,
   "lng": -95.5555,
   "population": 136,
   "population_proper": 136,
   "density": 96,
   "source": "polygon",
   "incorporated": true,
   "timezone": "America/Chicago",
   "zips": "66758"
 },
 {
   "City-State": "Kendall-KS",
   "id": 1840030137,
   "city": "Kendall",
   "city_ascii": "Kendall",
   "state_id": "KS",
   "City-State": "Kendall-KS",
   "state_name": "Kansas",
   "county_fips": 20075,
   "county_name": "Hamilton",
   "lat": 37.9347,
   "lng": -101.546,
   "population": null,
   "population_proper": null,
   "density": 39.4,
   "source": "point",
   "incorporated": false,
   "timezone": "America/Denver",
   "zips": "67857"
 },
 {
   "City-State": "Lane-KS",
   "id": 1840008617,
   "city": "Lane",
   "city_ascii": "Lane",
   "state_id": "KS",
   "City-State": "Lane-KS",
   "state_name": "Kansas",
   "county_fips": 20059,
   "county_name": "Franklin",
   "lat": 38.4399,
   "lng": -95.0817,
   "population": 222,
   "population_proper": 222,
   "density": 364,
   "source": "polygon",
   "incorporated": true,
   "timezone": "America/Chicago",
   "zips": "66042"
 },
 {
   "City-State": "Wakarusa-KS",
   "id": 1840026673,
   "city": "Wakarusa",
   "city_ascii": "Wakarusa",
   "state_id": "KS",
   "City-State": "Wakarusa-KS",
   "state_name": "Kansas",
   "county_fips": 20177,
   "county_name": "Shawnee",
   "lat": 38.8911,
   "lng": -95.6999,
   "population": null,
   "population_proper": null,
   "density": 46.3,
   "source": "polygon",
   "incorporated": false,
   "timezone": "America/Chicago",
   "zips": "66546"
 },
 {
   "City-State": "Roxbury-KS",
   "id": 1840026739,
   "city": "Roxbury",
   "city_ascii": "Roxbury",
   "state_id": "KS",
   "City-State": "Roxbury-KS",
   "state_name": "Kansas",
   "county_fips": 20113,
   "county_name": "McPherson",
   "lat": 38.5511,
   "lng": -97.4275,
   "population": null,
   "population_proper": null,
   "density": 51.6,
   "source": "polygon",
   "incorporated": false,
   "timezone": "America/Chicago",
   "zips": "67448 67476"
 },
 {
   "City-State": "Denmark-KS",
   "id": 1840030153,
   "city": "Denmark",
   "city_ascii": "Denmark",
   "state_id": "KS",
   "City-State": "Denmark-KS",
   "state_name": "Kansas",
   "county_fips": 20105,
   "county_name": "Lincoln",
   "lat": 39.0892,
   "lng": -98.287,
   "population": null,
   "population_proper": null,
   "density": 5.8,
   "source": "point",
   "incorporated": false,
   "timezone": "America/Chicago",
   "zips": "67455"
 },
 {
   "City-State": "Pretty Prairie-KS",
   "id": 1840009766,
   "city": "Pretty Prairie",
   "city_ascii": "Pretty Prairie",
   "state_id": "KS",
   "City-State": "Pretty Prairie-KS",
   "state_name": "Kansas",
   "county_fips": 20155,
   "county_name": "Reno",
   "lat": 37.7788,
   "lng": -98.0229,
   "population": 672,
   "population_proper": 672,
   "density": 452,
   "source": "polygon",
   "incorporated": true,
   "timezone": "America/Chicago",
   "zips": "67570"
 },
 {
   "City-State": "Skiddy-KS",
   "id": 1840030244,
   "city": "Skiddy",
   "city_ascii": "Skiddy",
   "state_id": "KS",
   "City-State": "Skiddy-KS",
   "state_name": "Kansas",
   "county_fips": 20127,
   "county_name": "Morris",
   "lat": 38.8681,
   "lng": -96.7945,
   "population": null,
   "population_proper": null,
   "density": 7.7,
   "source": "point",
   "incorporated": false,
   "timezone": "America/Chicago",
   "zips": "66872"
 },
 {
   "City-State": "Hiawatha-KS",
   "id": 1840000726,
   "city": "Hiawatha",
   "city_ascii": "Hiawatha",
   "state_id": "KS",
   "City-State": "Hiawatha-KS",
   "state_name": "Kansas",
   "county_fips": 20013,
   "county_name": "Brown",
   "lat": 39.8515,
   "lng": -95.538,
   "population": 3038,
   "population_proper": 3065,
   "density": 457,
   "source": "polygon",
   "incorporated": true,
   "timezone": "America/Chicago",
   "zips": "66434"
 },
 {
   "City-State": "Goessel-KS",
   "id": 1840008639,
   "city": "Goessel",
   "city_ascii": "Goessel",
   "state_id": "KS",
   "City-State": "Goessel-KS",
   "state_name": "Kansas",
   "county_fips": 20115,
   "county_name": "Marion",
   "lat": 38.2469,
   "lng": -97.3458,
   "population": 508,
   "population_proper": 508,
   "density": 558,
   "source": "polygon",
   "incorporated": true,
   "timezone": "America/Chicago",
   "zips": "67053"
 },
 {
   "City-State": "Angola-KS",
   "id": 1840030088,
   "city": "Angola",
   "city_ascii": "Angola",
   "state_id": "KS",
   "City-State": "Angola-KS",
   "state_name": "Kansas",
   "county_fips": 20099,
   "county_name": "Labette",
   "lat": 37.1056,
   "lng": -95.4494,
   "population": null,
   "population_proper": null,
   "density": 3.1,
   "source": "point",
   "incorporated": false,
   "timezone": "America/Chicago",
   "zips": "67337"
 },
 {
   "City-State": "Eastborough-KS",
   "id": 1840008703,
   "city": "Eastborough",
   "city_ascii": "Eastborough",
   "state_id": "KS",
   "City-State": "Eastborough-KS",
   "state_name": "Kansas",
   "county_fips": 20173,
   "county_name": "Sedgwick",
   "lat": 37.6855,
   "lng": -97.2592,
   "population": 761,
   "population_proper": 761,
   "density": 734,
   "source": "polygon",
   "incorporated": true,
   "timezone": "America/Chicago",
   "zips": "67206 67207 67208"
 },
 {
   "City-State": "Baxter Springs-KS",
   "id": 1840001714,
   "city": "Baxter Springs",
   "city_ascii": "Baxter Springs",
   "state_id": "KS",
   "City-State": "Baxter Springs-KS",
   "state_name": "Kansas",
   "county_fips": 20021,
   "county_name": "Cherokee",
   "lat": 37.0196,
   "lng": -94.735,
   "population": 4759,
   "population_proper": 3963,
   "density": 491,
   "source": "polygon",
   "incorporated": true,
   "timezone": "America/Chicago",
   "zips": "66713"
 },
 {
   "City-State": "Havensville-KS",
   "id": 1840007354,
   "city": "Havensville",
   "city_ascii": "Havensville",
   "state_id": "KS",
   "City-State": "Havensville-KS",
   "state_name": "Kansas",
   "county_fips": 20149,
   "county_name": "Pottawatomie",
   "lat": 39.5114,
   "lng": -96.0764,
   "population": 150,
   "population_proper": 150,
   "density": 395,
   "source": "polygon",
   "incorporated": true,
   "timezone": "America/Chicago",
   "zips": "66432"
 },
 {
   "City-State": "Prairie View-KS",
   "id": 1840009510,
   "city": "Prairie View",
   "city_ascii": "Prairie View",
   "state_id": "KS",
   "City-State": "Prairie View-KS",
   "state_name": "Kansas",
   "county_fips": 20147,
   "county_name": "Phillips",
   "lat": 39.832,
   "lng": -99.5734,
   "population": 127,
   "population_proper": 127,
   "density": 333,
   "source": "polygon",
   "incorporated": true,
   "timezone": "America/Chicago",
   "zips": "67664"
 },
 {
   "City-State": "Fredonia-KS",
   "id": 1840001693,
   "city": "Fredonia",
   "city_ascii": "Fredonia",
   "state_id": "KS",
   "City-State": "Fredonia-KS",
   "state_name": "Kansas",
   "county_fips": 20205,
   "county_name": "Wilson",
   "lat": 37.5329,
   "lng": -95.8227,
   "population": 2291,
   "population_proper": 2291,
   "density": 362,
   "source": "polygon",
   "incorporated": true,
   "timezone": "America/Chicago",
   "zips": "66736"
 },
 {
   "City-State": "Otis-KS",
   "id": 1840009655,
   "city": "Otis",
   "city_ascii": "Otis",
   "state_id": "KS",
   "City-State": "Otis-KS",
   "state_name": "Kansas",
   "county_fips": 20165,
   "county_name": "Rush",
   "lat": 38.5348,
   "lng": -99.0534,
   "population": 262,
   "population_proper": 262,
   "density": 333,
   "source": "polygon",
   "incorporated": true,
   "timezone": "America/Chicago",
   "zips": "67565"
 },
 {
   "City-State": "Grandview Plaza-KS",
   "id": 1840008543,
   "city": "Grandview Plaza",
   "city_ascii": "Grandview Plaza",
   "state_id": "KS",
   "City-State": "Grandview Plaza-KS",
   "state_name": "Kansas",
   "county_fips": 20061,
   "county_name": "Geary",
   "lat": 39.0323,
   "lng": -96.7925,
   "population": 1595,
   "population_proper": 1595,
   "density": 730,
   "source": "polygon",
   "incorporated": true,
   "timezone": "America/Chicago",
   "zips": "66441"
 },
 {
   "City-State": "Baileyville-KS",
   "id": 1840026604,
   "city": "Baileyville",
   "city_ascii": "Baileyville",
   "state_id": "KS",
   "City-State": "Baileyville-KS",
   "state_name": "Kansas",
   "county_fips": 20131,
   "county_name": "Nemaha",
   "lat": 39.8419,
   "lng": -96.1828,
   "population": null,
   "population_proper": null,
   "density": 136,
   "source": "polygon",
   "incorporated": false,
   "timezone": "America/Chicago",
   "zips": "66404"
 },
 {
   "City-State": "Lebanon-KS",
   "id": 1840008412,
   "city": "Lebanon",
   "city_ascii": "Lebanon",
   "state_id": "KS",
   "City-State": "Lebanon-KS",
   "state_name": "Kansas",
   "county_fips": 20183,
   "county_name": "Smith",
   "lat": 39.8102,
   "lng": -98.5573,
   "population": 203,
   "population_proper": 203,
   "density": 247,
   "source": "polygon",
   "incorporated": true,
   "timezone": "America/Chicago",
   "zips": "66952"
 },
 {
   "City-State": "Padonia-KS",
   "id": 1840030159,
   "city": "Padonia",
   "city_ascii": "Padonia",
   "state_id": "KS",
   "City-State": "Padonia-KS",
   "state_name": "Kansas",
   "county_fips": 20013,
   "county_name": "Brown",
   "lat": 39.9233,
   "lng": -95.5628,
   "population": null,
   "population_proper": null,
   "density": 7,
   "source": "point",
   "incorporated": false,
   "timezone": "America/Chicago",
   "zips": "66434"
 },
 {
   "City-State": "Westphalia-KS",
   "id": 1840010815,
   "city": "Westphalia",
   "city_ascii": "Westphalia",
   "state_id": "KS",
   "City-State": "Westphalia-KS",
   "state_name": "Kansas",
   "county_fips": 20003,
   "county_name": "Anderson",
   "lat": 38.1819,
   "lng": -95.4906,
   "population": 158,
   "population_proper": 158,
   "density": 326,
   "source": "polygon",
   "incorporated": true,
   "timezone": "America/Chicago",
   "zips": "66093"
 },
 {
   "City-State": "Sabetha-KS",
   "id": 1840000728,
   "city": "Sabetha",
   "city_ascii": "Sabetha",
   "state_id": "KS",
   "City-State": "Sabetha-KS",
   "state_name": "Kansas",
   "county_fips": 20131,
   "county_name": "Nemaha",
   "lat": 39.912,
   "lng": -95.7908,
   "population": 2538,
   "population_proper": 2584,
   "density": 289,
   "source": "polygon",
   "incorporated": true,
   "timezone": "America/Chicago",
   "zips": "66534"
 },
 {
   "City-State": "Birmingham-KS",
   "id": 1840030271,
   "city": "Birmingham",
   "city_ascii": "Birmingham",
   "state_id": "KS",
   "City-State": "Birmingham-KS",
   "state_name": "Kansas",
   "county_fips": 20085,
   "county_name": "Jackson",
   "lat": 39.4092,
   "lng": -95.6825,
   "population": null,
   "population_proper": null,
   "density": 9.9,
   "source": "point",
   "incorporated": false,
   "timezone": "America/Chicago",
   "zips": "66436"
 },
 {
   "City-State": "Harris-KS",
   "id": 1840026763,
   "city": "Harris",
   "city_ascii": "Harris",
   "state_id": "KS",
   "City-State": "Harris-KS",
   "state_name": "Kansas",
   "county_fips": 20003,
   "county_name": "Anderson",
   "lat": 38.3206,
   "lng": -95.445,
   "population": null,
   "population_proper": null,
   "density": 60.9,
   "source": "polygon",
   "incorporated": false,
   "timezone": "America/Chicago",
   "zips": "66032"
 },
 {
   "City-State": "Parkerville-KS",
   "id": 1840009774,
   "city": "Parkerville",
   "city_ascii": "Parkerville",
   "state_id": "KS",
   "City-State": "Parkerville-KS",
   "state_name": "Kansas",
   "county_fips": 20127,
   "county_name": "Morris",
   "lat": 38.7637,
   "lng": -96.6616,
   "population": 56,
   "population_proper": 56,
   "density": 180,
   "source": "polygon",
   "incorporated": true,
   "timezone": "America/Chicago",
   "zips": "66846 66872"
 },
 {
   "City-State": "Centerville-KS",
   "id": 1840030269,
   "city": "Centerville",
   "city_ascii": "Centerville",
   "state_id": "KS",
   "City-State": "Centerville-KS",
   "state_name": "Kansas",
   "county_fips": 20107,
   "county_name": "Linn",
   "lat": 38.2209,
   "lng": -95.0141,
   "population": null,
   "population_proper": null,
   "density": 83.5,
   "source": "point",
   "incorporated": false,
   "timezone": "America/Chicago",
   "zips": "66014"
 },
 {
   "City-State": "Earlton-KS",
   "id": 1840008721,
   "city": "Earlton",
   "city_ascii": "Earlton",
   "state_id": "KS",
   "City-State": "Earlton-KS",
   "state_name": "Kansas",
   "county_fips": 20133,
   "county_name": "Neosho",
   "lat": 37.5875,
   "lng": -95.47,
   "population": 52,
   "population_proper": 52,
   "density": 136,
   "source": "polygon",
   "incorporated": true,
   "timezone": "America/Chicago",
   "zips": "66720"
 },
 {
   "City-State": "Delphos-KS",
   "id": 1840007384,
   "city": "Delphos",
   "city_ascii": "Delphos",
   "state_id": "KS",
   "City-State": "Delphos-KS",
   "state_name": "Kansas",
   "county_fips": 20143,
   "county_name": "Ottawa",
   "lat": 39.2745,
   "lng": -97.7659,
   "population": 340,
   "population_proper": 340,
   "density": 213,
   "source": "polygon",
   "incorporated": true,
   "timezone": "America/Chicago",
   "zips": "67436"
 },
 {
   "City-State": "Powhattan-KS",
   "id": 1840009512,
   "city": "Powhattan",
   "city_ascii": "Powhattan",
   "state_id": "KS",
   "City-State": "Powhattan-KS",
   "state_name": "Kansas",
   "county_fips": 20013,
   "county_name": "Brown",
   "lat": 39.7616,
   "lng": -95.634,
   "population": 75,
   "population_proper": 75,
   "density": 200,
   "source": "polygon",
   "incorporated": true,
   "timezone": "America/Chicago",
   "zips": "66527"
 },
 {
   "City-State": "Sharon-KS",
   "id": 1840009902,
   "city": "Sharon",
   "city_ascii": "Sharon",
   "state_id": "KS",
   "City-State": "Sharon-KS",
   "state_name": "Kansas",
   "county_fips": 20007,
   "county_name": "Barber",
   "lat": 37.2501,
   "lng": -98.4175,
   "population": 154,
   "population_proper": 154,
   "density": 208,
   "source": "polygon",
   "incorporated": true,
   "timezone": "America/Chicago",
   "zips": "67138"
 },
 {
   "City-State": "Denton-KS",
   "id": 1840007300,
   "city": "Denton",
   "city_ascii": "Denton",
   "state_id": "KS",
   "City-State": "Denton-KS",
   "state_name": "Kansas",
   "county_fips": 20043,
   "county_name": "Doniphan",
   "lat": 39.7319,
   "lng": -95.2696,
   "population": 144,
   "population_proper": 144,
   "density": 392,
   "source": "polygon",
   "incorporated": true,
   "timezone": "America/Chicago",
   "zips": "66017"
 },
 {
   "City-State": "Coolidge-KS",
   "id": 1840007524,
   "city": "Coolidge",
   "city_ascii": "Coolidge",
   "state_id": "KS",
   "City-State": "Coolidge-KS",
   "state_name": "Kansas",
   "county_fips": 20075,
   "county_name": "Hamilton",
   "lat": 38.0415,
   "lng": -102.0078,
   "population": 91,
   "population_proper": 91,
   "density": 76,
   "source": "polygon",
   "incorporated": true,
   "timezone": "America/Denver",
   "zips": "67836"
 },
 {
   "City-State": "Big Bow-KS",
   "id": 1840030141,
   "city": "Big Bow",
   "city_ascii": "Big Bow",
   "state_id": "KS",
   "City-State": "Big Bow-KS",
   "state_name": "Kansas",
   "county_fips": 20187,
   "county_name": "Stanton",
   "lat": 37.565,
   "lng": -101.5616,
   "population": null,
   "population_proper": null,
   "density": 41.6,
   "source": "point",
   "incorporated": false,
   "timezone": "America/Chicago",
   "zips": "67855"
 },
 {
   "City-State": "Silver Lake-KS",
   "id": 1840009685,
   "city": "Silver Lake",
   "city_ascii": "Silver Lake",
   "state_id": "KS",
   "City-State": "Silver Lake-KS",
   "state_name": "Kansas",
   "county_fips": 20177,
   "county_name": "Shawnee",
   "lat": 39.0993,
   "lng": -95.8562,
   "population": 1426,
   "population_proper": 1426,
   "density": 953,
   "source": "polygon",
   "incorporated": true,
   "timezone": "America/Chicago",
   "zips": "66539"
 },
 {
   "City-State": "Herndon-KS",
   "id": 1840007277,
   "city": "Herndon",
   "city_ascii": "Herndon",
   "state_id": "KS",
   "City-State": "Herndon-KS",
   "state_name": "Kansas",
   "county_fips": 20153,
   "county_name": "Rawlins",
   "lat": 39.9088,
   "lng": -100.7858,
   "population": 130,
   "population_proper": 130,
   "density": 190,
   "source": "polygon",
   "incorporated": true,
   "timezone": "America/Chicago",
   "zips": "67739"
 },
 {
   "City-State": "Willowdale-KS",
   "id": 1840030187,
   "city": "Willowdale",
   "city_ascii": "Willowdale",
   "state_id": "KS",
   "City-State": "Willowdale-KS",
   "state_name": "Kansas",
   "county_fips": 20095,
   "county_name": "Kingman",
   "lat": 37.5153,
   "lng": -98.3017,
   "population": null,
   "population_proper": null,
   "density": 22.1,
   "source": "point",
   "incorporated": false,
   "timezone": "America/Chicago",
   "zips": "67142"
 },
 {
   "City-State": "Fellsburg-KS",
   "id": 1840030175,
   "city": "Fellsburg",
   "city_ascii": "Fellsburg",
   "state_id": "KS",
   "City-State": "Fellsburg-KS",
   "state_name": "Kansas",
   "county_fips": 20047,
   "county_name": "Edwards",
   "lat": 37.812,
   "lng": -99.1754,
   "population": null,
   "population_proper": null,
   "density": 7.7,
   "source": "point",
   "incorporated": false,
   "timezone": "America/Chicago",
   "zips": "67552"
 },
 {
   "City-State": "Wheaton-KS",
   "id": 1840010636,
   "city": "Wheaton",
   "city_ascii": "Wheaton",
   "state_id": "KS",
   "City-State": "Wheaton-KS",
   "state_name": "Kansas",
   "county_fips": 20149,
   "county_name": "Pottawatomie",
   "lat": 39.5022,
   "lng": -96.3188,
   "population": 103,
   "population_proper": 103,
   "density": 269,
   "source": "polygon",
   "incorporated": true,
   "timezone": "America/Chicago",
   "zips": "66521"
 },
 {
   "City-State": "Inman-KS",
   "id": 1840008637,
   "city": "Inman",
   "city_ascii": "Inman",
   "state_id": "KS",
   "City-State": "Inman-KS",
   "state_name": "Kansas",
   "county_fips": 20113,
   "county_name": "McPherson",
   "lat": 38.2302,
   "lng": -97.7725,
   "population": 1353,
   "population_proper": 1353,
   "density": 866,
   "source": "polygon",
   "incorporated": true,
   "timezone": "America/Chicago",
   "zips": "67546"
 },
 {
   "City-State": "Beagle-KS",
   "id": 1840030259,
   "city": "Beagle",
   "city_ascii": "Beagle",
   "state_id": "KS",
   "City-State": "Beagle-KS",
   "state_name": "Kansas",
   "county_fips": 20121,
   "county_name": "Miami",
   "lat": 38.4181,
   "lng": -94.955,
   "population": null,
   "population_proper": null,
   "density": 42.1,
   "source": "point",
   "incorporated": false,
   "timezone": "America/Chicago",
   "zips": "66064"
 },
 {
   "City-State": "Coyville-KS",
   "id": 1840007587,
   "city": "Coyville",
   "city_ascii": "Coyville",
   "state_id": "KS",
   "City-State": "Coyville-KS",
   "state_name": "Kansas",
   "county_fips": 20205,
   "county_name": "Wilson",
   "lat": 37.6872,
   "lng": -95.8957,
   "population": 43,
   "population_proper": 43,
   "density": 59,
   "source": "polygon",
   "incorporated": true,
   "timezone": "America/Chicago",
   "zips": "66736"
 },
 {
   "City-State": "Roeland Park-KS",
   "id": 1840001640,
   "city": "Roeland Park",
   "city_ascii": "Roeland Park",
   "state_id": "KS",
   "City-State": "Roeland Park-KS",
   "state_name": "Kansas",
   "county_fips": 20091,
   "county_name": "Johnson",
   "lat": 39.0358,
   "lng": -94.6374,
   "population": 6786,
   "population_proper": 6786,
   "density": 1614,
   "source": "polygon",
   "incorporated": true,
   "timezone": "America/Chicago",
   "zips": "66205"
 },
 {
   "City-State": "Utica-KS",
   "id": 1840010774,
   "city": "Utica",
   "city_ascii": "Utica",
   "state_id": "KS",
   "City-State": "Utica-KS",
   "state_name": "Kansas",
   "county_fips": 20135,
   "county_name": "Ness",
   "lat": 38.6426,
   "lng": -100.1699,
   "population": 152,
   "population_proper": 152,
   "density": 249,
   "source": "polygon",
   "incorporated": true,
   "timezone": "America/Chicago",
   "zips": "67584"
 },
 {
   "City-State": "Buxton-KS",
   "id": 1840030321,
   "city": "Buxton",
   "city_ascii": "Buxton",
   "state_id": "KS",
   "City-State": "Buxton-KS",
   "state_name": "Kansas",
   "county_fips": 20205,
   "county_name": "Wilson",
   "lat": 37.4484,
   "lng": -95.9205,
   "population": null,
   "population_proper": null,
   "density": 10.1,
   "source": "point",
   "incorporated": false,
   "timezone": "America/Chicago",
   "zips": "66736"
 },
 {
   "City-State": "Turon-KS",
   "id": 1840010831,
   "city": "Turon",
   "city_ascii": "Turon",
   "state_id": "KS",
   "City-State": "Turon-KS",
   "state_name": "Kansas",
   "county_fips": 20155,
   "county_name": "Reno",
   "lat": 37.8075,
   "lng": -98.4281,
   "population": 378,
   "population_proper": 378,
   "density": 318,
   "source": "polygon",
   "incorporated": true,
   "timezone": "America/Chicago",
   "zips": "67583"
 },
 {
   "City-State": "Osage City-KS",
   "id": 1840003836,
   "city": "Osage City",
   "city_ascii": "Osage City",
   "state_id": "KS",
   "City-State": "Osage City-KS",
   "state_name": "Kansas",
   "county_fips": 20139,
   "county_name": "Osage",
   "lat": 38.6337,
   "lng": -95.8221,
   "population": 2586,
   "population_proper": 2837,
   "density": 341,
   "source": "polygon",
   "incorporated": true,
   "timezone": "America/Chicago",
   "zips": "66523"
 },
 {
   "City-State": "Angelus-KS",
   "id": 1840030125,
   "city": "Angelus",
   "city_ascii": "Angelus",
   "state_id": "KS",
   "City-State": "Angelus-KS",
   "state_name": "Kansas",
   "county_fips": 20179,
   "county_name": "Sheridan",
   "lat": 39.1911,
   "lng": -100.6843,
   "population": null,
   "population_proper": null,
   "density": 12.3,
   "source": "point",
   "incorporated": false,
   "timezone": "America/Chicago",
   "zips": "67738"
 },
 {
   "City-State": "Colony-KS",
   "id": 1840007516,
   "city": "Colony",
   "city_ascii": "Colony",
   "state_id": "KS",
   "City-State": "Colony-KS",
   "state_name": "Kansas",
   "county_fips": 20003,
   "county_name": "Anderson",
   "lat": 38.0711,
   "lng": -95.3626,
   "population": 404,
   "population_proper": 404,
   "density": 302,
   "source": "polygon",
   "incorporated": true,
   "timezone": "America/Chicago",
   "zips": "66015"
 },
 {
   "City-State": "Dresden-KS",
   "id": 1840008417,
   "city": "Dresden",
   "city_ascii": "Dresden",
   "state_id": "KS",
   "City-State": "Dresden-KS",
   "state_name": "Kansas",
   "county_fips": 20039,
   "county_name": "Decatur",
   "lat": 39.6218,
   "lng": -100.4188,
   "population": 40,
   "population_proper": 40,
   "density": 16,
   "source": "polygon",
   "incorporated": true,
   "timezone": "America/Chicago",
   "zips": "67635"
 },
 {
   "City-State": "Raymond-KS",
   "id": 1840009808,
   "city": "Raymond",
   "city_ascii": "Raymond",
   "state_id": "KS",
   "City-State": "Raymond-KS",
   "state_name": "Kansas",
   "county_fips": 20159,
   "county_name": "Rice",
   "lat": 38.278,
   "lng": -98.4145,
   "population": 77,
   "population_proper": 77,
   "density": 92,
   "source": "polygon",
   "incorporated": true,
   "timezone": "America/Chicago",
   "zips": "67573"
 },
 {
   "City-State": "Vining-KS",
   "id": 1840010550,
   "city": "Vining",
   "city_ascii": "Vining",
   "state_id": "KS",
   "City-State": "Vining-KS",
   "state_name": "Kansas",
   "county_fips": 20027,
   "county_name": "Clay",
   "lat": 39.5675,
   "lng": -97.2937,
   "population": 43,
   "population_proper": 43,
   "density": 74,
   "source": "polygon",
   "incorporated": true,
   "timezone": "America/Chicago",
   "zips": "66937"
 },
 {
   "City-State": "Iowa Point-KS",
   "id": 1840030160,
   "city": "Iowa Point",
   "city_ascii": "Iowa Point",
   "state_id": "KS",
   "City-State": "Iowa Point-KS",
   "state_name": "Kansas",
   "county_fips": 20043,
   "county_name": "Doniphan",
   "lat": 39.9283,
   "lng": -95.2386,
   "population": null,
   "population_proper": null,
   "density": 1.6,
   "source": "point",
   "incorporated": false,
   "timezone": "America/Chicago",
   "zips": "66035"
 },
 {
   "City-State": "Cawker City-KS",
   "id": 1840007349,
   "city": "Cawker City",
   "city_ascii": "Cawker City",
   "state_id": "KS",
   "City-State": "Cawker City-KS",
   "state_name": "Kansas",
   "county_fips": 20123,
   "county_name": "Mitchell",
   "lat": 39.5095,
   "lng": -98.4331,
   "population": 451,
   "population_proper": 451,
   "density": 174,
   "source": "polygon",
   "incorporated": true,
   "timezone": "America/Chicago",
   "zips": "67430"
 },
 {
   "City-State": "Gardner-KS",
   "id": 1840001636,
   "city": "Gardner",
   "city_ascii": "Gardner",
   "state_id": "KS",
   "City-State": "Gardner-KS",
   "state_name": "Kansas",
   "county_fips": 20091,
   "county_name": "Johnson",
   "lat": 38.8163,
   "lng": -94.9297,
   "population": 21110,
   "population_proper": 21110,
   "density": 800,
   "source": "polygon",
   "incorporated": true,
   "timezone": "America/Chicago",
   "zips": "66030"
 },
 {
   "City-State": "Edmond-KS",
   "id": 1840008420,
   "city": "Edmond",
   "city_ascii": "Edmond",
   "state_id": "KS",
   "City-State": "Edmond-KS",
   "state_name": "Kansas",
   "county_fips": 20137,
   "county_name": "Norton",
   "lat": 39.6272,
   "lng": -99.8199,
   "population": 47,
   "population_proper": 47,
   "density": 109,
   "source": "polygon",
   "incorporated": true,
   "timezone": "America/Chicago",
   "zips": "67645"
 },
 {
   "City-State": "Natoma-KS",
   "id": 1840008473,
   "city": "Natoma",
   "city_ascii": "Natoma",
   "state_id": "KS",
   "City-State": "Natoma-KS",
   "state_name": "Kansas",
   "county_fips": 20141,
   "county_name": "Osborne",
   "lat": 39.1886,
   "lng": -99.0242,
   "population": 311,
   "population_proper": 311,
   "density": 291,
   "source": "polygon",
   "incorporated": true,
   "timezone": "America/Chicago",
   "zips": "67651"
 },
 {
   "City-State": "Clayton-KS",
   "id": 1840007289,
   "city": "Clayton",
   "city_ascii": "Clayton",
   "state_id": "KS",
   "City-State": "Clayton-KS",
   "state_name": "Kansas",
   "county_fips": 20137,
   "county_name": "Norton",
   "lat": 39.737,
   "lng": -100.1765,
   "population": 57,
   "population_proper": 57,
   "density": 51,
   "source": "polygon",
   "incorporated": true,
   "timezone": "America/Chicago",
   "zips": "67629"
 },
 {
   "City-State": "Edgerton-KS",
   "id": 1840001634,
   "city": "Edgerton",
   "city_ascii": "Edgerton",
   "state_id": "KS",
   "City-State": "Edgerton-KS",
   "state_name": "Kansas",
   "county_fips": 20091,
   "county_name": "Johnson",
   "lat": 38.7751,
   "lng": -94.9761,
   "population": 1756,
   "population_proper": 1756,
   "density": 125,
   "source": "polygon",
   "incorporated": true,
   "timezone": "America/Chicago",
   "zips": "66021 66030"
 },
 {
   "City-State": "Arrington-KS",
   "id": 1840030272,
   "city": "Arrington",
   "city_ascii": "Arrington",
   "state_id": "KS",
   "City-State": "Arrington-KS",
   "state_name": "Kansas",
   "county_fips": 20005,
   "county_name": "Atchison",
   "lat": 39.4628,
   "lng": -95.5364,
   "population": null,
   "population_proper": null,
   "density": 26.7,
   "source": "point",
   "incorporated": false,
   "timezone": "America/Chicago",
   "zips": "66436"
 },
 {
   "City-State": "Hartford-KS",
   "id": 1840007471,
   "city": "Hartford",
   "city_ascii": "Hartford",
   "state_id": "KS",
   "City-State": "Hartford-KS",
   "state_name": "Kansas",
   "county_fips": 20111,
   "county_name": "Lyon",
   "lat": 38.3081,
   "lng": -95.9568,
   "population": 368,
   "population_proper": 368,
   "density": 371,
   "source": "polygon",
   "incorporated": true,
   "timezone": "America/Chicago",
   "zips": "66854"
 },
 {
   "City-State": "Burden-KS",
   "id": 1840007604,
   "city": "Burden",
   "city_ascii": "Burden",
   "state_id": "KS",
   "City-State": "Burden-KS",
   "state_name": "Kansas",
   "county_fips": 20035,
   "county_name": "Cowley",
   "lat": 37.3151,
   "lng": -96.7554,
   "population": 533,
   "population_proper": 533,
   "density": 398,
   "source": "polygon",
   "incorporated": true,
   "timezone": "America/Chicago",
   "zips": "67019"
 },
 {
   "City-State": "Heizer-KS",
   "id": 1840030224,
   "city": "Heizer",
   "city_ascii": "Heizer",
   "state_id": "KS",
   "City-State": "Heizer-KS",
   "state_name": "Kansas",
   "county_fips": 20009,
   "county_name": "Barton",
   "lat": 38.4222,
   "lng": -98.8893,
   "population": null,
   "population_proper": null,
   "density": 47.8,
   "source": "point",
   "incorporated": false,
   "timezone": "America/Chicago",
   "zips": "67530"
 },
 {
   "City-State": "Buhler-KS",
   "id": 1840007537,
   "city": "Buhler",
   "city_ascii": "Buhler",
   "state_id": "KS",
   "City-State": "Buhler-KS",
   "state_name": "Kansas",
   "county_fips": 20155,
   "county_name": "Reno",
   "lat": 38.1386,
   "lng": -97.7708,
   "population": 1317,
   "population_proper": 1317,
   "density": 677,
   "source": "polygon",
   "incorporated": true,
   "timezone": "America/Chicago",
   "zips": "67522"
 },
 {
   "City-State": "Stafford-KS",
   "id": 1840009830,
   "city": "Stafford",
   "city_ascii": "Stafford",
   "state_id": "KS",
   "City-State": "Stafford-KS",
   "state_name": "Kansas",
   "county_fips": 20185,
   "county_name": "Stafford",
   "lat": 37.9624,
   "lng": -98.5993,
   "population": 978,
   "population_proper": 978,
   "density": 412,
   "source": "polygon",
   "incorporated": true,
   "timezone": "America/Chicago",
   "zips": "67578"
 },
 {
   "City-State": "Hanover-KS",
   "id": 1840007287,
   "city": "Hanover",
   "city_ascii": "Hanover",
   "state_id": "KS",
   "City-State": "Hanover-KS",
   "state_name": "Kansas",
   "county_fips": 20201,
   "county_name": "Washington",
   "lat": 39.893,
   "lng": -96.876,
   "population": 660,
   "population_proper": 660,
   "density": 473,
   "source": "polygon",
   "incorporated": true,
   "timezone": "America/Chicago",
   "zips": "66945"
 },