[
 {
   "City-State": "Savage-MD",
   "id": 1840026664,
   "city": "Savage",
   "city_ascii": "Savage",
   "state_id": "MD",
   "City-State": "Savage-MD",
   "state_name": "Maryland",
   "county_fips": 24027,
   "county_name": "Howard",
   "lat": 39.1485,
   "lng": -76.8228,
   "population": null,
   "population_proper": null,
   "density": 2287.6,
   "source": "polygon",
   "incorporated": false,
   "timezone": "America/New_York",
   "zips": "20763 20794"
 },
 {
   "City-State": "Lochearn-MD",
   "id": 1840005694,
   "city": "Lochearn",
   "city_ascii": "Lochearn",
   "state_id": "MD",
   "City-State": "Lochearn-MD",
   "state_name": "Maryland",
   "county_fips": 24005,
   "county_name": "Baltimore",
   "lat": 39.346,
   "lng": -76.7307,
   "population": null,
   "population_proper": null,
   "density": 1293.4,
   "source": "polygon",
   "incorporated": false,
   "timezone": "America/New_York",
   "zips": "21208 21207"
 },
 {
   "City-State": "Kensington-MD",
   "id": 1840005856,
   "city": "Kensington",
   "city_ascii": "Kensington",
   "state_id": "MD",
   "City-State": "Kensington-MD",
   "state_name": "Maryland",
   "county_fips": 24031,
   "county_name": "Montgomery",
   "lat": 39.0265,
   "lng": -77.0737,
   "population": 2379,
   "population_proper": 2379,
   "density": 1918,
   "source": "polygon",
   "incorporated": true,
   "timezone": "America/New_York",
   "zips": "20895 20891"
 },
 {
   "City-State": "Peppermill Village-MD",
   "id": 1840031500,
   "city": "Peppermill Village",
   "city_ascii": "Peppermill Village",
   "state_id": "MD",
   "City-State": "Peppermill Village-MD",
   "state_name": "Maryland",
   "county_fips": 24033,
   "county_name": "Prince George's",
   "lat": 38.894,
   "lng": -76.8878,
   "population": null,
   "population_proper": null,
   "density": 2788.3,
   "source": "polygon",
   "incorporated": false,
   "timezone": "America/New_York",
   "zips": "20743"
 },
 {
   "City-State": "Brock Hall-MD",
   "id": 1840024541,
   "city": "Brock Hall",
   "city_ascii": "Brock Hall",
   "state_id": "MD",
   "City-State": "Brock Hall-MD",
   "state_name": "Maryland",
   "county_fips": 24033,
   "county_name": "Prince George's",
   "lat": 38.8618,
   "lng": -76.7549,
   "population": null,
   "population_proper": null,
   "density": 269.2,
   "source": "polygon",
   "incorporated": false,
   "timezone": "America/New_York",
   "zips": "20774 20772"
 },
 {
   "City-State": "Willards-MD",
   "id": 1840006224,
   "city": "Willards",
   "city_ascii": "Willards",
   "state_id": "MD",
   "City-State": "Willards-MD",
   "state_name": "Maryland",
   "county_fips": 24045,
   "county_name": "Wicomico",
   "lat": 38.3922,
   "lng": -75.3494,
   "population": 997,
   "population_proper": 997,
   "density": 358,
   "source": "polygon",
   "incorporated": true,
   "timezone": "America/New_York",
   "zips": "21874"
 },
 {
   "City-State": "Snow Hill-MD",
   "id": 1840006260,
   "city": "Snow Hill",
   "city_ascii": "Snow Hill",
   "state_id": "MD",
   "City-State": "Snow Hill-MD",
   "state_name": "Maryland",
   "county_fips": 24047,
   "county_name": "Worcester",
   "lat": 38.1654,
   "lng": -75.3968,
   "population": 2071,
   "population_proper": 2071,
   "density": 263,
   "source": "polygon",
   "incorporated": true,
   "timezone": "America/New_York",
   "zips": "21863"
 },
 {
   "City-State": "Pomona-MD",
   "id": 1840031391,
   "city": "Pomona",
   "city_ascii": "Pomona",
   "state_id": "MD",
   "City-State": "Pomona-MD",
   "state_name": "Maryland",
   "county_fips": 24029,
   "county_name": "Kent",
   "lat": 39.1623,
   "lng": -76.1094,
   "population": null,
   "population_proper": null,
   "density": 22.9,
   "source": "point",
   "incorporated": false,
   "timezone": "America/New_York",
   "zips": "21620"
 },
 {
   "City-State": "Indian Head-MD",
   "id": 1840006176,
   "city": "Indian Head",
   "city_ascii": "Indian Head",
   "state_id": "MD",
   "City-State": "Indian Head-MD",
   "state_name": "Maryland",
   "county_fips": 24017,
   "county_name": "Charles",
   "lat": 38.5987,
   "lng": -77.1555,
   "population": 3824,
   "population_proper": 3824,
   "density": 1198,
   "source": "polygon",
   "incorporated": true,
   "timezone": "America/New_York",
   "zips": "20640"
 },
 {
   "City-State": "Columbia-MD",
   "id": 1840005803,
   "city": "Columbia",
   "city_ascii": "Columbia",
   "state_id": "MD",
   "City-State": "Columbia-MD",
   "state_name": "Maryland",
   "county_fips": 24027,
   "county_name": "Howard",
   "lat": 39.2004,
   "lng": -76.859,
   "population": null,
   "population_proper": null,
   "density": 1082.4,
   "source": "polygon",
   "incorporated": false,
   "timezone": "America/New_York",
   "zips": "21044 21045 21046 21029 21150"
 },
 {
   "City-State": "Parkville-MD",
   "id": 1840005685,
   "city": "Parkville",
   "city_ascii": "Parkville",
   "state_id": "MD",
   "City-State": "Parkville-MD",
   "state_name": "Maryland",
   "county_fips": 24005,
   "county_name": "Baltimore",
   "lat": 39.3832,
   "lng": -76.5519,
   "population": null,
   "population_proper": null,
   "density": 2536.1,
   "source": "polygon",
   "incorporated": false,
   "timezone": "America/New_York",
   "zips": "21234"
 },
 {
   "City-State": "Horsehead-MD",
   "id": 1840031451,
   "city": "Horsehead",
   "city_ascii": "Horsehead",
   "state_id": "MD",
   "City-State": "Horsehead-MD",
   "state_name": "Maryland",
   "county_fips": 24033,
   "county_name": "Prince George's",
   "lat": 38.6498,
   "lng": -76.7714,
   "population": null,
   "population_proper": null,
   "density": 75.5,
   "source": "point",
   "incorporated": false,
   "timezone": "America/New_York",
   "zips": "20613"
 },
 {
   "City-State": "Jennings-MD",
   "id": 1840024445,
   "city": "Jennings",
   "city_ascii": "Jennings",
   "state_id": "MD",
   "City-State": "Jennings-MD",
   "state_name": "Maryland",
   "county_fips": 24023,
   "county_name": "Garrett",
   "lat": 39.6487,
   "lng": -79.1835,
   "population": null,
   "population_proper": null,
   "density": 59.2,
   "source": "polygon",
   "incorporated": false,
   "timezone": "America/New_York",
   "zips": "21536"
 },
 {
   "City-State": "Langford-MD",
   "id": 1840031304,
   "city": "Langford",
   "city_ascii": "Langford",
   "state_id": "MD",
   "City-State": "Langford-MD",
   "state_name": "Maryland",
   "county_fips": 24029,
   "county_name": "Kent",
   "lat": 39.1884,
   "lng": -76.1408,
   "population": null,
   "population_proper": null,
   "density": 14,
   "source": "point",
   "incorporated": false,
   "timezone": "America/New_York",
   "zips": "21620"
 },
 {
   "City-State": "Keedysville-MD",
   "id": 1840005616,
   "city": "Keedysville",
   "city_ascii": "Keedysville",
   "state_id": "MD",
   "City-State": "Keedysville-MD",
   "state_name": "Maryland",
   "county_fips": 24043,
   "county_name": "Washington",
   "lat": 39.4867,
   "lng": -77.6986,
   "population": 1161,
   "population_proper": 1161,
   "density": 469,
   "source": "polygon",
   "incorporated": true,
   "timezone": "America/New_York",
   "zips": "21756"
 },
 {
   "City-State": "Arundel Village-MD",
   "id": 1840031253,
   "city": "Arundel Village",
   "city_ascii": "Arundel Village",
   "state_id": "MD",
   "City-State": "Arundel Village-MD",
   "state_name": "Maryland",
   "county_fips": 24003,
   "county_name": "Anne Arundel",
   "lat": 39.2223,
   "lng": -76.6041,
   "population": null,
   "population_proper": null,
   "density": 3650.4,
   "source": "point",
   "incorporated": false,
   "timezone": "America/New_York",
   "zips": "21225"
 },
 {
   "City-State": "Redland-MD",
   "id": 1840005838,
   "city": "Redland",
   "city_ascii": "Redland",
   "state_id": "MD",
   "City-State": "Redland-MD",
   "state_name": "Maryland",
   "county_fips": 24031,
   "county_name": "Montgomery",
   "lat": 39.1335,
   "lng": -77.1466,
   "population": null,
   "population_proper": null,
   "density": 1655.4,
   "source": "polygon",
   "incorporated": false,
   "timezone": "America/New_York",
   "zips": "20855 20877"
 },
 {
   "City-State": "Charlestown-MD",
   "id": 1840005637,
   "city": "Charlestown",
   "city_ascii": "Charlestown",
   "state_id": "MD",
   "City-State": "Charlestown-MD",
   "state_name": "Maryland",
   "county_fips": 24015,
   "county_name": "Cecil",
   "lat": 39.5788,
   "lng": -75.9811,
   "population": 1196,
   "population_proper": 1196,
   "density": 385,
   "source": "polygon",
   "incorporated": true,
   "timezone": "America/New_York",
   "zips": "21901 21914"
 },
 {
   "City-State": "Easton-MD",
   "id": 1840006089,
   "city": "Easton",
   "city_ascii": "Easton",
   "state_id": "MD",
   "City-State": "Easton-MD",
   "state_name": "Maryland",
   "county_fips": 24041,
   "county_name": "Talbot",
   "lat": 38.776,
   "lng": -76.0702,
   "population": 17781,
   "population_proper": 16550,
   "density": 557,
   "source": "polygon",
   "incorporated": true,
   "timezone": "America/New_York",
   "zips": "21601"
 },
 {
   "City-State": "Dickerson-MD",
   "id": 1840031271,
   "city": "Dickerson",
   "city_ascii": "Dickerson",
   "state_id": "MD",
   "City-State": "Dickerson-MD",
   "state_name": "Maryland",
   "county_fips": 24031,
   "county_name": "Montgomery",
   "lat": 39.2201,
   "lng": -77.4242,
   "population": null,
   "population_proper": null,
   "density": 129.8,
   "source": "point",
   "incorporated": false,
   "timezone": "America/New_York",
   "zips": "20842"
 },
 {
   "City-State": "Beltsville-MD",
   "id": 1840005945,
   "city": "Beltsville",
   "city_ascii": "Beltsville",
   "state_id": "MD",
   "City-State": "Beltsville-MD",
   "state_name": "Maryland",
   "county_fips": 24033,
   "county_name": "Prince George's",
   "lat": 39.0395,
   "lng": -76.9211,
   "population": null,
   "population_proper": null,
   "density": 353.6,
   "source": "polygon",
   "incorporated": false,
   "timezone": "America/New_York",
   "zips": "20705 20740 20697 20704 20797"
 },
 {
   "City-State": "Waterloo-MD",
   "id": 1840031417,
   "city": "Waterloo",
   "city_ascii": "Waterloo",
   "state_id": "MD",
   "City-State": "Waterloo-MD",
   "state_name": "Maryland",
   "county_fips": 24027,
   "county_name": "Howard",
   "lat": 39.1721,
   "lng": -76.785,
   "population": null,
   "population_proper": null,
   "density": 650.2,
   "source": "point",
   "incorporated": false,
   "timezone": "America/New_York",
   "zips": "20794"
 },
 {
   "City-State": "Dundalk-MD",
   "id": 1840005681,
   "city": "Dundalk",
   "city_ascii": "Dundalk",
   "state_id": "MD",
   "City-State": "Dundalk-MD",
   "state_name": "Maryland",
   "county_fips": 24005,
   "county_name": "Baltimore",
   "lat": 39.2703,
   "lng": -76.4942,
   "population": null,
   "population_proper": null,
   "density": 3389.3,
   "source": "polygon",
   "incorporated": false,
   "timezone": "America/New_York",
   "zips": "21222 21224"
 },
 {
   "City-State": "Hancock-MD",
   "id": 1840005610,
   "city": "Hancock",
   "city_ascii": "Hancock",
   "state_id": "MD",
   "City-State": "Hancock-MD",
   "state_name": "Maryland",
   "county_fips": 24043,
   "county_name": "Washington",
   "lat": 39.7054,
   "lng": -78.175,
   "population": 1553,
   "population_proper": 1553,
   "density": 213,
   "source": "polygon",
   "incorporated": true,
   "timezone": "America/New_York",
   "zips": "21750"
 },
 {
   "City-State": "Fairmount Heights-MD",
   "id": 1840005965,
   "city": "Fairmount Heights",
   "city_ascii": "Fairmount Heights",
   "state_id": "MD",
   "City-State": "Fairmount Heights-MD",
   "state_name": "Maryland",
   "county_fips": 24033,
   "county_name": "Prince George's",
   "lat": 38.9015,
   "lng": -76.9152,
   "population": 1567,
   "population_proper": 1567,
   "density": 2249,
   "source": "polygon",
   "incorporated": true,
   "timezone": "America/New_York",
   "zips": "20743"
 },
 {
   "City-State": "Frostburg-MD",
   "id": 1840005622,
   "city": "Frostburg",
   "city_ascii": "Frostburg",
   "state_id": "MD",
   "City-State": "Frostburg-MD",
   "state_name": "Maryland",
   "county_fips": 24001,
   "county_name": "Allegany",
   "lat": 39.6507,
   "lng": -78.9271,
   "population": 8676,
   "population_proper": 8676,
   "density": 1014,
   "source": "polygon",
   "incorporated": true,
   "timezone": "America/New_York",
   "zips": "21532"
 },
 {
   "City-State": "Marydel-MD",
   "id": 1840005938,
   "city": "Marydel",
   "city_ascii": "Marydel",
   "state_id": "MD",
   "City-State": "Marydel-MD",
   "state_name": "Maryland",
   "county_fips": 24011,
   "county_name": "Caroline",
   "lat": 39.1133,
   "lng": -75.7479,
   "population": 141,
   "population_proper": 141,
   "density": 713,
   "source": "polygon",
   "incorporated": true,
   "timezone": "America/New_York",
   "zips": "21649"
 },
 {
   "City-State": "Leitch-MD",
   "id": 1840031363,
   "city": "Leitch",
   "city_ascii": "Leitch",
   "state_id": "MD",
   "City-State": "Leitch-MD",
   "state_name": "Maryland",
   "county_fips": 24003,
   "county_name": "Anne Arundel",
   "lat": 38.7651,
   "lng": -76.5627,
   "population": null,
   "population_proper": null,
   "density": 129.2,
   "source": "point",
   "incorporated": false,
   "timezone": "America/New_York",
   "zips": "20779"
 },
 {
   "City-State": "Woodsboro-MD",
   "id": 1840005718,
   "city": "Woodsboro",
   "city_ascii": "Woodsboro",
   "state_id": "MD",
   "City-State": "Woodsboro-MD",
   "state_name": "Maryland",
   "county_fips": 24021,
   "county_name": "Frederick",
   "lat": 39.533,
   "lng": -77.3096,
   "population": 1208,
   "population_proper": 1208,
   "density": 653,
   "source": "polygon",
   "incorporated": true,
   "timezone": "America/New_York",
   "zips": "21798"
 },
 {
   "City-State": "Bay Ridge-MD",
   "id": 1840031256,
   "city": "Bay Ridge",
   "city_ascii": "Bay Ridge",
   "state_id": "MD",
   "City-State": "Bay Ridge-MD",
   "state_name": "Maryland",
   "county_fips": 24003,
   "county_name": "Anne Arundel",
   "lat": 38.9379,
   "lng": -76.46,
   "population": null,
   "population_proper": null,
   "density": 714.8,
   "source": "point",
   "incorporated": false,
   "timezone": "America/New_York",
   "zips": "21403"
 },
 {
   "City-State": "Crellin-MD",
   "id": 1840024441,
   "city": "Crellin",
   "city_ascii": "Crellin",
   "state_id": "MD",
   "City-State": "Crellin-MD",
   "state_name": "Maryland",
   "county_fips": 24023,
   "county_name": "Garrett",
   "lat": 39.3887,
   "lng": -79.4685,
   "population": null,
   "population_proper": null,
   "density": 101.9,
   "source": "polygon",
   "incorporated": false,
   "timezone": "America/New_York",
   "zips": "21550"
 },
 {
   "City-State": "Goshen-MD",
   "id": 1840031343,
   "city": "Goshen",
   "city_ascii": "Goshen",
   "state_id": "MD",
   "City-State": "Goshen-MD",
   "state_name": "Maryland",
   "county_fips": 24031,
   "county_name": "Montgomery",
   "lat": 39.2034,
   "lng": -77.1875,
   "population": null,
   "population_proper": null,
   "density": 198.6,
   "source": "point",
   "incorporated": false,
   "timezone": "America/New_York",
   "zips": "20882"
 },
 {
   "City-State": "Seat Pleasant-MD",
   "id": 1840005979,
   "city": "Seat Pleasant",
   "city_ascii": "Seat Pleasant",
   "state_id": "MD",
   "City-State": "Seat Pleasant-MD",
   "state_name": "Maryland",
   "county_fips": 24033,
   "county_name": "Prince George's",
   "lat": 38.8953,
   "lng": -76.9015,
   "population": 4769,
   "population_proper": 4769,
   "density": 2521,
   "source": "polygon",
   "incorporated": true,
   "timezone": "America/New_York",
   "zips": "20743"
 },
 {
   "City-State": "Mount Savage-MD",
   "id": 1840024430,
   "city": "Mount Savage",
   "city_ascii": "Mount Savage",
   "state_id": "MD",
   "City-State": "Mount Savage-MD",
   "state_name": "Maryland",
   "county_fips": 24001,
   "county_name": "Allegany",
   "lat": 39.6971,
   "lng": -78.8763,
   "population": null,
   "population_proper": null,
   "density": 613.2,
   "source": "polygon",
   "incorporated": false,
   "timezone": "America/New_York",
   "zips": "21545"
 },
 {
   "City-State": "Choptank-MD",
   "id": 1840024534,
   "city": "Choptank",
   "city_ascii": "Choptank",
   "state_id": "MD",
   "City-State": "Choptank-MD",
   "state_name": "Maryland",
   "county_fips": 24011,
   "county_name": "Caroline",
   "lat": 38.6822,
   "lng": -75.9492,
   "population": null,
   "population_proper": null,
   "density": 240.8,
   "source": "polygon",
   "incorporated": false,
   "timezone": "America/New_York",
   "zips": "21655"
 },
 {
   "City-State": "Brandywine-MD",
   "id": 1840005946,
   "city": "Brandywine",
   "city_ascii": "Brandywine",
   "state_id": "MD",
   "City-State": "Brandywine-MD",
   "state_name": "Maryland",
   "county_fips": 24033,
   "county_name": "Prince George's",
   "lat": 38.6963,
   "lng": -76.8846,
   "population": null,
   "population_proper": null,
   "density": 114.6,
   "source": "polygon",
   "incorporated": false,
   "timezone": "America/New_York",
   "zips": "20613"
 },
 {
   "City-State": "Cape Saint Claire-MD",
   "id": 1840005908,
   "city": "Cape Saint Claire",
   "city_ascii": "Cape Saint Claire",
   "state_id": "MD",
   "City-State": "Cape Saint Claire-MD",
   "state_name": "Maryland",
   "county_fips": 24003,
   "county_name": "Anne Arundel",
   "lat": 39.0433,
   "lng": -76.4471,
   "population": null,
   "population_proper": null,
   "density": 2257.5,
   "source": "polygon",
   "incorporated": false,
   "timezone": "America/New_York",
   "zips": "21409"
 },
 {
   "City-State": "Lutherville-MD",
   "id": 1840026623,
   "city": "Lutherville",
   "city_ascii": "Lutherville",
   "state_id": "MD",
   "City-State": "Lutherville-MD",
   "state_name": "Maryland",
   "county_fips": 24005,
   "county_name": "Baltimore",
   "lat": 39.424,
   "lng": -76.6177,
   "population": null,
   "population_proper": null,
   "density": 1265.5,
   "source": "polygon",
   "incorporated": false,
   "timezone": "America/New_York",
   "zips": "21093"
 },
 {
   "City-State": "Fallston-MD",
   "id": 1840005662,
   "city": "Fallston",
   "city_ascii": "Fallston",
   "state_id": "MD",
   "City-State": "Fallston-MD",
   "state_name": "Maryland",
   "county_fips": 24025,
   "county_name": "Harford",
   "lat": 39.5332,
   "lng": -76.4452,
   "population": null,
   "population_proper": null,
   "density": 253.9,
   "source": "polygon",
   "incorporated": false,
   "timezone": "America/New_York",
   "zips": "21047"
 },
 {
   "City-State": "Potomac Heights-MD",
   "id": 1840006173,
   "city": "Potomac Heights",
   "city_ascii": "Potomac Heights",
   "state_id": "MD",
   "City-State": "Potomac Heights-MD",
   "state_name": "Maryland",
   "county_fips": 24017,
   "county_name": "Charles",
   "lat": 38.5987,
   "lng": -77.1372,
   "population": null,
   "population_proper": null,
   "density": 577.7,
   "source": "polygon",
   "incorporated": false,
   "timezone": "America/New_York",
   "zips": "20640"
 },
 {
   "City-State": "Hereford-MD",
   "id": 1840031352,
   "city": "Hereford",
   "city_ascii": "Hereford",
   "state_id": "MD",
   "City-State": "Hereford-MD",
   "state_name": "Maryland",
   "county_fips": 24005,
   "county_name": "Baltimore",
   "lat": 39.589,
   "lng": -76.6633,
   "population": null,
   "population_proper": null,
   "density": 183.9,
   "source": "point",
   "incorporated": false,
   "timezone": "America/New_York",
   "zips": "21111"
 },
 {
   "City-State": "Hess-MD",
   "id": 1840031353,
   "city": "Hess",
   "city_ascii": "Hess",
   "state_id": "MD",
   "City-State": "Hess-MD",
   "state_name": "Maryland",
   "county_fips": 24025,
   "county_name": "Harford",
   "lat": 39.5559,
   "lng": -76.5255,
   "population": null,
   "population_proper": null,
   "density": 9.2,
   "source": "point",
   "incorporated": false,
   "timezone": "America/New_York",
   "zips": "21111"
 },
 {
   "City-State": "Still Pond-MD",
   "id": 1840031409,
   "city": "Still Pond",
   "city_ascii": "Still Pond",
   "state_id": "MD",
   "City-State": "Still Pond-MD",
   "state_name": "Maryland",
   "county_fips": 24029,
   "county_name": "Kent",
   "lat": 39.3293,
   "lng": -76.0455,
   "population": null,
   "population_proper": null,
   "density": 111.9,
   "source": "point",
   "incorporated": false,
   "timezone": "America/New_York",
   "zips": "21667"
 },
 {
   "City-State": "Chase-MD",
   "id": 1840031321,
   "city": "Chase",
   "city_ascii": "Chase",
   "state_id": "MD",
   "City-State": "Chase-MD",
   "state_name": "Maryland",
   "county_fips": 24005,
   "county_name": "Baltimore",
   "lat": 39.3634,
   "lng": -76.3711,
   "population": null,
   "population_proper": null,
   "density": 243.2,
   "source": "point",
   "incorporated": false,
   "timezone": "America/New_York",
   "zips": "21220"
 },
 {
   "City-State": "Bowleys Quarters-MD",
   "id": 1840005677,
   "city": "Bowleys Quarters",
   "city_ascii": "Bowleys Quarters",
   "state_id": "MD",
   "City-State": "Bowleys Quarters-MD",
   "state_name": "Maryland",
   "county_fips": 24005,
   "county_name": "Baltimore",
   "lat": 39.3198,
   "lng": -76.3858,
   "population": null,
   "population_proper": null,
   "density": 993,
   "source": "polygon",
   "incorporated": false,
   "timezone": "America/New_York",
   "zips": "21220"
 },
 {
   "City-State": "Lanham-MD",
   "id": 1840026687,
   "city": "Lanham",
   "city_ascii": "Lanham",
   "state_id": "MD",
   "City-State": "Lanham-MD",
   "state_name": "Maryland",
   "county_fips": 24033,
   "county_name": "Prince George's",
   "lat": 38.9621,
   "lng": -76.8421,
   "population": null,
   "population_proper": null,
   "density": 1709.2,
   "source": "polygon",
   "incorporated": false,
   "timezone": "America/New_York",
   "zips": "20706 20703"
 },
 {
   "City-State": "Antietam-MD",
   "id": 1840024385,
   "city": "Antietam",
   "city_ascii": "Antietam",
   "state_id": "MD",
   "City-State": "Antietam-MD",
   "state_name": "Maryland",
   "county_fips": 24043,
   "county_name": "Washington",
   "lat": 39.4151,
   "lng": -77.7364,
   "population": null,
   "population_proper": null,
   "density": 31.3,
   "source": "polygon",
   "incorporated": false,
   "timezone": "America/New_York",
   "zips": "21782"
 },
 {
   "City-State": "Hutton-MD",
   "id": 1840024444,
   "city": "Hutton",
   "city_ascii": "Hutton",
   "state_id": "MD",
   "City-State": "Hutton-MD",
   "state_name": "Maryland",
   "county_fips": 24023,
   "county_name": "Garrett",
   "lat": 39.4146,
   "lng": -79.4801,
   "population": null,
   "population_proper": null,
   "density": 137,
   "source": "polygon",
   "incorporated": false,
   "timezone": "America/New_York",
   "zips": "21550"
 },
 {
   "City-State": "Eckhart Mines-MD",
   "id": 1840026619,
   "city": "Eckhart Mines",
   "city_ascii": "Eckhart Mines",
   "state_id": "MD",
   "City-State": "Eckhart Mines-MD",
   "state_name": "Maryland",
   "county_fips": 24001,
   "county_name": "Allegany",
   "lat": 39.6551,
   "lng": -78.8943,
   "population": null,
   "population_proper": null,
   "density": 322.2,
   "source": "polygon",
   "incorporated": false,
   "timezone": "America/New_York",
   "zips": "21532"
 },
 {
   "City-State": "Forest Glen-MD",
   "id": 1840005824,
   "city": "Forest Glen",
   "city_ascii": "Forest Glen",
   "state_id": "MD",
   "City-State": "Forest Glen-MD",
   "state_name": "Maryland",
   "county_fips": 24031,
   "county_name": "Montgomery",
   "lat": 39.0191,
   "lng": -77.0446,
   "population": null,
   "population_proper": null,
   "density": 1444.9,
   "source": "polygon",
   "incorporated": false,
   "timezone": "America/New_York",
   "zips": "20910 20902"
 },
 {
   "City-State": "Saint George Island-MD",
   "id": 1840026745,
   "city": "Saint George Island",
   "city_ascii": "Saint George Island",
   "state_id": "MD",
   "City-State": "Saint George Island-MD",
   "state_name": "Maryland",
   "county_fips": 24037,
   "county_name": "St. Mary's",
   "lat": 38.1155,
   "lng": -76.4771,
   "population": null,
   "population_proper": null,
   "density": 186.4,
   "source": "polygon",
   "incorporated": false,
   "timezone": "America/New_York",
   "zips": "20674"
 },
 {
   "City-State": "Midlothian-MD",
   "id": 1840024428,
   "city": "Midlothian",
   "city_ascii": "Midlothian",
   "state_id": "MD",
   "City-State": "Midlothian-MD",
   "state_name": "Maryland",
   "county_fips": 24001,
   "county_name": "Allegany",
   "lat": 39.6317,
   "lng": -78.9523,
   "population": null,
   "population_proper": null,
   "density": 163.5,
   "source": "polygon",
   "incorporated": false,
   "timezone": "America/New_York",
   "zips": "21543 21532"
 },
 {
   "City-State": "Somerset-MD",
   "id": 1840005859,
   "city": "Somerset",
   "city_ascii": "Somerset",
   "state_id": "MD",
   "City-State": "Somerset-MD",
   "state_name": "Maryland",
   "county_fips": 24031,
   "county_name": "Montgomery",
   "lat": 38.9666,
   "lng": -77.0963,
   "population": 1277,
   "population_proper": 1277,
   "density": 1796,
   "source": "polygon",
   "incorporated": true,
   "timezone": "America/New_York",
   "zips": "20815"
 },
 {
   "City-State": "Calverton-MD",
   "id": 1840031445,
   "city": "Calverton",
   "city_ascii": "Calverton",
   "state_id": "MD",
   "City-State": "Calverton-MD",
   "state_name": "Maryland",
   "county_fips": 24033,
   "county_name": "Prince George's",
   "lat": 39.0578,
   "lng": -76.9488,
   "population": null,
   "population_proper": null,
   "density": 3437.2,
   "source": "polygon",
   "incorporated": false,
   "timezone": "America/New_York",
   "zips": "20705 20904"
 },
 {
   "City-State": "Mount Rainier-MD",
   "id": 1840005977,
   "city": "Mount Rainier",
   "city_ascii": "Mount Rainier",
   "state_id": "MD",
   "City-State": "Mount Rainier-MD",
   "state_name": "Maryland",
   "county_fips": 24033,
   "county_name": "Prince George's",
   "lat": 38.9426,
   "lng": -76.9645,
   "population": 8455,
   "population_proper": 8455,
   "density": 5032,
   "source": "polygon",
   "incorporated": true,
   "timezone": "America/New_York",
   "zips": "20712"
 },
 {
   "City-State": "Fork-MD",
   "id": 1840031339,
   "city": "Fork",
   "city_ascii": "Fork",
   "state_id": "MD",
   "City-State": "Fork-MD",
   "state_name": "Maryland",
   "county_fips": 24005,
   "county_name": "Baltimore",
   "lat": 39.4682,
   "lng": -76.4419,
   "population": null,
   "population_proper": null,
   "density": 278.4,
   "source": "point",
   "incorporated": false,
   "timezone": "America/New_York",
   "zips": "21082"
 },
 {
   "City-State": "Zion-MD",
   "id": 1840031429,
   "city": "Zion",
   "city_ascii": "Zion",
   "state_id": "MD",
   "City-State": "Zion-MD",
   "state_name": "Maryland",
   "county_fips": 24015,
   "county_name": "Cecil",
   "lat": 39.6757,
   "lng": -75.9649,
   "population": null,
   "population_proper": null,
   "density": 146.9,
   "source": "point",
   "incorporated": false,
   "timezone": "America/New_York",
   "zips": "21901"
 },
 {
   "City-State": "Ocean City-MD",
   "id": 1840006259,
   "city": "Ocean City",
   "city_ascii": "Ocean City",
   "state_id": "MD",
   "City-State": "Ocean City-MD",
   "state_name": "Maryland",
   "county_fips": 24047,
   "county_name": "Worcester",
   "lat": 38.3989,
   "lng": -75.0715,
   "population": 6999,
   "population_proper": 6999,
   "density": 612,
   "source": "polygon",
   "incorporated": true,
   "timezone": "America/New_York",
   "zips": "21842 21843"
 },
 {
   "City-State": "Burkittsville-MD",
   "id": 1840005711,
   "city": "Burkittsville",
   "city_ascii": "Burkittsville",
   "state_id": "MD",
   "City-State": "Burkittsville-MD",
   "state_name": "Maryland",
   "county_fips": 24021,
   "county_name": "Frederick",
   "lat": 39.3923,
   "lng": -77.6275,
   "population": 157,
   "population_proper": 157,
   "density": 133,
   "source": "polygon",
   "incorporated": true,
   "timezone": "America/New_York",
   "zips": "21718"
 },
 {
   "City-State": "Adamstown-MD",
   "id": 1840024448,
   "city": "Adamstown",
   "city_ascii": "Adamstown",
   "state_id": "MD",
   "City-State": "Adamstown-MD",
   "state_name": "Maryland",
   "county_fips": 24021,
   "county_name": "Frederick",
   "lat": 39.3065,
   "lng": -77.4668,
   "population": null,
   "population_proper": null,
   "density": 664.7,
   "source": "polygon",
   "incorporated": false,
   "timezone": "America/New_York",
   "zips": "21710"
 },
 {
   "City-State": "Belcamp-MD",
   "id": 1840031306,
   "city": "Belcamp",
   "city_ascii": "Belcamp",
   "state_id": "MD",
   "City-State": "Belcamp-MD",
   "state_name": "Maryland",
   "county_fips": 24025,
   "county_name": "Harford",
   "lat": 39.469,
   "lng": -76.2333,
   "population": null,
   "population_proper": null,
   "density": 634.5,
   "source": "point",
   "incorporated": false,
   "timezone": "America/New_York",
   "zips": "21017"
 },
 {
   "City-State": "Pecktonville-MD",
   "id": 1840024406,
   "city": "Pecktonville",
   "city_ascii": "Pecktonville",
   "state_id": "MD",
   "City-State": "Pecktonville-MD",
   "state_name": "Maryland",
   "county_fips": 24043,
   "county_name": "Washington",
   "lat": 39.666,
   "lng": -78.0482,
   "population": null,
   "population_proper": null,
   "density": 66.8,
   "source": "polygon",
   "incorporated": false,
   "timezone": "America/New_York",
   "zips": "21711"
 },
 {
   "City-State": "Mays Chapel-MD",
   "id": 1840031492,
   "city": "Mays Chapel",
   "city_ascii": "Mays Chapel",
   "state_id": "MD",
   "City-State": "Mays Chapel-MD",
   "state_name": "Maryland",
   "county_fips": 24005,
   "county_name": "Baltimore",
   "lat": 39.4343,
   "lng": -76.6516,
   "population": null,
   "population_proper": null,
   "density": 1497.8,
   "source": "polygon",
   "incorporated": false,
   "timezone": "America/New_York",
   "zips": "21093 21094"
 },
 {
   "City-State": "Mercersville-MD",
   "id": 1840024405,
   "city": "Mercersville",
   "city_ascii": "Mercersville",
   "state_id": "MD",
   "City-State": "Mercersville-MD",
   "state_name": "Maryland",
   "county_fips": 24043,
   "county_name": "Washington",
   "lat": 39.4968,
   "lng": -77.7672,
   "population": null,
   "population_proper": null,
   "density": 113.2,
   "source": "polygon",
   "incorporated": false,
   "timezone": "America/New_York",
   "zips": "21782"
 },
 {
   "City-State": "Federalsburg-MD",
   "id": 1840005933,
   "city": "Federalsburg",
   "city_ascii": "Federalsburg",
   "state_id": "MD",
   "City-State": "Federalsburg-MD",
   "state_name": "Maryland",
   "county_fips": 24011,
   "county_name": "Caroline",
   "lat": 38.6929,
   "lng": -75.7726,
   "population": 3113,
   "population_proper": 2674,
   "density": 534,
   "source": "polygon",
   "incorporated": true,
   "timezone": "America/New_York",
   "zips": "21632"
 },
 {
   "City-State": "Breathedsville-MD",
   "id": 1840024391,
   "city": "Breathedsville",
   "city_ascii": "Breathedsville",
   "state_id": "MD",
   "City-State": "Breathedsville-MD",
   "state_name": "Maryland",
   "county_fips": 24043,
   "county_name": "Washington",
   "lat": 39.546,
   "lng": -77.7246,
   "population": null,
   "population_proper": null,
   "density": 253.8,
   "source": "polygon",
   "incorporated": false,
   "timezone": "America/New_York",
   "zips": "21713"
 },
 {
   "City-State": "Skidmore-MD",
   "id": 1840031407,
   "city": "Skidmore",
   "city_ascii": "Skidmore",
   "state_id": "MD",
   "City-State": "Skidmore-MD",
   "state_name": "Maryland",
   "county_fips": 24003,
   "county_name": "Anne Arundel",
   "lat": 39.0212,
   "lng": -76.4152,
   "population": null,
   "population_proper": null,
   "density": 129.3,
   "source": "point",
   "incorporated": false,
   "timezone": "America/New_York",
   "zips": "21409"
 },
 {
   "City-State": "Millersville-MD",
   "id": 1840031374,
   "city": "Millersville",
   "city_ascii": "Millersville",
   "state_id": "MD",
   "City-State": "Millersville-MD",
   "state_name": "Maryland",
   "county_fips": 24003,
   "county_name": "Anne Arundel",
   "lat": 39.0596,
   "lng": -76.648,
   "population": null,
   "population_proper": null,
   "density": 162.6,
   "source": "point",
   "incorporated": false,
   "timezone": "America/New_York",
   "zips": "21108"
 },
 {
   "City-State": "Algonquin-MD",
   "id": 1840031443,
   "city": "Algonquin",
   "city_ascii": "Algonquin",
   "state_id": "MD",
   "City-State": "Algonquin-MD",
   "state_name": "Maryland",
   "county_fips": 24019,
   "county_name": "Dorchester",
   "lat": 38.584,
   "lng": -76.0977,
   "population": null,
   "population_proper": null,
   "density": 351.4,
   "source": "polygon",
   "incorporated": false,
   "timezone": "America/New_York",
   "zips": "21613"
 },
 {
   "City-State": "Adelphi-MD",
   "id": 1840005944,
   "city": "Adelphi",
   "city_ascii": "Adelphi",
   "state_id": "MD",
   "City-State": "Adelphi-MD",
   "state_name": "Maryland",
   "county_fips": 24033,
   "county_name": "Prince George's",
   "lat": 39.0018,
   "lng": -76.9648,
   "population": null,
   "population_proper": null,
   "density": 3664.4,
   "source": "polygon",
   "incorporated": false,
   "timezone": "America/New_York",
   "zips": "20783 20903"
 },
 {
   "City-State": "Berwyn Heights-MD",
   "id": 1840005980,
   "city": "Berwyn Heights",
   "city_ascii": "Berwyn Heights",
   "state_id": "MD",
   "City-State": "Berwyn Heights-MD",
   "state_name": "Maryland",
   "county_fips": 24033,
   "county_name": "Prince George's",
   "lat": 38.993,
   "lng": -76.9131,
   "population": 3275,
   "population_proper": 3275,
   "density": 1835,
   "source": "polygon",
   "incorporated": true,
   "timezone": "America/New_York",
   "zips": "20740"
 },
 {
   "City-State": "Glen Burnie-MD",
   "id": 1840005917,
   "city": "Glen Burnie",
   "city_ascii": "Glen Burnie",
   "state_id": "MD",
   "City-State": "Glen Burnie-MD",
   "state_name": "Maryland",
   "county_fips": 24003,
   "county_name": "Anne Arundel",
   "lat": 39.1559,
   "lng": -76.6072,
   "population": null,
   "population_proper": null,
   "density": 1652.7,
   "source": "polygon",
   "incorporated": false,
   "timezone": "America/New_York",
   "zips": "21060 21061 21108 21062"
 },
 {
   "City-State": "Stevensville-MD",
   "id": 1840005897,
   "city": "Stevensville",
   "city_ascii": "Stevensville",
   "state_id": "MD",
   "City-State": "Stevensville-MD",
   "state_name": "Maryland",
   "county_fips": 24035,
   "county_name": "Queen Anne's",
   "lat": 38.9745,
   "lng": -76.3184,
   "population": null,
   "population_proper": null,
   "density": 522.4,
   "source": "polygon",
   "incorporated": false,
   "timezone": "America/New_York",
   "zips": "21666"
 },
 {
   "City-State": "White Marsh-MD",
   "id": 1840005696,
   "city": "White Marsh",
   "city_ascii": "White Marsh",
   "state_id": "MD",
   "City-State": "White Marsh-MD",
   "state_name": "Maryland",
   "county_fips": 24005,
   "county_name": "Baltimore",
   "lat": 39.3819,
   "lng": -76.4573,
   "population": null,
   "population_proper": null,
   "density": 375.2,
   "source": "polygon",
   "incorporated": false,
   "timezone": "America/New_York",
   "zips": "21236 21128 21237 21162"
 },
 {
   "City-State": "Pylesville-MD",
   "id": 1840026622,
   "city": "Pylesville",
   "city_ascii": "Pylesville",
   "state_id": "MD",
   "City-State": "Pylesville-MD",
   "state_name": "Maryland",
   "county_fips": 24025,
   "county_name": "Harford",
   "lat": 39.688,
   "lng": -76.3876,
   "population": null,
   "population_proper": null,
   "density": 63.1,
   "source": "polygon",
   "incorporated": false,
   "timezone": "America/New_York",
   "zips": "21132"
 },
 {
   "City-State": "Cedarville-MD",
   "id": 1840024542,
   "city": "Cedarville",
   "city_ascii": "Cedarville",
   "state_id": "MD",
   "City-State": "Cedarville-MD",
   "state_name": "Maryland",
   "county_fips": 24033,
   "county_name": "Prince George's",
   "lat": 38.6623,
   "lng": -76.819,
   "population": null,
   "population_proper": null,
   "density": 43.1,
   "source": "polygon",
   "incorporated": false,
   "timezone": "America/New_York",
   "zips": "20613"
 },
 {
   "City-State": "Pleasant Hills-MD",
   "id": 1840031472,
   "city": "Pleasant Hills",
   "city_ascii": "Pleasant Hills",
   "state_id": "MD",
   "City-State": "Pleasant Hills-MD",
   "state_name": "Maryland",
   "county_fips": 24025,
   "county_name": "Harford",
   "lat": 39.4861,
   "lng": -76.3908,
   "population": null,
   "population_proper": null,
   "density": 445.6,
   "source": "polygon",
   "incorporated": false,
   "timezone": "America/New_York",
   "zips": "21085 21087 21047"
 },
 {
   "City-State": "Baldwin-MD",
   "id": 1840031305,
   "city": "Baldwin",
   "city_ascii": "Baldwin",
   "state_id": "MD",
   "City-State": "Baldwin-MD",
   "state_name": "Maryland",
   "county_fips": 24005,
   "county_name": "Baltimore",
   "lat": 39.4948,
   "lng": -76.4702,
   "population": null,
   "population_proper": null,
   "density": 55.5,
   "source": "point",
   "incorporated": false,
   "timezone": "America/New_York",
   "zips": "21013"
 },
 {
   "City-State": "Bowmans Addition-MD",
   "id": 1840031477,
   "city": "Bowmans Addition",
   "city_ascii": "Bowmans Addition",
   "state_id": "MD",
   "City-State": "Bowmans Addition-MD",
   "state_name": "Maryland",
   "county_fips": 24001,
   "county_name": "Allegany",
   "lat": 39.6876,
   "lng": -78.7541,
   "population": null,
   "population_proper": null,
   "density": 106.9,
   "source": "polygon",
   "incorporated": false,
   "timezone": "America/New_York",
   "zips": "21502"
 },
 {
   "City-State": "Mountain-MD",
   "id": 1840031378,
   "city": "Mountain",
   "city_ascii": "Mountain",
   "state_id": "MD",
   "City-State": "Mountain-MD",
   "state_name": "Maryland",
   "county_fips": 24025,
   "county_name": "Harford",
   "lat": 39.4654,
   "lng": -76.3688,
   "population": null,
   "population_proper": null,
   "density": 128.4,
   "source": "point",
   "incorporated": false,
   "timezone": "America/New_York",
   "zips": "21085"
 },
 {
   "City-State": "Bishopville-MD",
   "id": 1840026753,
   "city": "Bishopville",
   "city_ascii": "Bishopville",
   "state_id": "MD",
   "City-State": "Bishopville-MD",
   "state_name": "Maryland",
   "county_fips": 24047,
   "county_name": "Worcester",
   "lat": 38.4413,
   "lng": -75.2092,
   "population": null,
   "population_proper": null,
   "density": 124.2,
   "source": "polygon",
   "incorporated": false,
   "timezone": "America/New_York",
   "zips": "21813"
 },
 {
   "City-State": "Magnolia-MD",
   "id": 1840031368,
   "city": "Magnolia",
   "city_ascii": "Magnolia",
   "state_id": "MD",
   "City-State": "Magnolia-MD",
   "state_name": "Maryland",
   "county_fips": 24025,
   "county_name": "Harford",
   "lat": 39.4048,
   "lng": -76.3247,
   "population": null,
   "population_proper": null,
   "density": 51.9,
   "source": "point",
   "incorporated": false,
   "timezone": "America/New_York",
   "zips": "21085"
 },
 {
   "City-State": "Pomfret-MD",
   "id": 1840026736,
   "city": "Pomfret",
   "city_ascii": "Pomfret",
   "state_id": "MD",
   "City-State": "Pomfret-MD",
   "state_name": "Maryland",
   "county_fips": 24017,
   "county_name": "Charles",
   "lat": 38.5699,
   "lng": -77.0304,
   "population": null,
   "population_proper": null,
   "density": 111.9,
   "source": "polygon",
   "incorporated": false,
   "timezone": "America/New_York",
   "zips": "20675"
 },
 {
   "City-State": "Saint Michaels-MD",
   "id": 1840006091,
   "city": "Saint Michaels",
   "city_ascii": "Saint Michaels",
   "state_id": "MD",
   "City-State": "Saint Michaels-MD",
   "state_name": "Maryland",
   "county_fips": 24041,
   "county_name": "Talbot",
   "lat": 38.7888,
   "lng": -76.2248,
   "population": 1038,
   "population_proper": 1038,
   "density": 348,
   "source": "polygon",
   "incorporated": true,
   "timezone": "America/New_York",
   "zips": "21663"
 },
 {
   "City-State": "Providence-MD",
   "id": 1840031393,
   "city": "Providence",
   "city_ascii": "Providence",
   "state_id": "MD",
   "City-State": "Providence-MD",
   "state_name": "Maryland",
   "county_fips": 24015,
   "county_name": "Cecil",
   "lat": 39.6904,
   "lng": -75.8761,
   "population": null,
   "population_proper": null,
   "density": 138.4,
   "source": "point",
   "incorporated": false,
   "timezone": "America/New_York",
   "zips": "21921"
 },
 {
   "City-State": "Pasadena-MD",
   "id": 1840005914,
   "city": "Pasadena",
   "city_ascii": "Pasadena",
   "state_id": "MD",
   "City-State": "Pasadena-MD",
   "state_name": "Maryland",
   "county_fips": 24003,
   "county_name": "Anne Arundel",
   "lat": 39.1552,
   "lng": -76.5537,
   "population": null,
   "population_proper": null,
   "density": 879.9,
   "source": "polygon",
   "incorporated": false,
   "timezone": "America/New_York",
   "zips": "21122 21060 21226"
 },
 {
   "City-State": "Gambrills-MD",
   "id": 1840024529,
   "city": "Gambrills",
   "city_ascii": "Gambrills",
   "state_id": "MD",
   "City-State": "Gambrills-MD",
   "state_name": "Maryland",
   "county_fips": 24003,
   "county_name": "Anne Arundel",
   "lat": 39.0928,
   "lng": -76.6511,
   "population": null,
   "population_proper": null,
   "density": 81.4,
   "source": "polygon",
   "incorporated": false,
   "timezone": "America/New_York",
   "zips": "21144 21108"
 },
 {
   "City-State": "Tilghman-MD",
   "id": 1840031412,
   "city": "Tilghman",
   "city_ascii": "Tilghman",
   "state_id": "MD",
   "City-State": "Tilghman-MD",
   "state_name": "Maryland",
   "county_fips": 24041,
   "county_name": "Talbot",
   "lat": 38.7171,
   "lng": -76.3344,
   "population": null,
   "population_proper": null,
   "density": 404.2,
   "source": "point",
   "incorporated": false,
   "timezone": "America/New_York",
   "zips": "21671"
 },
 {
   "City-State": "Romancoke-MD",
   "id": 1840031462,
   "city": "Romancoke",
   "city_ascii": "Romancoke",
   "state_id": "MD",
   "City-State": "Romancoke-MD",
   "state_name": "Maryland",
   "county_fips": 24035,
   "county_name": "Queen Anne's",
   "lat": 38.8812,
   "lng": -76.3363,
   "population": null,
   "population_proper": null,
   "density": 560.1,
   "source": "point",
   "incorporated": false,
   "timezone": "America/New_York",
   "zips": "21666"
 },
 {
   "City-State": "Prince Frederick-MD",
   "id": 1840014982,
   "city": "Prince Frederick",
   "city_ascii": "Prince Frederick",
   "state_id": "MD",
   "City-State": "Prince Frederick-MD",
   "state_name": "Maryland",
   "county_fips": 24009,
   "county_name": "Calvert",
   "lat": 38.544,
   "lng": -76.5879,
   "population": null,
   "population_proper": null,
   "density": 178.3,
   "source": "polygon",
   "incorporated": false,
   "timezone": "America/New_York",
   "zips": "20678"
 },
 {
   "City-State": "Middleburg-MD",
   "id": 1840031284,
   "city": "Middleburg",
   "city_ascii": "Middleburg",
   "state_id": "MD",
   "City-State": "Middleburg-MD",
   "state_name": "Maryland",
   "county_fips": 24013,
   "county_name": "Carroll",
   "lat": 39.7177,
   "lng": -77.7239,
   "population": null,
   "population_proper": null,
   "density": 60.2,
   "source": "polygon",
   "incorporated": false,
   "timezone": "America/New_York",
   "zips": "21742"
 },
 {
   "City-State": "Centreville-MD",
   "id": 1840005899,
   "city": "Centreville",
   "city_ascii": "Centreville",
   "state_id": "MD",
   "City-State": "Centreville-MD",
   "state_name": "Maryland",
   "county_fips": 24035,
   "county_name": "Queen Anne's",
   "lat": 39.042,
   "lng": -76.063,
   "population": 4680,
   "population_proper": 4680,
   "density": 659,
   "source": "polygon",
   "incorporated": true,
   "timezone": "America/New_York",
   "zips": "21617"
 },
 {
   "City-State": "Hyattsville-MD",
   "id": 1840005975,
   "city": "Hyattsville",
   "city_ascii": "Hyattsville",
   "state_id": "MD",
   "City-State": "Hyattsville-MD",
   "state_name": "Maryland",
   "county_fips": 24033,
   "county_name": "Prince George's",
   "lat": 38.9612,
   "lng": -76.9548,
   "population": 18449,
   "population_proper": 18449,
   "density": 2672,
   "source": "polygon",
   "incorporated": true,
   "timezone": "America/New_York",
   "zips": "20781 20782 20787 20788"
 },
 {
   "City-State": "Benedict-MD",
   "id": 1840024646,
   "city": "Benedict",
   "city_ascii": "Benedict",
   "state_id": "MD",
   "City-State": "Benedict-MD",
   "state_name": "Maryland",
   "county_fips": 24017,
   "county_name": "Charles",
   "lat": 38.5116,
   "lng": -76.6797,
   "population": null,
   "population_proper": null,
   "density": 417.1,
   "source": "polygon",
   "incorporated": false,
   "timezone": "America/New_York",
   "zips": "20612"
 },
 {
   "City-State": "Maugansville-MD",
   "id": 1840005608,
   "city": "Maugansville",
   "city_ascii": "Maugansville",
   "state_id": "MD",
   "City-State": "Maugansville-MD",
   "state_name": "Maryland",
   "county_fips": 24043,
   "county_name": "Washington",
   "lat": 39.6936,
   "lng": -77.7472,
   "population": null,
   "population_proper": null,
   "density": 1271.5,
   "source": "polygon",
   "incorporated": false,
   "timezone": "America/New_York",
   "zips": "21767 21740"
 },
 {
   "City-State": "Linganore-MD",
   "id": 1840026627,
   "city": "Linganore",
   "city_ascii": "Linganore",
   "state_id": "MD",
   "City-State": "Linganore-MD",
   "state_name": "Maryland",
   "county_fips": 24021,
   "county_name": "Frederick",
   "lat": 39.4111,
   "lng": -77.3026,
   "population": null,
   "population_proper": null,
   "density": 30.5,
   "source": "polygon",
   "incorporated": false,
   "timezone": "America/New_York",
   "zips": "21774 21754"
 },
 {
   "City-State": "Cloverly-MD",
   "id": 1840031267,
   "city": "Cloverly",
   "city_ascii": "Cloverly",
   "state_id": "MD",
   "City-State": "Cloverly-MD",
   "state_name": "Maryland",
   "county_fips": 24031,
   "county_name": "Montgomery",
   "lat": 39.1065,
   "lng": -76.9993,
   "population": null,
   "population_proper": null,
   "density": 608.4,
   "source": "polygon",
   "incorporated": false,
   "timezone": "America/New_York",
   "zips": "20905"
 },
 {
   "City-State": "Coral Hills-MD",
   "id": 1840005950,
   "city": "Coral Hills",
   "city_ascii": "Coral Hills",
   "state_id": "MD",
   "City-State": "Coral Hills-MD",
   "state_name": "Maryland",
   "county_fips": 24033,
   "county_name": "Prince George's",
   "lat": 38.871,
   "lng": -76.9232,
   "population": null,
   "population_proper": null,
   "density": 2837.6,
   "source": "polygon",
   "incorporated": false,
   "timezone": "America/New_York",
   "zips": "20743"
 },
 {
   "City-State": "Capitol Heights-MD",
   "id": 1840005983,
   "city": "Capitol Heights",
   "city_ascii": "Capitol Heights",
   "state_id": "MD",
   "City-State": "Capitol Heights-MD",
   "state_name": "Maryland",
   "county_fips": 24033,
   "county_name": "Prince George's",
   "lat": 38.8769,
   "lng": -76.9075,
   "population": 4545,
   "population_proper": 4545,
   "density": 2194,
   "source": "polygon",
   "incorporated": true,
   "timezone": "America/New_York",
   "zips": "20743 20731 20790 20791 20799"
 },
 {
   "City-State": "Beaver Creek-MD",
   "id": 1840024388,
   "city": "Beaver Creek",
   "city_ascii": "Beaver Creek",
   "state_id": "MD",
   "City-State": "Beaver Creek-MD",
   "state_name": "Maryland",
   "county_fips": 24043,
   "county_name": "Washington",
   "lat": 39.5786,
   "lng": -77.6476,
   "population": null,
   "population_proper": null,
   "density": 85.9,
   "source": "polygon",
   "incorporated": false,
   "timezone": "America/New_York",
   "zips": "21740 21713"
 },
 {
   "City-State": "Bryantown-MD",
   "id": 1840026735,
   "city": "Bryantown",
   "city_ascii": "Bryantown",
   "state_id": "MD",
   "City-State": "Bryantown-MD",
   "state_name": "Maryland",
   "county_fips": 24017,
   "county_name": "Charles",
   "lat": 38.5498,
   "lng": -76.8429,
   "population": null,
   "population_proper": null,
   "density": 42.4,
   "source": "polygon",
   "incorporated": false,
   "timezone": "America/New_York",
   "zips": "20601 20617"
 },
 {
   "City-State": "Thurmont-MD",
   "id": 1840005716,
   "city": "Thurmont",
   "city_ascii": "Thurmont",
   "state_id": "MD",
   "City-State": "Thurmont-MD",
   "state_name": "Maryland",
   "county_fips": 24021,
   "county_name": "Frederick",
   "lat": 39.6205,
   "lng": -77.4074,
   "population": 7252,
   "population_proper": 6528,
   "density": 806,
   "source": "polygon",
   "incorporated": true,
   "timezone": "America/New_York",
   "zips": "21788"
 },
 {
   "City-State": "Funkstown-MD",
   "id": 1840005609,
   "city": "Funkstown",
   "city_ascii": "Funkstown",
   "state_id": "MD",
   "City-State": "Funkstown-MD",
   "state_name": "Maryland",
   "county_fips": 24043,
   "county_name": "Washington",
   "lat": 39.6085,
   "lng": -77.7079,
   "population": 884,
   "population_proper": 884,
   "density": 895,
   "source": "polygon",
   "incorporated": true,
   "timezone": "America/New_York",
   "zips": "21734 21740"
 },
 {
   "City-State": "Upper Marlboro-MD",
   "id": 1840003828,
   "city": "Upper Marlboro",
   "city_ascii": "Upper Marlboro",
   "state_id": "MD",
   "City-State": "Upper Marlboro-MD",
   "state_name": "Maryland",
   "county_fips": 24033,
   "county_name": "Prince George's",
   "lat": 38.8172,
   "lng": -76.7545,
   "population": 669,
   "population_proper": 669,
   "density": 640,
   "source": "polygon",
   "incorporated": true,
   "timezone": "America/New_York",
   "zips": "20772 20773 20775 20792"
 },
 {
   "City-State": "Cambridge-MD",
   "id": 1840006165,
   "city": "Cambridge",
   "city_ascii": "Cambridge",
   "state_id": "MD",
   "City-State": "Cambridge-MD",
   "state_name": "Maryland",
   "county_fips": 24019,
   "county_name": "Dorchester",
   "lat": 38.5519,
   "lng": -76.0788,
   "population": 14418,
   "population_proper": 12468,
   "density": 456,
   "source": "polygon",
   "incorporated": true,
   "timezone": "America/New_York",
   "zips": "21613"
 },
 {
   "City-State": "Powellville-MD",
   "id": 1840024670,
   "city": "Powellville",
   "city_ascii": "Powellville",
   "state_id": "MD",
   "City-State": "Powellville-MD",
   "state_name": "Maryland",
   "county_fips": 24045,
   "county_name": "Wicomico",
   "lat": 38.3296,
   "lng": -75.3754,
   "population": null,
   "population_proper": null,
   "density": 79.6,
   "source": "polygon",
   "incorporated": false,
   "timezone": "America/New_York",
   "zips": "21850 21852"
 },
 {
   "City-State": "West Denton-MD",
   "id": 1840024535,
   "city": "West Denton",
   "city_ascii": "West Denton",
   "state_id": "MD",
   "City-State": "West Denton-MD",
   "state_name": "Maryland",
   "county_fips": 24011,
   "county_name": "Caroline",
   "lat": 38.8896,
   "lng": -75.8389,
   "population": null,
   "population_proper": null,
   "density": 443.7,
   "source": "polygon",
   "incorporated": false,
   "timezone": "America/New_York",
   "zips": "21629"
 },
 {
   "City-State": "Willows-MD",
   "id": 1840031423,
   "city": "Willows",
   "city_ascii": "Willows",
   "state_id": "MD",
   "City-State": "Willows-MD",
   "state_name": "Maryland",
   "county_fips": 24009,
   "county_name": "Calvert",
   "lat": 38.6276,
   "lng": -76.5377,
   "population": null,
   "population_proper": null,
   "density": 103.7,
   "source": "point",
   "incorporated": false,
   "timezone": "America/New_York",
   "zips": "20732"
 },
 {
   "City-State": "Cheltenham-MD",
   "id": 1840031447,
   "city": "Cheltenham",
   "city_ascii": "Cheltenham",
   "state_id": "MD",
   "City-State": "Cheltenham-MD",
   "state_name": "Maryland",
   "county_fips": 24033,
   "county_name": "Prince George's",
   "lat": 38.7357,
   "lng": -76.8264,
   "population": null,
   "population_proper": null,
   "density": 457.6,
   "source": "point",
   "incorporated": false,
   "timezone": "America/New_York",
   "zips": "20623"
 },
 {
   "City-State": "Mount Zion-MD",
   "id": 1840031377,
   "city": "Mount Zion",
   "city_ascii": "Mount Zion",
   "state_id": "MD",
   "City-State": "Mount Zion-MD",
   "state_name": "Maryland",
   "county_fips": 24003,
   "county_name": "Anne Arundel",
   "lat": 38.8323,
   "lng": -76.6114,
   "population": null,
   "population_proper": null,
   "density": 62.2,
   "source": "point",
   "incorporated": false,
   "timezone": "America/New_York",
   "zips": "20711"
 },
 {
   "City-State": "Bowling Green-MD",
   "id": 1840024416,
   "city": "Bowling Green",
   "city_ascii": "Bowling Green",
   "state_id": "MD",
   "City-State": "Bowling Green-MD",
   "state_name": "Maryland",
   "county_fips": 24001,
   "county_name": "Allegany",
   "lat": 39.6272,
   "lng": -78.805,
   "population": null,
   "population_proper": null,
   "density": 803.6,
   "source": "polygon",
   "incorporated": false,
   "timezone": "America/New_York",
   "zips": "21502"
 },
 {
   "City-State": "Westphalia-MD",
   "id": 1840024549,
   "city": "Westphalia",
   "city_ascii": "Westphalia",
   "state_id": "MD",
   "City-State": "Westphalia-MD",
   "state_name": "Maryland",
   "county_fips": 24033,
   "county_name": "Prince George's",
   "lat": 38.8385,
   "lng": -76.8232,
   "population": null,
   "population_proper": null,
   "density": 370.5,
   "source": "polygon",
   "incorporated": false,
   "timezone": "America/New_York",
   "zips": "20774 20772"
 },
 {
   "City-State": "Burtonsville-MD",
   "id": 1840005827,
   "city": "Burtonsville",
   "city_ascii": "Burtonsville",
   "state_id": "MD",
   "City-State": "Burtonsville-MD",
   "state_name": "Maryland",
   "county_fips": 24031,
   "county_name": "Montgomery",
   "lat": 39.1166,
   "lng": -76.9356,
   "population": null,
   "population_proper": null,
   "density": 421.8,
   "source": "polygon",
   "incorporated": false,
   "timezone": "America/New_York",
   "zips": "20868 20866"
 },
 {
   "City-State": "Kettering-MD",
   "id": 1840005958,
   "city": "Kettering",
   "city_ascii": "Kettering",
   "state_id": "MD",
   "City-State": "Kettering-MD",
   "state_name": "Maryland",
   "county_fips": 24033,
   "county_name": "Prince George's",
   "lat": 38.8888,
   "lng": -76.7889,
   "population": null,
   "population_proper": null,
   "density": 2241.4,
   "source": "polygon",
   "incorporated": false,
   "timezone": "America/New_York",
   "zips": "20774"
 },
 {
   "City-State": "Zihlman-MD",
   "id": 1840024439,
   "city": "Zihlman",
   "city_ascii": "Zihlman",
   "state_id": "MD",
   "City-State": "Zihlman-MD",
   "state_name": "Maryland",
   "county_fips": 24001,
   "county_name": "Allegany",
   "lat": 39.6741,
   "lng": -78.913,
   "population": null,
   "population_proper": null,
   "density": 184.2,
   "source": "polygon",
   "incorporated": false,
   "timezone": "America/New_York",
   "zips": "21532"
 },
 {
   "City-State": "Church Hill-MD",
   "id": 1840005900,
   "city": "Church Hill",
   "city_ascii": "Church Hill",
   "state_id": "MD",
   "City-State": "Church Hill-MD",
   "state_name": "Maryland",
   "county_fips": 24035,
   "county_name": "Queen Anne's",
   "lat": 39.145,
   "lng": -75.9808,
   "population": 744,
   "population_proper": 744,
   "density": 402,
   "source": "polygon",
   "incorporated": true,
   "timezone": "America/New_York",
   "zips": "21623"
 },
 {
   "City-State": "Denton-MD",
   "id": 1840005932,
   "city": "Denton",
   "city_ascii": "Denton",
   "state_id": "MD",
   "City-State": "Denton-MD",
   "state_name": "Maryland",
   "county_fips": 24011,
   "county_name": "Caroline",
   "lat": 38.877,
   "lng": -75.8265,
   "population": 4738,
   "population_proper": 4388,
   "density": 321,
   "source": "polygon",
   "incorporated": true,
   "timezone": "America/New_York",
   "zips": "21629"
 },
 {
   "City-State": "Kentland-MD",
   "id": 1840031453,
   "city": "Kentland",
   "city_ascii": "Kentland",
   "state_id": "MD",
   "City-State": "Kentland-MD",
   "state_name": "Maryland",
   "county_fips": 24033,
   "county_name": "Prince George's",
   "lat": 38.9237,
   "lng": -76.88,
   "population": null,
   "population_proper": null,
   "density": 2968.5,
   "source": "point",
   "incorporated": false,
   "timezone": "America/New_York",
   "zips": "20785"
 },
 {
   "City-State": "Annapolis-MD",
   "id": 1840005928,
   "city": "Annapolis",
   "city_ascii": "Annapolis",
   "state_id": "MD",
   "City-State": "Annapolis-MD",
   "state_name": "Maryland",
   "county_fips": 24003,
   "county_name": "Anne Arundel",
   "lat": 38.9705,
   "lng": -76.5047,
   "population": 39418,
   "population_proper": 39418,
   "density": 2114,
   "source": "polygon",
   "incorporated": true,
   "timezone": "America/New_York",
   "zips": "21401 21403 21404 21411 21412"
 },
 {
   "City-State": "Wheaton-MD",
   "id": 1840031295,
   "city": "Wheaton",
   "city_ascii": "Wheaton",
   "state_id": "MD",
   "City-State": "Wheaton-MD",
   "state_name": "Maryland",
   "county_fips": 24031,
   "county_name": "Montgomery",
   "lat": 39.0492,
   "lng": -77.0572,
   "population": null,
   "population_proper": null,
   "density": 1290.1,
   "source": "polygon",
   "incorporated": false,
   "timezone": "America/New_York",
   "zips": "20906 20902"
 },
 {
   "City-State": "Shawan-MD",
   "id": 1840031402,
   "city": "Shawan",
   "city_ascii": "Shawan",
   "state_id": "MD",
   "City-State": "Shawan-MD",
   "state_name": "Maryland",
   "county_fips": 24005,
   "county_name": "Baltimore",
   "lat": 39.4957,
   "lng": -76.7083,
   "population": null,
   "population_proper": null,
   "density": 35.9,
   "source": "point",
   "incorporated": false,
   "timezone": "America/New_York",
   "zips": "21030"
 },
 {
   "City-State": "Tilghman Island-MD",
   "id": 1840031488,
   "city": "Tilghman Island",
   "city_ascii": "Tilghman Island",
   "state_id": "MD",
   "City-State": "Tilghman Island-MD",
   "state_name": "Maryland",
   "county_fips": 24041,
   "county_name": "Talbot",
   "lat": 38.7028,
   "lng": -76.3354,
   "population": null,
   "population_proper": null,
   "density": 156.7,
   "source": "polygon",
   "incorporated": false,
   "timezone": "America/New_York",
   "zips": "21665 21671"
 },
 {
   "City-State": "Coleman-MD",
   "id": 1840031268,
   "city": "Coleman",
   "city_ascii": "Coleman",
   "state_id": "MD",
   "City-State": "Coleman-MD",
   "state_name": "Maryland",
   "county_fips": 24029,
   "county_name": "Kent",
   "lat": 39.3415,
   "lng": -76.078,
   "population": null,
   "population_proper": null,
   "density": 79.5,
   "source": "point",
   "incorporated": false,
   "timezone": "America/New_York",
   "zips": "21678"
 },
 {
   "City-State": "Federal Hill-MD",
   "id": 1840031275,
   "city": "Federal Hill",
   "city_ascii": "Federal Hill",
   "state_id": "MD",
   "City-State": "Federal Hill-MD",
   "state_name": "Maryland",
   "county_fips": 24025,
   "county_name": "Harford",
   "lat": 39.6409,
   "lng": -76.4714,
   "population": null,
   "population_proper": null,
   "density": 134.4,
   "source": "point",
   "incorporated": false,
   "timezone": "America/New_York",
   "zips": "21084"
 },
 {
   "City-State": "Chewsville-MD",
   "id": 1840005599,
   "city": "Chewsville",
   "city_ascii": "Chewsville",
   "state_id": "MD",
   "City-State": "Chewsville-MD",
   "state_name": "Maryland",
   "county_fips": 24043,
   "county_name": "Washington",
   "lat": 39.6484,
   "lng": -77.6311,
   "population": null,
   "population_proper": null,
   "density": 137.8,
   "source": "polygon",
   "incorporated": false,
   "timezone": "America/New_York",
   "zips": "21783"
 },
 {
   "City-State": "Lower Marlboro-MD",
   "id": 1840031281,
   "city": "Lower Marlboro",
   "city_ascii": "Lower Marlboro",
   "state_id": "MD",
   "City-State": "Lower Marlboro-MD",
   "state_name": "Maryland",
   "county_fips": 24009,
   "county_name": "Calvert",
   "lat": 38.656,
   "lng": -76.6819,
   "population": null,
   "population_proper": null,
   "density": 109.9,
   "source": "point",
   "incorporated": false,
   "timezone": "America/New_York",
   "zips": "20736"
 },
 {
   "City-State": "Woodfield-MD",
   "id": 1840031425,
   "city": "Woodfield",
   "city_ascii": "Woodfield",
   "state_id": "MD",
   "City-State": "Woodfield-MD",
   "state_name": "Maryland",
   "county_fips": 24031,
   "county_name": "Montgomery",
   "lat": 39.2468,
   "lng": -77.1905,
   "population": null,
   "population_proper": null,
   "density": 534.2,
   "source": "point",
   "incorporated": false,
   "timezone": "America/New_York",
   "zips": "20882"
 },
 {
   "City-State": "Palmer Park-MD",
   "id": 1840031457,
   "city": "Palmer Park",
   "city_ascii": "Palmer Park",
   "state_id": "MD",
   "City-State": "Palmer Park-MD",
   "state_name": "Maryland",
   "county_fips": 24033,
   "county_name": "Prince George's",
   "lat": 38.9209,
   "lng": -76.8716,
   "population": null,
   "population_proper": null,
   "density": 2746,
   "source": "point",
   "incorporated": false,
   "timezone": "America/New_York",
   "zips": "20785"
 },
 {
   "City-State": "Chesapeake City-MD",
   "id": 1840005638,
   "city": "Chesapeake City",
   "city_ascii": "Chesapeake City",
   "state_id": "MD",
   "City-State": "Chesapeake City-MD",
   "state_name": "Maryland",
   "county_fips": 24015,
   "county_name": "Cecil",
   "lat": 39.5278,
   "lng": -75.8106,
   "population": 700,
   "population_proper": 700,
   "density": 535,
   "source": "polygon",
   "incorporated": true,
   "timezone": "America/New_York",
   "zips": "21915"
 },
 {
   "City-State": "Sharpsburg-MD",
   "id": 1840005617,
   "city": "Sharpsburg",
   "city_ascii": "Sharpsburg",
   "state_id": "MD",
   "City-State": "Sharpsburg-MD",
   "state_name": "Maryland",
   "county_fips": 24043,
   "county_name": "Washington",
   "lat": 39.4576,
   "lng": -77.7495,
   "population": 703,
   "population_proper": 703,
   "density": 1139,
   "source": "polygon",
   "incorporated": true,
   "timezone": "America/New_York",
   "zips": "21782"
 },
 {
   "City-State": "Severna Park-MD",
   "id": 1840005926,
   "city": "Severna Park",
   "city_ascii": "Severna Park",
   "state_id": "MD",
   "City-State": "Severna Park-MD",
   "state_name": "Maryland",
   "county_fips": 24003,
   "county_name": "Anne Arundel",
   "lat": 39.087,
   "lng": -76.5688,
   "population": null,
   "population_proper": null,
   "density": 836.1,
   "source": "polygon",
   "incorporated": false,
   "timezone": "America/New_York",
   "zips": "21146 21108 21123"
 },
 {
   "City-State": "West Laurel-MD",
   "id": 1840005968,
   "city": "West Laurel",
   "city_ascii": "West Laurel",
   "state_id": "MD",
   "City-State": "West Laurel-MD",
   "state_name": "Maryland",
   "county_fips": 24033,
   "county_name": "Prince George's",
   "lat": 39.1133,
   "lng": -76.8924,
   "population": null,
   "population_proper": null,
   "density": 1198.5,
   "source": "polygon",
   "incorporated": false,
   "timezone": "America/New_York",
   "zips": "20707"
 },
 {
   "City-State": "Cedar Grove-MD",
   "id": 1840031319,
   "city": "Cedar Grove",
   "city_ascii": "Cedar Grove",
   "state_id": "MD",
   "City-State": "Cedar Grove-MD",
   "state_name": "Maryland",
   "county_fips": 24031,
   "county_name": "Montgomery",
   "lat": 39.2468,
   "lng": -77.2339,
   "population": null,
   "population_proper": null,
   "density": 127.9,
   "source": "point",
   "incorporated": false,
   "timezone": "America/New_York",
   "zips": "20876"
 },
 {
   "City-State": "Lexington Park-MD",
   "id": 1840006231,
   "city": "Lexington Park",
   "city_ascii": "Lexington Park",
   "state_id": "MD",
   "City-State": "Lexington Park-MD",
   "state_name": "Maryland",
   "county_fips": 24037,
   "county_name": "St. Mary's",
   "lat": 38.2543,
   "lng": -76.4415,
   "population": null,
   "population_proper": null,
   "density": 3.8,
   "source": "polygon",
   "incorporated": false,
   "timezone": "America/New_York",
   "zips": "20653"
 },
 {
   "City-State": "Carmichael-MD",
   "id": 1840031446,
   "city": "Carmichael",
   "city_ascii": "Carmichael",
   "state_id": "MD",
   "City-State": "Carmichael-MD",
   "state_name": "Maryland",
   "county_fips": 24035,
   "county_name": "Queen Anne's",
   "lat": 38.9423,
   "lng": -76.1336,
   "population": null,
   "population_proper": null,
   "density": 13.8,
   "source": "point",
   "incorporated": false,
   "timezone": "America/New_York",
   "zips": "21658"
 },
 {
   "City-State": "Swanton-MD",
   "id": 1840024446,
   "city": "Swanton",
   "city_ascii": "Swanton",
   "state_id": "MD",
   "City-State": "Swanton-MD",
   "state_name": "Maryland",
   "county_fips": 24023,
   "county_name": "Garrett",
   "lat": 39.4598,
   "lng": -79.2328,
   "population": null,
   "population_proper": null,
   "density": 60.7,
   "source": "polygon",
   "incorporated": false,
   "timezone": "America/New_York",
   "zips": "21561"
 },
 {
   "City-State": "Halethorpe-MD",
   "id": 1840031442,
   "city": "Halethorpe",
   "city_ascii": "Halethorpe",
   "state_id": "MD",
   "City-State": "Halethorpe-MD",
   "state_name": "Maryland",
   "county_fips": 24005,
   "county_name": "Baltimore",
   "lat": 39.2398,
   "lng": -76.6802,
   "population": null,
   "population_proper": null,
   "density": 1360.1,
   "source": "point",
   "incorporated": false,
   "timezone": "America/New_York",
   "zips": "21227"
 },
 {
   "City-State": "Barnesville-MD",
   "id": 1840005851,
   "city": "Barnesville",
   "city_ascii": "Barnesville",
   "state_id": "MD",
   "City-State": "Barnesville-MD",
   "state_name": "Maryland",
   "county_fips": 24031,
   "county_name": "Montgomery",
   "lat": 39.2211,
   "lng": -77.3799,
   "population": 179,
   "population_proper": 179,
   "density": 141,
   "source": "polygon",
   "incorporated": true,
   "timezone": "America/New_York",
   "zips": "20838"
 },
 {
   "City-State": "Ocean-MD",
   "id": 1840031386,
   "city": "Ocean",
   "city_ascii": "Ocean",
   "state_id": "MD",
   "City-State": "Ocean-MD",
   "state_name": "Maryland",
   "county_fips": 24001,
   "county_name": "Allegany",
   "lat": 39.6017,
   "lng": -78.945,
   "population": null,
   "population_proper": null,
   "density": 116.3,
   "source": "polygon",
   "incorporated": false,
   "timezone": "America/New_York",
   "zips": "21532"
 },
 {
   "City-State": "Mountain Lake Park-MD",
   "id": 1840005633,
   "city": "Mountain Lake Park",
   "city_ascii": "Mountain Lake Park",
   "state_id": "MD",
   "City-State": "Mountain Lake Park-MD",
   "state_name": "Maryland",
   "county_fips": 24023,
   "county_name": "Garrett",
   "lat": 39.4002,
   "lng": -79.3812,
   "population": 4762,
   "population_proper": 2111,
   "density": 420,
   "source": "polygon",
   "incorporated": true,
   "timezone": "America/New_York",
   "zips": "21550"
 },
 {
   "City-State": "Deal Island-MD",
   "id": 1840006275,
   "city": "Deal Island",
   "city_ascii": "Deal Island",
   "state_id": "MD",
   "City-State": "Deal Island-MD",
   "state_name": "Maryland",
   "county_fips": 24039,
   "county_name": "Somerset",
   "lat": 38.1444,
   "lng": -75.9417,
   "population": null,
   "population_proper": null,
   "density": 83.4,
   "source": "polygon",
   "incorporated": false,
   "timezone": "America/New_York",
   "zips": "21821"
 },
 {
   "City-State": "Morgnec-MD",
   "id": 1840031376,
   "city": "Morgnec",
   "city_ascii": "Morgnec",
   "state_id": "MD",
   "City-State": "Morgnec-MD",
   "state_name": "Maryland",
   "county_fips": 24029,
   "county_name": "Kent",
   "lat": 39.2537,
   "lng": -76.0005,
   "population": null,
   "population_proper": null,
   "density": 27.4,
   "source": "point",
   "incorporated": false,
   "timezone": "America/New_York",
   "zips": "21620"
 },
 {
   "City-State": "Carlos-MD",
   "id": 1840024417,
   "city": "Carlos",
   "city_ascii": "Carlos",
   "state_id": "MD",
   "City-State": "Carlos-MD",
   "state_name": "Maryland",
   "county_fips": 24001,
   "county_name": "Allegany",
   "lat": 39.6237,
   "lng": -78.9567,
   "population": null,
   "population_proper": null,
   "density": 109.1,
   "source": "polygon",
   "incorporated": false,
   "timezone": "America/New_York",
   "zips": "21532"
 },
 {
   "City-State": "Jonestown-MD",
   "id": 1840031359,
   "city": "Jonestown",
   "city_ascii": "Jonestown",
   "state_id": "MD",
   "City-State": "Jonestown-MD",
   "state_name": "Maryland",
   "county_fips": 24027,
   "county_name": "Howard",
   "lat": 39.2221,
   "lng": -76.8075,
   "population": null,
   "population_proper": null,
   "density": 2154.2,
   "source": "point",
   "incorporated": false,
   "timezone": "America/New_York",
   "zips": "21043"
 },
 {
   "City-State": "Ernstville-MD",
   "id": 1840024398,
   "city": "Ernstville",
   "city_ascii": "Ernstville",
   "state_id": "MD",
   "City-State": "Ernstville-MD",
   "state_name": "Maryland",
   "county_fips": 24043,
   "county_name": "Washington",
   "lat": 39.6304,
   "lng": -78.0239,
   "population": null,
   "population_proper": null,
   "density": 54.1,
   "source": "polygon",
   "incorporated": false,
   "timezone": "America/New_York",
   "zips": "21711"
 },
 {
   "City-State": "Brooklyn Park-MD",
   "id": 1840031312,
   "city": "Brooklyn Park",
   "city_ascii": "Brooklyn Park",
   "state_id": "MD",
   "City-State": "Brooklyn Park-MD",
   "state_name": "Maryland",
   "county_fips": 24003,
   "county_name": "Anne Arundel",
   "lat": 39.217,
   "lng": -76.6174,
   "population": null,
   "population_proper": null,
   "density": 3232.4,
   "source": "polygon",
   "incorporated": false,
   "timezone": "America/New_York",
   "zips": "21225"
 },
 {
   "City-State": "Crofton-MD",
   "id": 1840005909,
   "city": "Crofton",
   "city_ascii": "Crofton",
   "state_id": "MD",
   "City-State": "Crofton-MD",
   "state_name": "Maryland",
   "county_fips": 24003,
   "county_name": "Anne Arundel",
   "lat": 39.0144,
   "lng": -76.68,
   "population": null,
   "population_proper": null,
   "density": 1117.4,
   "source": "polygon",
   "incorporated": false,
   "timezone": "America/New_York",
   "zips": "21054 21114"
 },
 {
   "City-State": "Hillandale-MD",
   "id": 1840005841,
   "city": "Hillandale",
   "city_ascii": "Hillandale",
   "state_id": "MD",
   "City-State": "Hillandale-MD",
   "state_name": "Maryland",
   "county_fips": 24031,
   "county_name": "Montgomery",
   "lat": 39.0254,
   "lng": -76.9751,
   "population": null,
   "population_proper": null,
   "density": 1051.4,
   "source": "polygon",
   "incorporated": false,
   "timezone": "America/New_York",
   "zips": "20783 20903"
 },
 {
   "City-State": "Toddville-MD",
   "id": 1840031413,
   "city": "Toddville",
   "city_ascii": "Toddville",
   "state_id": "MD",
   "City-State": "Toddville-MD",
   "state_name": "Maryland",
   "county_fips": 24019,
   "county_name": "Dorchester",
   "lat": 38.2998,
   "lng": -76.0705,
   "population": null,
   "population_proper": null,
   "density": 13,
   "source": "point",
   "incorporated": false,
   "timezone": "America/New_York",
   "zips": "21672"
 },
 {
   "City-State": "Melitota-MD",
   "id": 1840031283,
   "city": "Melitota",
   "city_ascii": "Melitota",
   "state_id": "MD",
   "City-State": "Melitota-MD",
   "state_name": "Maryland",
   "county_fips": 24029,
   "county_name": "Kent",
   "lat": 39.2582,
   "lng": -76.1455,
   "population": null,
   "population_proper": null,
   "density": 3.9,
   "source": "point",
   "incorporated": false,
   "timezone": "America/New_York",
   "zips": "21620"
 },
 {
   "City-State": "Glassmanor-MD",
   "id": 1840024545,
   "city": "Glassmanor",
   "city_ascii": "Glassmanor",
   "state_id": "MD",
   "City-State": "Glassmanor-MD",
   "state_name": "Maryland",
   "county_fips": 24033,
   "county_name": "Prince George's",
   "lat": 38.8181,
   "lng": -76.9836,
   "population": null,
   "population_proper": null,
   "density": 5715.2,
   "source": "polygon",
   "incorporated": false,
   "timezone": "America/New_York",
   "zips": "20745"
 },
 {
   "City-State": "Accokeek-MD",
   "id": 1840005943,
   "city": "Accokeek",
   "city_ascii": "Accokeek",
   "state_id": "MD",
   "City-State": "Accokeek-MD",
   "state_name": "Maryland",
   "county_fips": 24033,
   "county_name": "Prince George's",
   "lat": 38.6745,
   "lng": -77.0023,
   "population": null,
   "population_proper": null,
   "density": 173.8,
   "source": "polygon",
   "incorporated": false,
   "timezone": "America/New_York",
   "zips": "20601 20607"
 },
 {
   "City-State": "Marlow Heights-MD",
   "id": 1840005961,
   "city": "Marlow Heights",
   "city_ascii": "Marlow Heights",
   "state_id": "MD",
   "City-State": "Marlow Heights-MD",
   "state_name": "Maryland",
   "county_fips": 24033,
   "county_name": "Prince George's",
   "lat": 38.8237,
   "lng": -76.9485,
   "population": null,
   "population_proper": null,
   "density": 4087.2,
   "source": "polygon",
   "incorporated": false,
   "timezone": "America/New_York",
   "zips": "20748"
 },
 {
   "City-State": "Saint James-MD",
   "id": 1840005611,
   "city": "Saint James",
   "city_ascii": "Saint James",
   "state_id": "MD",
   "City-State": "Saint James-MD",
   "state_name": "Maryland",
   "county_fips": 24043,
   "county_name": "Washington",
   "lat": 39.5738,
   "lng": -77.7482,
   "population": null,
   "population_proper": null,
   "density": 52.4,
   "source": "polygon",
   "incorporated": false,
   "timezone": "America/New_York",
   "zips": "21781 21733 21740"
 },
 {
   "City-State": "Salisbury-MD",
   "id": 1840006219,
   "city": "Salisbury",
   "city_ascii": "Salisbury",
   "state_id": "MD",
   "City-State": "Salisbury-MD",
   "state_name": "Maryland",
   "county_fips": 24045,
   "county_name": "Wicomico",
   "lat": 38.3755,
   "lng": -75.5883,
   "population": 107026,
   "population_proper": 33114,
   "density": 955,
   "source": "polygon",
   "incorporated": true,
   "timezone": "America/New_York",
   "zips": "21802 21804 21801 21803"
 },
 {
   "City-State": "Upper Crossroads-MD",
   "id": 1840031294,
   "city": "Upper Crossroads",
   "city_ascii": "Upper Crossroads",
   "state_id": "MD",
   "City-State": "Upper Crossroads-MD",
   "state_name": "Maryland",
   "county_fips": 24025,
   "county_name": "Harford",
   "lat": 39.5423,
   "lng": -76.4741,
   "population": null,
   "population_proper": null,
   "density": 138,
   "source": "point",
   "incorporated": false,
   "timezone": "America/New_York",
   "zips": "21047"
 },
 {
   "City-State": "Hampstead-MD",
   "id": 1840005699,
   "city": "Hampstead",
   "city_ascii": "Hampstead",
   "state_id": "MD",
   "City-State": "Hampstead-MD",
   "state_name": "Maryland",
   "county_fips": 24013,
   "county_name": "Carroll",
   "lat": 39.6109,
   "lng": -76.8552,
   "population": 6355,
   "population_proper": 6355,
   "density": 755,
   "source": "polygon",
   "incorporated": true,
   "timezone": "America/New_York",
   "zips": "21074"
 },
 {
   "City-State": "Pinehurst-MD",
   "id": 1840031389,
   "city": "Pinehurst",
   "city_ascii": "Pinehurst",
   "state_id": "MD",
   "City-State": "Pinehurst-MD",
   "state_name": "Maryland",
   "county_fips": 24003,
   "county_name": "Anne Arundel",
   "lat": 39.1176,
   "lng": -76.4336,
   "population": null,
   "population_proper": null,
   "density": 178.6,
   "source": "point",
   "incorporated": false,
   "timezone": "America/New_York",
   "zips": "21122"
 },
 {
   "City-State": "Loch Lynn Heights-MD",
   "id": 1840005632,
   "city": "Loch Lynn Heights",
   "city_ascii": "Loch Lynn Heights",
   "state_id": "MD",
   "City-State": "Loch Lynn Heights-MD",
   "state_name": "Maryland",
   "county_fips": 24023,
   "county_name": "Garrett",
   "lat": 39.3919,
   "lng": -79.3726,
   "population": 535,
   "population_proper": 535,
   "density": 649,
   "source": "polygon",
   "incorporated": true,
   "timezone": "America/New_York",
   "zips": "21550"
 },
 {
   "City-State": "Locust Grove-MD",
   "id": 1840031365,
   "city": "Locust Grove",
   "city_ascii": "Locust Grove",
   "state_id": "MD",
   "City-State": "Locust Grove-MD",
   "state_name": "Maryland",
   "county_fips": 24029,
   "county_name": "Kent",
   "lat": 39.3304,
   "lng": -75.9461,
   "population": null,
   "population_proper": null,
   "density": 21.1,
   "source": "point",
   "incorporated": false,
   "timezone": "America/New_York",
   "zips": "21645"
 },
 {
   "City-State": "Crownsville-MD",
   "id": 1840005910,
   "city": "Crownsville",
   "city_ascii": "Crownsville",
   "state_id": "MD",
   "City-State": "Crownsville-MD",
   "state_name": "Maryland",
   "county_fips": 24003,
   "county_name": "Anne Arundel",
   "lat": 39.0225,
   "lng": -76.5903,
   "population": null,
   "population_proper": null,
   "density": 233,
   "source": "polygon",
   "incorporated": false,
   "timezone": "America/New_York",
   "zips": "21401 21032"
 },
 {
   "City-State": "Ewell-MD",
   "id": 1840031336,
   "city": "Ewell",
   "city_ascii": "Ewell",
   "state_id": "MD",
   "City-State": "Ewell-MD",
   "state_name": "Maryland",
   "county_fips": 24039,
   "county_name": "Somerset",
   "lat": 37.9957,
   "lng": -76.0333,
   "population": null,
   "population_proper": null,
   "density": 144.4,
   "source": "point",
   "incorporated": false,
   "timezone": "America/New_York",
   "zips": "21824"
 },
 {
   "City-State": "North East-MD",
   "id": 1840005639,
   "city": "North East",
   "city_ascii": "North East",
   "state_id": "MD",
   "City-State": "North East-MD",
   "state_name": "Maryland",
   "county_fips": 24015,
   "county_name": "Cecil",
   "lat": 39.6066,
   "lng": -75.9396,
   "population": 3650,
   "population_proper": 3650,
   "density": 705,
   "source": "polygon",
   "incorporated": true,
   "timezone": "America/New_York",
   "zips": "21901 21921"
 },
 {
   "City-State": "Wittman-MD",
   "id": 1840031424,
   "city": "Wittman",
   "city_ascii": "Wittman",
   "state_id": "MD",
   "City-State": "Wittman-MD",
   "state_name": "Maryland",
   "county_fips": 24041,
   "county_name": "Talbot",
   "lat": 38.7937,
   "lng": -76.2941,
   "population": null,
   "population_proper": null,
   "density": 57.3,
   "source": "point",
   "incorporated": false,
   "timezone": "America/New_York",
   "zips": "21676"
 },
 {
   "City-State": "Newark-MD",
   "id": 1840006251,
   "city": "Newark",
   "city_ascii": "Newark",
   "state_id": "MD",
   "City-State": "Newark-MD",
   "state_name": "Maryland",
   "county_fips": 24047,
   "county_name": "Worcester",
   "lat": 38.2749,
   "lng": -75.2735,
   "population": null,
   "population_proper": null,
   "density": 70.1,
   "source": "polygon",
   "incorporated": false,
   "timezone": "America/New_York",
   "zips": "21811 21841"
 },
 {
   "City-State": "Long Meadow-MD",
   "id": 1840031491,
   "city": "Long Meadow",
   "city_ascii": "Long Meadow",
   "state_id": "MD",
   "City-State": "Long Meadow-MD",
   "state_name": "Maryland",
   "county_fips": 24043,
   "county_name": "Washington",
   "lat": 39.6862,
   "lng": -77.7122,
   "population": null,
   "population_proper": null,
   "density": 1056.7,
   "source": "point",
   "incorporated": false,
   "timezone": "America/New_York",
   "zips": "21742"
 },
 {
   "City-State": "Spring Ridge-MD",
   "id": 1840031475,
   "city": "Spring Ridge",
   "city_ascii": "Spring Ridge",
   "state_id": "MD",
   "City-State": "Spring Ridge-MD",
   "state_name": "Maryland",
   "county_fips": 24021,
   "county_name": "Frederick",
   "lat": 39.4043,
   "lng": -77.3413,
   "population": null,
   "population_proper": null,
   "density": 1469,
   "source": "polygon",
   "incorporated": false,
   "timezone": "America/New_York",
   "zips": "21701"
 },
 {
   "City-State": "Cecilton-MD",
   "id": 1840005636,
   "city": "Cecilton",
   "city_ascii": "Cecilton",
   "state_id": "MD",
   "City-State": "Cecilton-MD",
   "state_name": "Maryland",
   "county_fips": 24015,
   "county_name": "Cecil",
   "lat": 39.4051,
   "lng": -75.8673,
   "population": 675,
   "population_proper": 675,
   "density": 562,
   "source": "polygon",
   "incorporated": true,
   "timezone": "America/New_York",
   "zips": "21912 21913"
 },
 {
   "City-State": "Indian Springs-MD",
   "id": 1840024402,
   "city": "Indian Springs",
   "city_ascii": "Indian Springs",
   "state_id": "MD",
   "City-State": "Indian Springs-MD",
   "state_name": "Maryland",
   "county_fips": 24043,
   "county_name": "Washington",
   "lat": 39.6457,
   "lng": -78.0074,
   "population": null,
   "population_proper": null,
   "density": 71.9,
   "source": "polygon",
   "incorporated": false,
   "timezone": "America/New_York",
   "zips": "21722 21711"
 },
 {
   "City-State": "Brunswick-MD",
   "id": 1840005709,
   "city": "Brunswick",
   "city_ascii": "Brunswick",
   "state_id": "MD",
   "City-State": "Brunswick-MD",
   "state_name": "Maryland",
   "county_fips": 24021,
   "county_name": "Frederick",
   "lat": 39.318,
   "lng": -77.6253,
   "population": 8930,
   "population_proper": 6171,
   "density": 729,
   "source": "polygon",
   "incorporated": true,
   "timezone": "America/New_York",
   "zips": "21758 21716"
 },
 {
   "City-State": "Largo-MD",
   "id": 1840005960,
   "city": "Largo",
   "city_ascii": "Largo",
   "state_id": "MD",
   "City-State": "Largo-MD",
   "state_name": "Maryland",
   "county_fips": 24033,
   "county_name": "Prince George's",
   "lat": 38.88,
   "lng": -76.8289,
   "population": null,
   "population_proper": null,
   "density": 1113.1,
   "source": "polygon",
   "incorporated": false,
   "timezone": "America/New_York",
   "zips": "20774"
 },
 {
   "City-State": "Owings Mills-MD",
   "id": 1840005684,
   "city": "Owings Mills",
   "city_ascii": "Owings Mills",
   "state_id": "MD",
   "City-State": "Owings Mills-MD",
   "state_name": "Maryland",
   "county_fips": 24005,
   "county_name": "Baltimore",
   "lat": 39.4115,
   "lng": -76.7913,
   "population": null,
   "population_proper": null,
   "density": 1641.8,
   "source": "polygon",
   "incorporated": false,
   "timezone": "America/New_York",
   "zips": "21117"
 },
 {
   "City-State": "Walker Mill-MD",
   "id": 1840031499,
   "city": "Walker Mill",
   "city_ascii": "Walker Mill",
   "state_id": "MD",
   "City-State": "Walker Mill-MD",
   "state_name": "Maryland",
   "county_fips": 24033,
   "county_name": "Prince George's",
   "lat": 38.8753,
   "lng": -76.8863,
   "population": null,
   "population_proper": null,
   "density": 1319.2,
   "source": "polygon",
   "incorporated": false,
   "timezone": "America/New_York",
   "zips": "20747 20743"
 },
 {
   "City-State": "La Plata-MD",
   "id": 1840006177,
   "city": "La Plata",
   "city_ascii": "La Plata",
   "state_id": "MD",
   "City-State": "La Plata-MD",
   "state_name": "Maryland",
   "county_fips": 24017,
   "county_name": "Charles",
   "lat": 38.5356,
   "lng": -76.9695,
   "population": 9239,
   "population_proper": 9239,
   "density": 481,
   "source": "polygon",
   "incorporated": true,
   "timezone": "America/New_York",
   "zips": "20646"
 },
 {
   "City-State": "Joppatowne-MD",
   "id": 1840005665,
   "city": "Joppatowne",
   "city_ascii": "Joppatowne",
   "state_id": "MD",
   "City-State": "Joppatowne-MD",
   "state_name": "Maryland",
   "county_fips": 24025,
   "county_name": "Harford",
   "lat": 39.4181,
   "lng": -76.3516,
   "population": null,
   "population_proper": null,
   "density": 115.9,
   "source": "polygon",
   "incorporated": false,
   "timezone": "America/New_York",
   "zips": "21085"
 },
 {
   "City-State": "Highland Beach-MD",
   "id": 1840014944,
   "city": "Highland Beach",
   "city_ascii": "Highland Beach",
   "state_id": "MD",
   "City-State": "Highland Beach-MD",
   "state_name": "Maryland",
   "county_fips": 24003,
   "county_name": "Anne Arundel",
   "lat": 38.9313,
   "lng": -76.466,
   "population": 103,
   "population_proper": 103,
   "density": 624,
   "source": "polygon",
   "incorporated": true,
   "timezone": "America/New_York",
   "zips": "21403"
 },
 {
   "City-State": "Barber-MD",
   "id": 1840031255,
   "city": "Barber",
   "city_ascii": "Barber",
   "state_id": "MD",
   "City-State": "Barber-MD",
   "state_name": "Maryland",
   "county_fips": 24041,
   "county_name": "Talbot",
   "lat": 38.6421,
   "lng": -76.0199,
   "population": null,
   "population_proper": null,
   "density": 32.4,
   "source": "point",
   "incorporated": false,
   "timezone": "America/New_York",
   "zips": "21673"
 },
 {
   "City-State": "Boonsboro-MD",
   "id": 1840005614,
   "city": "Boonsboro",
   "city_ascii": "Boonsboro",
   "state_id": "MD",
   "City-State": "Boonsboro-MD",
   "state_name": "Maryland",
   "county_fips": 24043,
   "county_name": "Washington",
   "lat": 39.5077,
   "lng": -77.6584,
   "population": 3510,
   "population_proper": 3510,
   "density": 438,
   "source": "polygon",
   "incorporated": true,
   "timezone": "America/New_York",
   "zips": "21713"
 },
 {
   "City-State": "Takoma Park-MD",
   "id": 1840005850,
   "city": "Takoma Park",
   "city_ascii": "Takoma Park",
   "state_id": "MD",
   "City-State": "Takoma Park-MD",
   "state_name": "Maryland",
   "county_fips": 24031,
   "county_name": "Montgomery",
   "lat": 38.981,
   "lng": -77.0028,
   "population": 17765,
   "population_proper": 17765,
   "density": 3282,
   "source": "polygon",
   "incorporated": true,
   "timezone": "America/New_York",
   "zips": "20912 20913"
 },
 {
   "City-State": "Forest Hill-MD",
   "id": 1840031276,
   "city": "Forest Hill",
   "city_ascii": "Forest Hill",
   "state_id": "MD",
   "City-State": "Forest Hill-MD",
   "state_name": "Maryland",
   "county_fips": 24025,
   "county_name": "Harford",
   "lat": 39.5851,
   "lng": -76.3877,
   "population": null,
   "population_proper": null,
   "density": 318.4,
   "source": "point",
   "incorporated": false,
   "timezone": "America/New_York",
   "zips": "21050"
 },
 {
   "City-State": "Solomons-MD",
   "id": 1840006149,
   "city": "Solomons",
   "city_ascii": "Solomons",
   "state_id": "MD",
   "City-State": "Solomons-MD",
   "state_name": "Maryland",
   "county_fips": 24009,
   "county_name": "Calvert",
   "lat": 38.3373,
   "lng": -76.4611,
   "population": null,
   "population_proper": null,
   "density": 493,
   "source": "polygon",
   "incorporated": false,
   "timezone": "America/New_York",
   "zips": "20688 20629"
 },
 {
   "City-State": "Hickory-MD",
   "id": 1840031354,
   "city": "Hickory",
   "city_ascii": "Hickory",
   "state_id": "MD",
   "City-State": "Hickory-MD",
   "state_name": "Maryland",
   "county_fips": 24025,
   "county_name": "Harford",
   "lat": 39.5787,
   "lng": -76.3452,
   "population": null,
   "population_proper": null,
   "density": 207.7,
   "source": "point",
   "incorporated": false,
   "timezone": "America/New_York",
   "zips": "21015"
 },
 {
   "City-State": "Grantsville-MD",
   "id": 1840005629,
   "city": "Grantsville",
   "city_ascii": "Grantsville",
   "state_id": "MD",
   "City-State": "Grantsville-MD",
   "state_name": "Maryland",
   "county_fips": 24023,
   "county_name": "Garrett",
   "lat": 39.6969,
   "lng": -79.1529,
   "population": 764,
   "population_proper": 764,
   "density": 301,
   "source": "polygon",
   "incorporated": true,
   "timezone": "America/New_York",
   "zips": "21536"
 },
 {
   "City-State": "Beverly Beach-MD",
   "id": 1840031261,
   "city": "Beverly Beach",
   "city_ascii": "Beverly Beach",
   "state_id": "MD",
   "City-State": "Beverly Beach-MD",
   "state_name": "Maryland",
   "county_fips": 24003,
   "county_name": "Anne Arundel",
   "lat": 38.8754,
   "lng": -76.508,
   "population": null,
   "population_proper": null,
   "density": 768.1,
   "source": "point",
   "incorporated": false,
   "timezone": "America/New_York",
   "zips": "21037"
 },
 {
   "City-State": "Chevy Chase Section Five-MD",
   "id": 1840031471,
   "city": "Chevy Chase Section Five",
   "city_ascii": "Chevy Chase Section Five",
   "state_id": "MD",
   "City-State": "Chevy Chase Section Five-MD",
   "state_name": "Maryland",
   "county_fips": 24031,
   "county_name": "Montgomery",
   "lat": 38.984,
   "lng": -77.074,
   "population": 711,
   "population_proper": 711,
   "density": 2571,
   "source": "polygon",
   "incorporated": true,
   "timezone": "America/New_York",
   "zips": "20815"
 },
 {
   "City-State": "Walkersville-MD",
   "id": 1840005717,
   "city": "Walkersville",
   "city_ascii": "Walkersville",
   "state_id": "MD",
   "City-State": "Walkersville-MD",
   "state_name": "Maryland",
   "county_fips": 24021,
   "county_name": "Frederick",
   "lat": 39.4832,
   "lng": -77.356,
   "population": 6054,
   "population_proper": 6054,
   "density": 491,
   "source": "polygon",
   "incorporated": true,
   "timezone": "America/New_York",
   "zips": "21793"
 },
 {
   "City-State": "Woodstock-MD",
   "id": 1840031427,
   "city": "Woodstock",
   "city_ascii": "Woodstock",
   "state_id": "MD",
   "City-State": "Woodstock-MD",
   "state_name": "Maryland",
   "county_fips": 24027,
   "county_name": "Howard",
   "lat": 39.3287,
   "lng": -76.8719,
   "population": null,
   "population_proper": null,
   "density": 127.4,
   "source": "point",
   "incorporated": false,
   "timezone": "America/New_York",
   "zips": "21163"
 },
 {
   "City-State": "Webster-MD",
   "id": 1840031418,
   "city": "Webster",
   "city_ascii": "Webster",
   "state_id": "MD",
   "City-State": "Webster-MD",
   "state_name": "Maryland",
   "county_fips": 24025,
   "county_name": "Harford",
   "lat": 39.5734,
   "lng": -76.1563,
   "population": null,
   "population_proper": null,
   "density": 353.8,
   "source": "point",
   "incorporated": false,
   "timezone": "America/New_York",
   "zips": "21078"
 },
 {
   "City-State": "Herald Harbor-MD",
   "id": 1840005918,
   "city": "Herald Harbor",
   "city_ascii": "Herald Harbor",
   "state_id": "MD",
   "City-State": "Herald Harbor-MD",
   "state_name": "Maryland",
   "county_fips": 24003,
   "county_name": "Anne Arundel",
   "lat": 39.0516,
   "lng": -76.5745,
   "population": null,
   "population_proper": null,
   "density": 1163.6,
   "source": "polygon",
   "incorporated": false,
   "timezone": "America/New_York",
   "zips": "21032"
 },
 {
   "City-State": "Chesapeake Ranch Estates-MD",
   "id": 1840026723,
   "city": "Chesapeake Ranch Estates",
   "city_ascii": "Chesapeake Ranch Estates",
   "state_id": "MD",
   "City-State": "Chesapeake Ranch Estates-MD",
   "state_name": "Maryland",
   "county_fips": 24009,
   "county_name": "Calvert",
   "lat": 38.3574,
   "lng": -76.4147,
   "population": null,
   "population_proper": null,
   "density": 730.2,
   "source": "polygon",
   "incorporated": false,
   "timezone": "America/New_York",
   "zips": "20657"
 },
 {
   "City-State": "Port Tobacco-MD",
   "id": 1840031301,
   "city": "Port Tobacco",
   "city_ascii": "Port Tobacco",
   "state_id": "MD",
   "City-State": "Port Tobacco-MD",
   "state_name": "Maryland",
   "county_fips": 24017,
   "county_name": "Charles",
   "lat": 38.5137,
   "lng": -77.0183,
   "population": null,
   "population_proper": null,
   "density": 32.8,
   "source": "point",
   "incorporated": true,
   "timezone": "America/New_York",
   "zips": "20677"
 },
 {
   "City-State": "Elk Neck-MD",
   "id": 1840031299,
   "city": "Elk Neck",
   "city_ascii": "Elk Neck",
   "state_id": "MD",
   "City-State": "Elk Neck-MD",
   "state_name": "Maryland",
   "county_fips": 24015,
   "county_name": "Cecil",
   "lat": 39.5129,
   "lng": -75.9513,
   "population": null,
   "population_proper": null,
   "density": 66.4,
   "source": "point",
   "incorporated": false,
   "timezone": "America/New_York",
   "zips": "21901"
 },
 {
   "City-State": "Worton-MD",
   "id": 1840024478,
   "city": "Worton",
   "city_ascii": "Worton",
   "state_id": "MD",
   "City-State": "Worton-MD",
   "state_name": "Maryland",
   "county_fips": 24029,
   "county_name": "Kent",
   "lat": 39.2718,
   "lng": -76.0933,
   "population": null,
   "population_proper": null,
   "density": 61.6,
   "source": "polygon",
   "incorporated": false,
   "timezone": "America/New_York",
   "zips": "21678"
 },
 {
   "City-State": "Davidsonville-MD",
   "id": 1840031270,
   "city": "Davidsonville",
   "city_ascii": "Davidsonville",
   "state_id": "MD",
   "City-State": "Davidsonville-MD",
   "state_name": "Maryland",
   "county_fips": 24003,
   "county_name": "Anne Arundel",
   "lat": 38.9229,
   "lng": -76.6283,
   "population": null,
   "population_proper": null,
   "density": 119.6,
   "source": "point",
   "incorporated": false,
   "timezone": "America/New_York",
   "zips": "21035"
 },
 {
   "City-State": "Gibson Island-MD",
   "id": 1840031342,
   "city": "Gibson Island",
   "city_ascii": "Gibson Island",
   "state_id": "MD",
   "City-State": "Gibson Island-MD",
   "state_name": "Maryland",
   "county_fips": 24003,
   "county_name": "Anne Arundel",
   "lat": 39.0743,
   "lng": -76.4238,
   "population": null,
   "population_proper": null,
   "density": 237.4,
   "source": "point",
   "incorporated": false,
   "timezone": "America/New_York",
   "zips": "21056"
 },
 {
   "City-State": "Deer Park-MD",
   "id": 1840005631,
   "city": "Deer Park",
   "city_ascii": "Deer Park",
   "state_id": "MD",
   "City-State": "Deer Park-MD",
   "state_name": "Maryland",
   "county_fips": 24023,
   "county_name": "Garrett",
   "lat": 39.424,
   "lng": -79.326,
   "population": 380,
   "population_proper": 380,
   "density": 146,
   "source": "polygon",
   "incorporated": true,
   "timezone": "America/New_York",
   "zips": "21550"
 },
 {
   "City-State": "Fruitland-MD",
   "id": 1840006218,
   "city": "Fruitland",
   "city_ascii": "Fruitland",
   "state_id": "MD",
   "City-State": "Fruitland-MD",
   "state_name": "Maryland",
   "county_fips": 24045,
   "county_name": "Wicomico",
   "lat": 38.3216,
   "lng": -75.6244,
   "population": 5234,
   "population_proper": 5234,
   "density": 535,
   "source": "polygon",
   "incorporated": true,
   "timezone": "America/New_York",
   "zips": "21826"
 },
 {
   "City-State": "Elkton-MD",
   "id": 1840005635,
   "city": "Elkton",
   "city_ascii": "Elkton",
   "state_id": "MD",
   "City-State": "Elkton-MD",
   "state_name": "Maryland",
   "county_fips": 24015,
   "county_name": "Cecil",
   "lat": 39.6066,
   "lng": -75.8205,
   "population": 15744,
   "population_proper": 15744,
   "density": 696,
   "source": "polygon",
   "incorporated": true,
   "timezone": "America/New_York",
   "zips": "21921 21922"
 },
 {
   "City-State": "Towson-MD",
   "id": 1840005695,
   "city": "Towson",
   "city_ascii": "Towson",
   "state_id": "MD",
   "City-State": "Towson-MD",
   "state_name": "Maryland",
   "county_fips": 24005,
   "county_name": "Baltimore",
   "lat": 39.3944,
   "lng": -76.619,
   "population": null,
   "population_proper": null,
   "density": 3585.1,
   "source": "polygon",
   "incorporated": false,
   "timezone": "America/New_York",
   "zips": "21210 21212 21239 21286 21252 21209 21204 21139"
 },
 {
   "City-State": "Bethesda-MD",
   "id": 1840005826,
   "city": "Bethesda",
   "city_ascii": "Bethesda",
   "state_id": "MD",
   "City-State": "Bethesda-MD",
   "state_name": "Maryland",
   "county_fips": 24031,
   "county_name": "Montgomery",
   "lat": 38.9866,
   "lng": -77.1188,
   "population": null,
   "population_proper": null,
   "density": 2480,
   "source": "polygon",
   "incorporated": false,
   "timezone": "America/New_York",
   "zips": "20814 20815 20816 20817 20810 20813 20824 20827 20889 20892 20894"
 },
 {
   "City-State": "Sharptown-MD",
   "id": 1840006223,
   "city": "Sharptown",
   "city_ascii": "Sharptown",
   "state_id": "MD",
   "City-State": "Sharptown-MD",
   "state_name": "Maryland",
   "county_fips": 24045,
   "county_name": "Wicomico",
   "lat": 38.539,
   "lng": -75.7191,
   "population": 652,
   "population_proper": 652,
   "density": 611,
   "source": "polygon",
   "incorporated": true,
   "timezone": "America/New_York",
   "zips": "21861"
 },
 {
   "City-State": "Sudlersville-MD",
   "id": 1840005903,
   "city": "Sudlersville",
   "city_ascii": "Sudlersville",
   "state_id": "MD",
   "City-State": "Sudlersville-MD",
   "state_name": "Maryland",
   "county_fips": 24035,
   "county_name": "Queen Anne's",
   "lat": 39.1831,
   "lng": -75.8533,
   "population": 472,
   "population_proper": 472,
   "density": 120,
   "source": "polygon",
   "incorporated": true,
   "timezone": "America/New_York",
   "zips": "21668"
 },
 {
   "City-State": "Damascus-MD",
   "id": 1840005832,
   "city": "Damascus",
   "city_ascii": "Damascus",
   "state_id": "MD",
   "City-State": "Damascus-MD",
   "state_name": "Maryland",
   "county_fips": 24031,
   "county_name": "Montgomery",
   "lat": 39.2737,
   "lng": -77.2006,
   "population": null,
   "population_proper": null,
   "density": 1345.4,
   "source": "polygon",
   "incorporated": false,
   "timezone": "America/New_York",
   "zips": "20872 20882"
 },
 {
   "City-State": "Chesterville-MD",
   "id": 1840031265,
   "city": "Chesterville",
   "city_ascii": "Chesterville",
   "state_id": "MD",
   "City-State": "Chesterville-MD",
   "state_name": "Maryland",
   "county_fips": 24029,
   "county_name": "Kent",
   "lat": 39.2759,
   "lng": -75.9152,
   "population": null,
   "population_proper": null,
   "density": 11.5,
   "source": "point",
   "incorporated": false,
   "timezone": "America/New_York",
   "zips": "21651"
 },
 {
   "City-State": "Jefferson-MD",
   "id": 1840024451,
   "city": "Jefferson",
   "city_ascii": "Jefferson",
   "state_id": "MD",
   "City-State": "Jefferson-MD",
   "state_name": "Maryland",
   "county_fips": 24021,
   "county_name": "Frederick",
   "lat": 39.3661,
   "lng": -77.5409,
   "population": null,
   "population_proper": null,
   "density": 768.3,
   "source": "polygon",
   "incorporated": false,
   "timezone": "America/New_York",
   "zips": "21755"
 },
 {
   "City-State": "East New Market-MD",
   "id": 1840006161,
   "city": "East New Market",
   "city_ascii": "East New Market",
   "state_id": "MD",
   "City-State": "East New Market-MD",
   "state_name": "Maryland",
   "county_fips": 24019,
   "county_name": "Dorchester",
   "lat": 38.597,
   "lng": -75.9232,
   "population": 381,
   "population_proper": 381,
   "density": 367,
   "source": "polygon",
   "incorporated": true,
   "timezone": "America/New_York",
   "zips": "21631"
 },
 {
   "City-State": "Harmony-MD",
   "id": 1840031279,
   "city": "Harmony",
   "city_ascii": "Harmony",
   "state_id": "MD",
   "City-State": "Harmony-MD",
   "state_name": "Maryland",
   "county_fips": 24011,
   "county_name": "Caroline",
   "lat": 38.779,
   "lng": -75.8805,
   "population": null,
   "population_proper": null,
   "density": 74.7,
   "source": "point",
   "incorporated": false,
   "timezone": "America/New_York",
   "zips": "21655"
 },
 {
   "City-State": "Owings-MD",
   "id": 1840006145,
   "city": "Owings",
   "city_ascii": "Owings",
   "state_id": "MD",
   "City-State": "Owings-MD",
   "state_name": "Maryland",
   "county_fips": 24009,
   "county_name": "Calvert",
   "lat": 38.7117,
   "lng": -76.6055,
   "population": null,
   "population_proper": null,
   "density": 147.1,
   "source": "polygon",
   "incorporated": false,
   "timezone": "America/New_York",
   "zips": "20736"
 },
 {
   "City-State": "Ballenger Creek-MD",
   "id": 1840031490,
   "city": "Ballenger Creek",
   "city_ascii": "Ballenger Creek",
   "state_id": "MD",
   "City-State": "Ballenger Creek-MD",
   "state_name": "Maryland",
   "county_fips": 24021,
   "county_name": "Frederick",
   "lat": 39.3807,
   "lng": -77.4206,
   "population": null,
   "population_proper": null,
   "density": 3127.4,
   "source": "polygon",
   "incorporated": false,
   "timezone": "America/New_York",
   "zips": "21704 21703"
 },