[
 {
   "City-State": "Holmesville-NE",
   "id": 1840024304,
   "city": "Holmesville",
   "city_ascii": "Holmesville",
   "state_id": "NE",
   "City-State": "Holmesville-NE",
   "state_name": "Nebraska",
   "county_fips": 31067,
   "county_name": "Gage",
   "lat": 40.2009,
   "lng": -96.6584,
   "population": null,
   "population_proper": null,
   "density": 27.8,
   "source": "polygon",
   "incorporated": false,
   "timezone": "America/Chicago",
   "zips": "68310"
 },
 {
   "City-State": "Bladen-NE",
   "id": 1840012261,
   "city": "Bladen",
   "city_ascii": "Bladen",
   "state_id": "NE",
   "City-State": "Bladen-NE",
   "state_name": "Nebraska",
   "county_fips": 31181,
   "county_name": "Webster",
   "lat": 40.3232,
   "lng": -98.5961,
   "population": 227,
   "population_proper": 227,
   "density": 244,
   "source": "polygon",
   "incorporated": true,
   "timezone": "America/Chicago",
   "zips": "68928"
 },
 {
   "City-State": "Saint Helena-NE",
   "id": 1840011072,
   "city": "Saint Helena",
   "city_ascii": "Saint Helena",
   "state_id": "NE",
   "City-State": "Saint Helena-NE",
   "state_name": "Nebraska",
   "county_fips": 31027,
   "county_name": "Cedar",
   "lat": 42.8106,
   "lng": -97.2488,
   "population": 94,
   "population_proper": 94,
   "density": 81,
   "source": "polygon",
   "incorporated": true,
   "timezone": "America/Chicago",
   "zips": "68774"
 },
 {
   "City-State": "Shelby-NE",
   "id": 1840011655,
   "city": "Shelby",
   "city_ascii": "Shelby",
   "state_id": "NE",
   "City-State": "Shelby-NE",
   "state_name": "Nebraska",
   "county_fips": 31143,
   "county_name": "Polk",
   "lat": 41.1939,
   "lng": -97.4259,
   "population": 688,
   "population_proper": 688,
   "density": 472,
   "source": "polygon",
   "incorporated": true,
   "timezone": "America/Chicago",
   "zips": "68662"
 },
 {
   "City-State": "Brewster-NE",
   "id": 1840010150,
   "city": "Brewster",
   "city_ascii": "Brewster",
   "state_id": "NE",
   "City-State": "Brewster-NE",
   "state_name": "Nebraska",
   "county_fips": 31009,
   "county_name": "Blaine",
   "lat": 41.9384,
   "lng": -99.8651,
   "population": 17,
   "population_proper": 17,
   "density": 74,
   "source": "polygon",
   "incorporated": true,
   "timezone": "America/Chicago",
   "zips": "68821"
 },
 {
   "City-State": "Bushnell-NE",
   "id": 1840010284,
   "city": "Bushnell",
   "city_ascii": "Bushnell",
   "state_id": "NE",
   "City-State": "Bushnell-NE",
   "state_name": "Nebraska",
   "county_fips": 31105,
   "county_name": "Kimball",
   "lat": 41.2328,
   "lng": -103.8911,
   "population": 121,
   "population_proper": 121,
   "density": 204,
   "source": "polygon",
   "incorporated": true,
   "timezone": "America/Denver",
   "zips": "69145 69128"
 },
 {
   "City-State": "Edison-NE",
   "id": 1840012277,
   "city": "Edison",
   "city_ascii": "Edison",
   "state_id": "NE",
   "City-State": "Edison-NE",
   "state_name": "Nebraska",
   "county_fips": 31065,
   "county_name": "Furnas",
   "lat": 40.2776,
   "lng": -99.7762,
   "population": 129,
   "population_proper": 129,
   "density": 187,
   "source": "polygon",
   "incorporated": true,
   "timezone": "America/Chicago",
   "zips": "68936"
 },
 {
   "City-State": "Chadron-NE",
   "id": 1840006893,
   "city": "Chadron",
   "city_ascii": "Chadron",
   "state_id": "NE",
   "City-State": "Chadron-NE",
   "state_name": "Nebraska",
   "county_fips": 31045,
   "county_name": "Dawes",
   "lat": 42.826,
   "lng": -103.0024,
   "population": 5396,
   "population_proper": 5725,
   "density": 569,
   "source": "polygon",
   "incorporated": true,
   "timezone": "America/Denver",
   "zips": "69337"
 },
 {
   "City-State": "Sholes-NE",
   "id": 1840011216,
   "city": "Sholes",
   "city_ascii": "Sholes",
   "state_id": "NE",
   "City-State": "Sholes-NE",
   "state_name": "Nebraska",
   "county_fips": 31179,
   "county_name": "Wayne",
   "lat": 42.3348,
   "lng": -97.2946,
   "population": 20,
   "population_proper": 20,
   "density": 56,
   "source": "polygon",
   "incorporated": true,
   "timezone": "America/Chicago",
   "zips": "68771"
 },
 {
   "City-State": "Wayne-NE",
   "id": 1840010121,
   "city": "Wayne",
   "city_ascii": "Wayne",
   "state_id": "NE",
   "City-State": "Wayne-NE",
   "state_name": "Nebraska",
   "county_fips": 31179,
   "county_name": "Wayne",
   "lat": 42.2371,
   "lng": -97.0158,
   "population": 5472,
   "population_proper": 5573,
   "density": 956,
   "source": "polygon",
   "incorporated": true,
   "timezone": "America/Chicago",
   "zips": "68787"
 },
 {
   "City-State": "Bayard-NE",
   "id": 1840007044,
   "city": "Bayard",
   "city_ascii": "Bayard",
   "state_id": "NE",
   "City-State": "Bayard-NE",
   "state_name": "Nebraska",
   "county_fips": 31123,
   "county_name": "Morrill",
   "lat": 41.7572,
   "lng": -103.323,
   "population": 1134,
   "population_proper": 1134,
   "density": 629,
   "source": "polygon",
   "incorporated": true,
   "timezone": "America/Denver",
   "zips": "69334"
 },
 {
   "City-State": "Dodge-NE",
   "id": 1840011458,
   "city": "Dodge",
   "city_ascii": "Dodge",
   "state_id": "NE",
   "City-State": "Dodge-NE",
   "state_name": "Nebraska",
   "county_fips": 31053,
   "county_name": "Dodge",
   "lat": 41.7218,
   "lng": -96.8804,
   "population": 598,
   "population_proper": 598,
   "density": 584,
   "source": "polygon",
   "incorporated": true,
   "timezone": "America/Chicago",
   "zips": "68633"
 },
 {
   "City-State": "Brainard-NE",
   "id": 1840011622,
   "city": "Brainard",
   "city_ascii": "Brainard",
   "state_id": "NE",
   "City-State": "Brainard-NE",
   "state_name": "Nebraska",
   "county_fips": 31023,
   "county_name": "Butler",
   "lat": 41.1819,
   "lng": -97.0021,
   "population": 320,
   "population_proper": 320,
   "density": 373,
   "source": "polygon",
   "incorporated": true,
   "timezone": "America/Chicago",
   "zips": "68626"
 },
 {
   "City-State": "Oakdale-NE",
   "id": 1840011190,
   "city": "Oakdale",
   "city_ascii": "Oakdale",
   "state_id": "NE",
   "City-State": "Oakdale-NE",
   "state_name": "Nebraska",
   "county_fips": 31003,
   "county_name": "Antelope",
   "lat": 42.0701,
   "lng": -97.9671,
   "population": 294,
   "population_proper": 294,
   "density": 218,
   "source": "polygon",
   "incorporated": true,
   "timezone": "America/Chicago",
   "zips": "68761"
 },
 {
   "City-State": "Ralston-NE",
   "id": 1840009316,
   "city": "Ralston",
   "city_ascii": "Ralston",
   "state_id": "NE",
   "City-State": "Ralston-NE",
   "state_name": "Nebraska",
   "county_fips": 31055,
   "county_name": "Douglas",
   "lat": 41.2005,
   "lng": -96.0354,
   "population": 7329,
   "population_proper": 7329,
   "density": 1718,
   "source": "polygon",
   "incorporated": true,
   "timezone": "America/Chicago",
   "zips": "68127"
 },
 {
   "City-State": "Fremont-NE",
   "id": 1840003346,
   "city": "Fremont",
   "city_ascii": "Fremont",
   "state_id": "NE",
   "City-State": "Fremont-NE",
   "state_name": "Nebraska",
   "county_fips": 31053,
   "county_name": "Dodge",
   "lat": 41.4418,
   "lng": -96.4887,
   "population": 27598,
   "population_proper": 26519,
   "density": 1069,
   "source": "polygon",
   "incorporated": true,
   "timezone": "America/Chicago",
   "zips": "68025 68026"
 },
 {
   "City-State": "Staplehurst-NE",
   "id": 1840011842,
   "city": "Staplehurst",
   "city_ascii": "Staplehurst",
   "state_id": "NE",
   "City-State": "Staplehurst-NE",
   "state_name": "Nebraska",
   "county_fips": 31159,
   "county_name": "Seward",
   "lat": 40.9746,
   "lng": -97.1732,
   "population": 242,
   "population_proper": 242,
   "density": 748,
   "source": "polygon",
   "incorporated": true,
   "timezone": "America/Chicago",
   "zips": "68439"
 },
 {
   "City-State": "Western-NE",
   "id": 1840012059,
   "city": "Western",
   "city_ascii": "Western",
   "state_id": "NE",
   "City-State": "Western-NE",
   "state_name": "Nebraska",
   "county_fips": 31151,
   "county_name": "Saline",
   "lat": 40.3931,
   "lng": -97.1984,
   "population": 237,
   "population_proper": 237,
   "density": 188,
   "source": "polygon",
   "incorporated": true,
   "timezone": "America/Chicago",
   "zips": "68464"
 },
 {
   "City-State": "Burr-NE",
   "id": 1840010374,
   "city": "Burr",
   "city_ascii": "Burr",
   "state_id": "NE",
   "City-State": "Burr-NE",
   "state_name": "Nebraska",
   "county_fips": 31131,
   "county_name": "Otoe",
   "lat": 40.536,
   "lng": -96.2997,
   "population": 58,
   "population_proper": 58,
   "density": 261,
   "source": "polygon",
   "incorporated": true,
   "timezone": "America/Chicago",
   "zips": "68324"
 },
 {
   "City-State": "Shelton-NE",
   "id": 1840011835,
   "city": "Shelton",
   "city_ascii": "Shelton",
   "state_id": "NE",
   "City-State": "Shelton-NE",
   "state_name": "Nebraska",
   "county_fips": 31019,
   "county_name": "Buffalo",
   "lat": 40.7788,
   "lng": -98.7306,
   "population": 1067,
   "population_proper": 1067,
   "density": 562,
   "source": "polygon",
   "incorporated": true,
   "timezone": "America/Chicago",
   "zips": "68876"
 },
 {
   "City-State": "Atlanta-NE",
   "id": 1840012075,
   "city": "Atlanta",
   "city_ascii": "Atlanta",
   "state_id": "NE",
   "City-State": "Atlanta-NE",
   "state_name": "Nebraska",
   "county_fips": 31137,
   "county_name": "Phelps",
   "lat": 40.3685,
   "lng": -99.4731,
   "population": 131,
   "population_proper": 131,
   "density": 218,
   "source": "polygon",
   "incorporated": true,
   "timezone": "America/Chicago",
   "zips": "68923"
 },
 {
   "City-State": "McCool Junction-NE",
   "id": 1840011823,
   "city": "McCool Junction",
   "city_ascii": "McCool Junction",
   "state_id": "NE",
   "City-State": "McCool Junction-NE",
   "state_name": "Nebraska",
   "county_fips": 31185,
   "county_name": "York",
   "lat": 40.744,
   "lng": -97.6004,
   "population": 410,
   "population_proper": 410,
   "density": 338,
   "source": "polygon",
   "incorporated": true,
   "timezone": "America/Chicago",
   "zips": "68401"
 },
 {
   "City-State": "Uehling-NE",
   "id": 1840011462,
   "city": "Uehling",
   "city_ascii": "Uehling",
   "state_id": "NE",
   "City-State": "Uehling-NE",
   "state_name": "Nebraska",
   "county_fips": 31053,
   "county_name": "Dodge",
   "lat": 41.7346,
   "lng": -96.5057,
   "population": 228,
   "population_proper": 228,
   "density": 393,
   "source": "polygon",
   "incorporated": true,
   "timezone": "America/Chicago",
   "zips": "68063"
 },
 {
   "City-State": "North Bend-NE",
   "id": 1840000566,
   "city": "North Bend",
   "city_ascii": "North Bend",
   "state_id": "NE",
   "City-State": "North Bend-NE",
   "state_name": "Nebraska",
   "county_fips": 31053,
   "county_name": "Dodge",
   "lat": 41.4648,
   "lng": -96.783,
   "population": 1238,
   "population_proper": 1238,
   "density": 606,
   "source": "polygon",
   "incorporated": true,
   "timezone": "America/Chicago",
   "zips": "68649"
 },
 {
   "City-State": "Angus-NE",
   "id": 1840033131,
   "city": "Angus",
   "city_ascii": "Angus",
   "state_id": "NE",
   "City-State": "Angus-NE",
   "state_name": "Nebraska",
   "county_fips": 31129,
   "county_name": "Nuckolls",
   "lat": 40.2822,
   "lng": -97.9795,
   "population": null,
   "population_proper": null,
   "density": 3.3,
   "source": "point",
   "incorporated": false,
   "timezone": "America/Chicago",
   "zips": "68961"
 },
 {
   "City-State": "Howells-NE",
   "id": 1840011447,
   "city": "Howells",
   "city_ascii": "Howells",
   "state_id": "NE",
   "City-State": "Howells-NE",
   "state_name": "Nebraska",
   "county_fips": 31037,
   "county_name": "Colfax",
   "lat": 41.7241,
   "lng": -97.0043,
   "population": 547,
   "population_proper": 547,
   "density": 366,
   "source": "polygon",
   "incorporated": true,
   "timezone": "America/Chicago",
   "zips": "68641"
 },
 {
   "City-State": "Vesta-NE",
   "id": 1840033179,
   "city": "Vesta",
   "city_ascii": "Vesta",
   "state_id": "NE",
   "City-State": "Vesta-NE",
   "state_name": "Nebraska",
   "county_fips": 31097,
   "county_name": "Johnson",
   "lat": 40.3564,
   "lng": -96.3375,
   "population": null,
   "population_proper": null,
   "density": 20.7,
   "source": "point",
   "incorporated": false,
   "timezone": "America/Chicago",
   "zips": "68450"
 },
 {
   "City-State": "Henry-NE",
   "id": 1840011392,
   "city": "Henry",
   "city_ascii": "Henry",
   "state_id": "NE",
   "City-State": "Henry-NE",
   "state_name": "Nebraska",
   "county_fips": 31157,
   "county_name": "Scotts Bluff",
   "lat": 41.9979,
   "lng": -104.0461,
   "population": 105,
   "population_proper": 105,
   "density": 138,
   "source": "polygon",
   "incorporated": true,
   "timezone": "America/Denver",
   "zips": "69358"
 },
 {
   "City-State": "Whiteclay-NE",
   "id": 1840033182,
   "city": "Whiteclay",
   "city_ascii": "Whiteclay",
   "state_id": "NE",
   "City-State": "Whiteclay-NE",
   "state_name": "Nebraska",
   "county_fips": 31161,
   "county_name": "Sheridan",
   "lat": 42.9969,
   "lng": -102.555,
   "population": null,
   "population_proper": null,
   "density": 17.2,
   "source": "polygon",
   "incorporated": false,
   "timezone": "America/Denver",
   "zips": "69365"
 },
 {
   "City-State": "Ceresco-NE",
   "id": 1840010274,
   "city": "Ceresco",
   "city_ascii": "Ceresco",
   "state_id": "NE",
   "City-State": "Ceresco-NE",
   "state_name": "Nebraska",
   "county_fips": 31155,
   "county_name": "Saunders",
   "lat": 41.058,
   "lng": -96.6459,
   "population": 889,
   "population_proper": 889,
   "density": 811,
   "source": "polygon",
   "incorporated": true,
   "timezone": "America/Chicago",
   "zips": "68017"
 },
 {
   "City-State": "Kearney-NE",
   "id": 1840000957,
   "city": "Kearney",
   "city_ascii": "Kearney",
   "state_id": "NE",
   "City-State": "Kearney-NE",
   "state_name": "Nebraska",
   "county_fips": 31019,
   "county_name": "Buffalo",
   "lat": 40.7008,
   "lng": -99.0839,
   "population": 34065,
   "population_proper": 33520,
   "density": 983,
   "source": "polygon",
   "incorporated": true,
   "timezone": "America/Chicago",
   "zips": "68847 68845 68849 68848"
 },
 {
   "City-State": "Hildreth-NE",
   "id": 1840012265,
   "city": "Hildreth",
   "city_ascii": "Hildreth",
   "state_id": "NE",
   "City-State": "Hildreth-NE",
   "state_name": "Nebraska",
   "county_fips": 31061,
   "county_name": "Franklin",
   "lat": 40.3378,
   "lng": -99.0458,
   "population": 344,
   "population_proper": 344,
   "density": 232,
   "source": "polygon",
   "incorporated": true,
   "timezone": "America/Chicago",
   "zips": "68947"
 },
 {
   "City-State": "Exeter-NE",
   "id": 1840012049,
   "city": "Exeter",
   "city_ascii": "Exeter",
   "state_id": "NE",
   "City-State": "Exeter-NE",
   "state_name": "Nebraska",
   "county_fips": 31059,
   "county_name": "Fillmore",
   "lat": 40.6445,
   "lng": -97.4492,
   "population": 544,
   "population_proper": 544,
   "density": 331,
   "source": "polygon",
   "incorporated": true,
   "timezone": "America/Chicago",
   "zips": "68351"
 },
 {
   "City-State": "Kimball-NE",
   "id": 1840008252,
   "city": "Kimball",
   "city_ascii": "Kimball",
   "state_id": "NE",
   "City-State": "Kimball-NE",
   "state_name": "Nebraska",
   "county_fips": 31105,
   "county_name": "Kimball",
   "lat": 41.2336,
   "lng": -103.6512,
   "population": 2400,
   "population_proper": 2400,
   "density": 447,
   "source": "polygon",
   "incorporated": true,
   "timezone": "America/Denver",
   "zips": "69145"
 },
 {
   "City-State": "Ulysses-NE",
   "id": 1840011629,
   "city": "Ulysses",
   "city_ascii": "Ulysses",
   "state_id": "NE",
   "City-State": "Ulysses-NE",
   "state_name": "Nebraska",
   "county_fips": 31023,
   "county_name": "Butler",
   "lat": 41.0722,
   "lng": -97.2029,
   "population": 164,
   "population_proper": 164,
   "density": 314,
   "source": "polygon",
   "incorporated": true,
   "timezone": "America/Chicago",
   "zips": "68669"
 },
 {
   "City-State": "Diller-NE",
   "id": 1840012287,
   "city": "Diller",
   "city_ascii": "Diller",
   "state_id": "NE",
   "City-State": "Diller-NE",
   "state_name": "Nebraska",
   "county_fips": 31095,
   "county_name": "Jefferson",
   "lat": 40.1089,
   "lng": -96.9374,
   "population": 256,
   "population_proper": 256,
   "density": 236,
   "source": "polygon",
   "incorporated": true,
   "timezone": "America/Chicago",
   "zips": "68342"
 },
 {
   "City-State": "Plattsmouth-NE",
   "id": 1840009355,
   "city": "Plattsmouth",
   "city_ascii": "Plattsmouth",
   "state_id": "NE",
   "City-State": "Plattsmouth-NE",
   "state_name": "Nebraska",
   "county_fips": 31025,
   "county_name": "Cass",
   "lat": 41.0053,
   "lng": -95.8943,
   "population": 6573,
   "population_proper": 6479,
   "density": 805,
   "source": "polygon",
   "incorporated": true,
   "timezone": "America/Chicago",
   "zips": "68048"
 },
 {
   "City-State": "Paul-NE",
   "id": 1840033166,
   "city": "Paul",
   "city_ascii": "Paul",
   "state_id": "NE",
   "City-State": "Paul-NE",
   "state_name": "Nebraska",
   "county_fips": 31131,
   "county_name": "Otoe",
   "lat": 40.5953,
   "lng": -95.8967,
   "population": null,
   "population_proper": null,
   "density": 6.9,
   "source": "point",
   "incorporated": false,
   "timezone": "America/Chicago",
   "zips": "68410"
 },
 {
   "City-State": "Walthill-NE",
   "id": 1840011222,
   "city": "Walthill",
   "city_ascii": "Walthill",
   "state_id": "NE",
   "City-State": "Walthill-NE",
   "state_name": "Nebraska",
   "county_fips": 31173,
   "county_name": "Thurston",
   "lat": 42.1489,
   "lng": -96.4929,
   "population": 784,
   "population_proper": 784,
   "density": 707,
   "source": "polygon",
   "incorporated": true,
   "timezone": "America/Chicago",
   "zips": "68067"
 },
 {
   "City-State": "Grand Island-NE",
   "id": 1840000956,
   "city": "Grand Island",
   "city_ascii": "Grand Island",
   "state_id": "NE",
   "City-State": "Grand Island-NE",
   "state_name": "Nebraska",
   "county_fips": 31079,
   "county_name": "Hall",
   "lat": 40.9214,
   "lng": -98.3585,
   "population": 53556,
   "population_proper": 51517,
   "density": 670,
   "source": "polygon",
   "incorporated": true,
   "timezone": "America/Chicago",
   "zips": "68803 68801 68802"
 },
 {
   "City-State": "Waco-NE",
   "id": 1840011825,
   "city": "Waco",
   "city_ascii": "Waco",
   "state_id": "NE",
   "City-State": "Waco-NE",
   "state_name": "Nebraska",
   "county_fips": 31185,
   "county_name": "York",
   "lat": 40.8969,
   "lng": -97.4615,
   "population": 243,
   "population_proper": 243,
   "density": 410,
   "source": "polygon",
   "incorporated": true,
   "timezone": "America/Chicago",
   "zips": "68460"
 },
 {
   "City-State": "Clatonia-NE",
   "id": 1840010435,
   "city": "Clatonia",
   "city_ascii": "Clatonia",
   "state_id": "NE",
   "City-State": "Clatonia-NE",
   "state_name": "Nebraska",
   "county_fips": 31067,
   "county_name": "Gage",
   "lat": 40.4652,
   "lng": -96.8512,
   "population": 226,
   "population_proper": 226,
   "density": 314,
   "source": "polygon",
   "incorporated": true,
   "timezone": "America/Chicago",
   "zips": "68328"
 },
 {
   "City-State": "Lushton-NE",
   "id": 1840011822,
   "city": "Lushton",
   "city_ascii": "Lushton",
   "state_id": "NE",
   "City-State": "Lushton-NE",
   "state_name": "Nebraska",
   "county_fips": 31185,
   "county_name": "York",
   "lat": 40.724,
   "lng": -97.7237,
   "population": 30,
   "population_proper": 30,
   "density": 81,
   "source": "polygon",
   "incorporated": true,
   "timezone": "America/Chicago",
   "zips": "68371"
 },
 {
   "City-State": "Morse Bluff-NE",
   "id": 1840011637,
   "city": "Morse Bluff",
   "city_ascii": "Morse Bluff",
   "state_id": "NE",
   "City-State": "Morse Bluff-NE",
   "state_name": "Nebraska",
   "county_fips": 31155,
   "county_name": "Saunders",
   "lat": 41.431,
   "lng": -96.7665,
   "population": 137,
   "population_proper": 137,
   "density": 298,
   "source": "polygon",
   "incorporated": true,
   "timezone": "America/Chicago",
   "zips": "68648"
 },
 {
   "City-State": "Culbertson-NE",
   "id": 1840012295,
   "city": "Culbertson",
   "city_ascii": "Culbertson",
   "state_id": "NE",
   "City-State": "Culbertson-NE",
   "state_name": "Nebraska",
   "county_fips": 31087,
   "county_name": "Hitchcock",
   "lat": 40.2284,
   "lng": -100.8351,
   "population": 578,
   "population_proper": 578,
   "density": 266,
   "source": "polygon",
   "incorporated": true,
   "timezone": "America/Chicago",
   "zips": "69024"
 },
 {
   "City-State": "Lamar-NE",
   "id": 1840012046,
   "city": "Lamar",
   "city_ascii": "Lamar",
   "state_id": "NE",
   "City-State": "Lamar-NE",
   "state_name": "Nebraska",
   "county_fips": 31029,
   "county_name": "Chase",
   "lat": 40.5725,
   "lng": -101.9793,
   "population": 23,
   "population_proper": 23,
   "density": 112,
   "source": "polygon",
   "incorporated": true,
   "timezone": "America/Denver",
   "zips": "69023"
 },
 {
   "City-State": "Minatare-NE",
   "id": 1840008140,
   "city": "Minatare",
   "city_ascii": "Minatare",
   "state_id": "NE",
   "City-State": "Minatare-NE",
   "state_name": "Nebraska",
   "county_fips": 31157,
   "county_name": "Scotts Bluff",
   "lat": 41.8113,
   "lng": -103.5021,
   "population": 802,
   "population_proper": 802,
   "density": 814,
   "source": "polygon",
   "incorporated": true,
   "timezone": "America/Denver",
   "zips": "69356"
 },
 {
   "City-State": "Champion-NE",
   "id": 1840024286,
   "city": "Champion",
   "city_ascii": "Champion",
   "state_id": "NE",
   "City-State": "Champion-NE",
   "state_name": "Nebraska",
   "county_fips": 31029,
   "county_name": "Chase",
   "lat": 40.4706,
   "lng": -101.7469,
   "population": null,
   "population_proper": null,
   "density": 136.1,
   "source": "polygon",
   "incorporated": false,
   "timezone": "America/Denver",
   "zips": "69023"
 },
 {
   "City-State": "Callaway-NE",
   "id": 1840010209,
   "city": "Callaway",
   "city_ascii": "Callaway",
   "state_id": "NE",
   "City-State": "Callaway-NE",
   "state_name": "Nebraska",
   "county_fips": 31041,
   "county_name": "Custer",
   "lat": 41.2915,
   "lng": -99.9203,
   "population": 529,
   "population_proper": 529,
   "density": 292,
   "source": "polygon",
   "incorporated": true,
   "timezone": "America/Chicago",
   "zips": "68825"
 },
 {
   "City-State": "Butte-NE",
   "id": 1840010078,
   "city": "Butte",
   "city_ascii": "Butte",
   "state_id": "NE",
   "City-State": "Butte-NE",
   "state_name": "Nebraska",
   "county_fips": 31015,
   "county_name": "Boyd",
   "lat": 42.9124,
   "lng": -98.848,
   "population": 308,
   "population_proper": 308,
   "density": 284,
   "source": "polygon",
   "incorporated": true,
   "timezone": "America/Chicago",
   "zips": "68722"
 },
 {
   "City-State": "Ord-NE",
   "id": 1840009254,
   "city": "Ord",
   "city_ascii": "Ord",
   "state_id": "NE",
   "City-State": "Ord-NE",
   "state_name": "Nebraska",
   "county_fips": 31175,
   "county_name": "Valley",
   "lat": 41.5991,
   "lng": -98.9151,
   "population": 2078,
   "population_proper": 2078,
   "density": 401,
   "source": "polygon",
   "incorporated": true,
   "timezone": "America/Chicago",
   "zips": "68862"
 },
 {
   "City-State": "Anselmo-NE",
   "id": 1840010210,
   "city": "Anselmo",
   "city_ascii": "Anselmo",
   "state_id": "NE",
   "City-State": "Anselmo-NE",
   "state_name": "Nebraska",
   "county_fips": 31041,
   "county_name": "Custer",
   "lat": 41.6186,
   "lng": -99.8645,
   "population": 143,
   "population_proper": 143,
   "density": 207,
   "source": "polygon",
   "incorporated": true,
   "timezone": "America/Chicago",
   "zips": "68813"
 },
 {
   "City-State": "Huntley-NE",
   "id": 1840012299,
   "city": "Huntley",
   "city_ascii": "Huntley",
   "state_id": "NE",
   "City-State": "Huntley-NE",
   "state_name": "Nebraska",
   "county_fips": 31083,
   "county_name": "Harlan",
   "lat": 40.2105,
   "lng": -99.2905,
   "population": 44,
   "population_proper": 44,
   "density": 48,
   "source": "polygon",
   "incorporated": true,
   "timezone": "America/Chicago",
   "zips": "68971"
 },
 {
   "City-State": "Weeping Water-NE",
   "id": 1840010325,
   "city": "Weeping Water",
   "city_ascii": "Weeping Water",
   "state_id": "NE",
   "City-State": "Weeping Water-NE",
   "state_name": "Nebraska",
   "county_fips": 31025,
   "county_name": "Cass",
   "lat": 40.8691,
   "lng": -96.14,
   "population": 1072,
   "population_proper": 1072,
   "density": 427,
   "source": "polygon",
   "incorporated": true,
   "timezone": "America/Chicago",
   "zips": "68463"
 },
 {
   "City-State": "Arthur-NE",
   "id": 1840011463,
   "city": "Arthur",
   "city_ascii": "Arthur",
   "state_id": "NE",
   "City-State": "Arthur-NE",
   "state_name": "Nebraska",
   "county_fips": 31005,
   "county_name": "Arthur",
   "lat": 41.5718,
   "lng": -101.6923,
   "population": 119,
   "population_proper": 119,
   "density": 148,
   "source": "polygon",
   "incorporated": true,
   "timezone": "America/Denver",
   "zips": "69121"
 },
 {
   "City-State": "Archer-NE",
   "id": 1840024167,
   "city": "Archer",
   "city_ascii": "Archer",
   "state_id": "NE",
   "City-State": "Archer-NE",
   "state_name": "Nebraska",
   "county_fips": 31121,
   "county_name": "Merrick",
   "lat": 41.1666,
   "lng": -98.1389,
   "population": null,
   "population_proper": null,
   "density": 77.7,
   "source": "polygon",
   "incorporated": false,
   "timezone": "America/Chicago",
   "zips": "68816"
 },
 {
   "City-State": "Spencer-NE",
   "id": 1840011036,
   "city": "Spencer",
   "city_ascii": "Spencer",
   "state_id": "NE",
   "City-State": "Spencer-NE",
   "state_name": "Nebraska",
   "county_fips": 31015,
   "county_name": "Boyd",
   "lat": 42.875,
   "lng": -98.7002,
   "population": 426,
   "population_proper": 426,
   "density": 315,
   "source": "polygon",
   "incorporated": true,
   "timezone": "America/Chicago",
   "zips": "68777"
 },
 {
   "City-State": "McGrew-NE",
   "id": 1840011394,
   "city": "McGrew",
   "city_ascii": "McGrew",
   "state_id": "NE",
   "City-State": "McGrew-NE",
   "state_name": "Nebraska",
   "county_fips": 31157,
   "county_name": "Scotts Bluff",
   "lat": 41.7478,
   "lng": -103.4178,
   "population": 104,
   "population_proper": 104,
   "density": 111,
   "source": "polygon",
   "incorporated": true,
   "timezone": "America/Denver",
   "zips": "69334 69353"
 },
 {
   "City-State": "Lyons-NE",
   "id": 1840009193,
   "city": "Lyons",
   "city_ascii": "Lyons",
   "state_id": "NE",
   "City-State": "Lyons-NE",
   "state_name": "Nebraska",
   "county_fips": 31021,
   "county_name": "Burt",
   "lat": 41.936,
   "lng": -96.4717,
   "population": 814,
   "population_proper": 814,
   "density": 460,
   "source": "polygon",
   "incorporated": true,
   "timezone": "America/Chicago",
   "zips": "68038"
 },
 {
   "City-State": "Haig-NE",
   "id": 1840033148,
   "city": "Haig",
   "city_ascii": "Haig",
   "state_id": "NE",
   "City-State": "Haig-NE",
   "state_name": "Nebraska",
   "county_fips": 31157,
   "county_name": "Scotts Bluff",
   "lat": 41.8794,
   "lng": -103.7591,
   "population": null,
   "population_proper": null,
   "density": 15.5,
   "source": "point",
   "incorporated": false,
   "timezone": "America/Denver",
   "zips": "69357"
 },
 {
   "City-State": "Beatrice-NE",
   "id": 1840001352,
   "city": "Beatrice",
   "city_ascii": "Beatrice",
   "state_id": "NE",
   "City-State": "Beatrice-NE",
   "state_name": "Nebraska",
   "county_fips": 31067,
   "county_name": "Gage",
   "lat": 40.2738,
   "lng": -96.7455,
   "population": 12308,
   "population_proper": 12362,
   "density": 519,
   "source": "polygon",
   "incorporated": true,
   "timezone": "America/Chicago",
   "zips": "68310"
 },
 {
   "City-State": "Hardy-NE",
   "id": 1840012269,
   "city": "Hardy",
   "city_ascii": "Hardy",
   "state_id": "NE",
   "City-State": "Hardy-NE",
   "state_name": "Nebraska",
   "county_fips": 31129,
   "county_name": "Nuckolls",
   "lat": 40.0113,
   "lng": -97.9238,
   "population": 152,
   "population_proper": 152,
   "density": 96,
   "source": "polygon",
   "incorporated": true,
   "timezone": "America/Chicago",
   "zips": "68943"
 },
 {
   "City-State": "Eddyville-NE",
   "id": 1840011827,
   "city": "Eddyville",
   "city_ascii": "Eddyville",
   "state_id": "NE",
   "City-State": "Eddyville-NE",
   "state_name": "Nebraska",
   "county_fips": 31047,
   "county_name": "Dawson",
   "lat": 41.0122,
   "lng": -99.624,
   "population": 93,
   "population_proper": 93,
   "density": 130,
   "source": "polygon",
   "incorporated": true,
   "timezone": "America/Chicago",
   "zips": "68834"
 },
 {
   "City-State": "Wood Lake-NE",
   "id": 1840011043,
   "city": "Wood Lake",
   "city_ascii": "Wood Lake",
   "state_id": "NE",
   "City-State": "Wood Lake-NE",
   "state_name": "Nebraska",
   "county_fips": 31031,
   "county_name": "Cherry",
   "lat": 42.6386,
   "lng": -100.2376,
   "population": 65,
   "population_proper": 65,
   "density": 79,
   "source": "polygon",
   "incorporated": true,
   "timezone": "America/Chicago",
   "zips": "69221"
 },
 {
   "City-State": "Arabia-NE",
   "id": 1840033187,
   "city": "Arabia",
   "city_ascii": "Arabia",
   "state_id": "NE",
   "City-State": "Arabia-NE",
   "state_name": "Nebraska",
   "county_fips": 31031,
   "county_name": "Cherry",
   "lat": 42.7311,
   "lng": -100.3726,
   "population": null,
   "population_proper": null,
   "density": 1.8,
   "source": "point",
   "incorporated": false,
   "timezone": "America/Chicago",
   "zips": "69221"
 },
 {
   "City-State": "Marquette-NE",
   "id": 1840011735,
   "city": "Marquette",
   "city_ascii": "Marquette",
   "state_id": "NE",
   "City-State": "Marquette-NE",
   "state_name": "Nebraska",
   "county_fips": 31081,
   "county_name": "Hamilton",
   "lat": 41.0063,
   "lng": -98.0098,
   "population": 232,
   "population_proper": 232,
   "density": 432,
   "source": "polygon",
   "incorporated": true,
   "timezone": "America/Chicago",
   "zips": "68854"
 },
 {
   "City-State": "Pawnee City-NE",
   "id": 1840009454,
   "city": "Pawnee City",
   "city_ascii": "Pawnee City",
   "state_id": "NE",
   "City-State": "Pawnee City-NE",
   "state_name": "Nebraska",
   "county_fips": 31133,
   "county_name": "Pawnee",
   "lat": 40.1106,
   "lng": -96.1529,
   "population": 826,
   "population_proper": 826,
   "density": 264,
   "source": "polygon",
   "incorporated": true,
   "timezone": "America/Chicago",
   "zips": "68420"
 },
 {
   "City-State": "Elsie-NE",
   "id": 1840011869,
   "city": "Elsie",
   "city_ascii": "Elsie",
   "state_id": "NE",
   "City-State": "Elsie-NE",
   "state_name": "Nebraska",
   "county_fips": 31135,
   "county_name": "Perkins",
   "lat": 40.8471,
   "lng": -101.389,
   "population": 104,
   "population_proper": 104,
   "density": 232,
   "source": "polygon",
   "incorporated": true,
   "timezone": "America/Denver",
   "zips": "69134"
 },
 {
   "City-State": "Orleans-NE",
   "id": 1840012302,
   "city": "Orleans",
   "city_ascii": "Orleans",
   "state_id": "NE",
   "City-State": "Orleans-NE",
   "state_name": "Nebraska",
   "county_fips": 31083,
   "county_name": "Harlan",
   "lat": 40.1318,
   "lng": -99.455,
   "population": 385,
   "population_proper": 385,
   "density": 247,
   "source": "polygon",
   "incorporated": true,
   "timezone": "America/Chicago",
   "zips": "68966"
 },
 {
   "City-State": "Deshler-NE",
   "id": 1840007251,
   "city": "Deshler",
   "city_ascii": "Deshler",
   "state_id": "NE",
   "City-State": "Deshler-NE",
   "state_name": "Nebraska",
   "county_fips": 31169,
   "county_name": "Thayer",
   "lat": 40.1396,
   "lng": -97.7233,
   "population": 744,
   "population_proper": 744,
   "density": 565,
   "source": "polygon",
   "incorporated": true,
   "timezone": "America/Chicago",
   "zips": "68340"
 },
 {
   "City-State": "Waterbury-NE",
   "id": 1840011100,
   "city": "Waterbury",
   "city_ascii": "Waterbury",
   "state_id": "NE",
   "City-State": "Waterbury-NE",
   "state_name": "Nebraska",
   "county_fips": 31051,
   "county_name": "Dixon",
   "lat": 42.4571,
   "lng": -96.7353,
   "population": 70,
   "population_proper": 70,
   "density": 195,
   "source": "polygon",
   "incorporated": true,
   "timezone": "America/Chicago",
   "zips": "68785"
 },
 {
   "City-State": "Lodgepole-NE",
   "id": 1840011641,
   "city": "Lodgepole",
   "city_ascii": "Lodgepole",
   "state_id": "NE",
   "City-State": "Lodgepole-NE",
   "state_name": "Nebraska",
   "county_fips": 31033,
   "county_name": "Cheyenne",
   "lat": 41.149,
   "lng": -102.6391,
   "population": 313,
   "population_proper": 313,
   "density": 253,
   "source": "polygon",
   "incorporated": true,
   "timezone": "America/Denver",
   "zips": "69149"
 },
 {
   "City-State": "Inavale-NE",
   "id": 1840024325,
   "city": "Inavale",
   "city_ascii": "Inavale",
   "state_id": "NE",
   "City-State": "Inavale-NE",
   "state_name": "Nebraska",
   "county_fips": 31181,
   "county_name": "Webster",
   "lat": 40.0923,
   "lng": -98.6484,
   "population": null,
   "population_proper": null,
   "density": 41,
   "source": "polygon",
   "incorporated": false,
   "timezone": "America/Chicago",
   "zips": "68952"
 },
 {
   "City-State": "Rising City-NE",
   "id": 1840011626,
   "city": "Rising City",
   "city_ascii": "Rising City",
   "state_id": "NE",
   "City-State": "Rising City-NE",
   "state_name": "Nebraska",
   "county_fips": 31023,
   "county_name": "Butler",
   "lat": 41.1983,
   "lng": -97.2974,
   "population": 358,
   "population_proper": 358,
   "density": 381,
   "source": "polygon",
   "incorporated": true,
   "timezone": "America/Chicago",
   "zips": "68658"
 },
 {
   "City-State": "Saronville-NE",
   "id": 1840012062,
   "city": "Saronville",
   "city_ascii": "Saronville",
   "state_id": "NE",
   "City-State": "Saronville-NE",
   "state_name": "Nebraska",
   "county_fips": 31035,
   "county_name": "Clay",
   "lat": 40.603,
   "lng": -97.9387,
   "population": 45,
   "population_proper": 45,
   "density": 116,
   "source": "polygon",
   "incorporated": true,
   "timezone": "America/Chicago",
   "zips": "68975"
 },
 {
   "City-State": "Louisville-NE",
   "id": 1840009354,
   "city": "Louisville",
   "city_ascii": "Louisville",
   "state_id": "NE",
   "City-State": "Louisville-NE",
   "state_name": "Nebraska",
   "county_fips": 31025,
   "county_name": "Cass",
   "lat": 40.9973,
   "lng": -96.1606,
   "population": 1224,
   "population_proper": 1224,
   "density": 833,
   "source": "polygon",
   "incorporated": true,
   "timezone": "America/Chicago",
   "zips": "68037"
 },
 {
   "City-State": "McCook-NE",
   "id": 1840008369,
   "city": "McCook",
   "city_ascii": "McCook",
   "state_id": "NE",
   "City-State": "McCook-NE",
   "state_name": "Nebraska",
   "county_fips": 31145,
   "county_name": "Red Willow",
   "lat": 40.2046,
   "lng": -100.6214,
   "population": 7393,
   "population_proper": 7526,
   "density": 538,
   "source": "polygon",
   "incorporated": true,
   "timezone": "America/Chicago",
   "zips": "69001"
 },
 {
   "City-State": "Elba-NE",
   "id": 1840011663,
   "city": "Elba",
   "city_ascii": "Elba",
   "state_id": "NE",
   "City-State": "Elba-NE",
   "state_name": "Nebraska",
   "county_fips": 31093,
   "county_name": "Howard",
   "lat": 41.2853,
   "lng": -98.5693,
   "population": 220,
   "population_proper": 220,
   "density": 231,
   "source": "polygon",
   "incorporated": true,
   "timezone": "America/Chicago",
   "zips": "68835"
 },
 {
   "City-State": "Malmo-NE",
   "id": 1840011634,
   "city": "Malmo",
   "city_ascii": "Malmo",
   "state_id": "NE",
   "City-State": "Malmo-NE",
   "state_name": "Nebraska",
   "county_fips": 31155,
   "county_name": "Saunders",
   "lat": 41.2664,
   "lng": -96.7209,
   "population": 118,
   "population_proper": 118,
   "density": 334,
   "source": "polygon",
   "incorporated": true,
   "timezone": "America/Chicago",
   "zips": "68040"
 },
 {
   "City-State": "Clarks-NE",
   "id": 1840010286,
   "city": "Clarks",
   "city_ascii": "Clarks",
   "state_id": "NE",
   "City-State": "Clarks-NE",
   "state_name": "Nebraska",
   "county_fips": 31121,
   "county_name": "Merrick",
   "lat": 41.2164,
   "lng": -97.8396,
   "population": 353,
   "population_proper": 353,
   "density": 434,
   "source": "polygon",
   "incorporated": true,
   "timezone": "America/Chicago",
   "zips": "68628"
 },
 {
   "City-State": "Columbus-NE",
   "id": 1840003345,
   "city": "Columbus",
   "city_ascii": "Columbus",
   "state_id": "NE",
   "City-State": "Columbus-NE",
   "state_name": "Nebraska",
   "county_fips": 31141,
   "county_name": "Platte",
   "lat": 41.436,
   "lng": -97.3559,
   "population": 22846,
   "population_proper": 22851,
   "density": 871,
   "source": "polygon",
   "incorporated": true,
   "timezone": "America/Chicago",
   "zips": "68601 68602"
 },
 {
   "City-State": "Danbury-NE",
   "id": 1840012294,
   "city": "Danbury",
   "city_ascii": "Danbury",
   "state_id": "NE",
   "City-State": "Danbury-NE",
   "state_name": "Nebraska",
   "county_fips": 31145,
   "county_name": "Red Willow",
   "lat": 40.0377,
   "lng": -100.4051,
   "population": 97,
   "population_proper": 97,
   "density": 115,
   "source": "polygon",
   "incorporated": true,
   "timezone": "America/Chicago",
   "zips": "69026"
 },
 {
   "City-State": "South Bend-NE",
   "id": 1840011817,
   "city": "South Bend",
   "city_ascii": "South Bend",
   "state_id": "NE",
   "City-State": "South Bend-NE",
   "state_name": "Nebraska",
   "county_fips": 31025,
   "county_name": "Cass",
   "lat": 41.0021,
   "lng": -96.2474,
   "population": 99,
   "population_proper": 99,
   "density": 285,
   "source": "polygon",
   "incorporated": true,
   "timezone": "America/Chicago",
   "zips": "68058"
 },
 {
   "City-State": "Tobias-NE",
   "id": 1840012058,
   "city": "Tobias",
   "city_ascii": "Tobias",
   "state_id": "NE",
   "City-State": "Tobias-NE",
   "state_name": "Nebraska",
   "county_fips": 31151,
   "county_name": "Saline",
   "lat": 40.4185,
   "lng": -97.3367,
   "population": 107,
   "population_proper": 107,
   "density": 157,
   "source": "polygon",
   "incorporated": true,
   "timezone": "America/Chicago",
   "zips": "68453"
 },
 {
   "City-State": "Nenzel-NE",
   "id": 1840011042,
   "city": "Nenzel",
   "city_ascii": "Nenzel",
   "state_id": "NE",
   "City-State": "Nenzel-NE",
   "state_name": "Nebraska",
   "county_fips": 31031,
   "county_name": "Cherry",
   "lat": 42.9274,
   "lng": -101.1018,
   "population": 20,
   "population_proper": 20,
   "density": 24,
   "source": "polygon",
   "incorporated": true,
   "timezone": "America/Denver",
   "zips": "69219"
 },
 {
   "City-State": "Doniphan-NE",
   "id": 1840011826,
   "city": "Doniphan",
   "city_ascii": "Doniphan",
   "state_id": "NE",
   "City-State": "Doniphan-NE",
   "state_name": "Nebraska",
   "county_fips": 31079,
   "county_name": "Hall",
   "lat": 40.7742,
   "lng": -98.3708,
   "population": 844,
   "population_proper": 844,
   "density": 641,
   "source": "polygon",
   "incorporated": true,
   "timezone": "America/Chicago",
   "zips": "68832"
 },
 {
   "City-State": "Maywood-NE",
   "id": 1840012033,
   "city": "Maywood",
   "city_ascii": "Maywood",
   "state_id": "NE",
   "City-State": "Maywood-NE",
   "state_name": "Nebraska",
   "county_fips": 31063,
   "county_name": "Frontier",
   "lat": 40.6587,
   "lng": -100.6222,
   "population": 248,
   "population_proper": 248,
   "density": 151,
   "source": "polygon",
   "incorporated": true,
   "timezone": "America/Chicago",
   "zips": "69038"
 },
 {
   "City-State": "Memphis-NE",
   "id": 1840011636,
   "city": "Memphis",
   "city_ascii": "Memphis",
   "state_id": "NE",
   "City-State": "Memphis-NE",
   "state_name": "Nebraska",
   "county_fips": 31155,
   "county_name": "Saunders",
   "lat": 41.0946,
   "lng": -96.4331,
   "population": 114,
   "population_proper": 114,
   "density": 506,
   "source": "polygon",
   "incorporated": true,
   "timezone": "America/Chicago",
   "zips": "68042"
 },
 {
   "City-State": "Avoca-NE",
   "id": 1840011809,
   "city": "Avoca",
   "city_ascii": "Avoca",
   "state_id": "NE",
   "City-State": "Avoca-NE",
   "state_name": "Nebraska",
   "county_fips": 31025,
   "county_name": "Cass",
   "lat": 40.7965,
   "lng": -96.1191,
   "population": 244,
   "population_proper": 244,
   "density": 720,
   "source": "polygon",
   "incorporated": true,
   "timezone": "America/Chicago",
   "zips": "68307"
 },
 {
   "City-State": "Tilden-NE",
   "id": 1840003224,
   "city": "Tilden",
   "city_ascii": "Tilden",
   "state_id": "NE",
   "City-State": "Tilden-NE",
   "state_name": "Nebraska",
   "county_fips": 31119,
   "county_name": "Madison",
   "lat": 42.0439,
   "lng": -97.832,
   "population": 933,
   "population_proper": 933,
   "density": 488,
   "source": "polygon",
   "incorporated": true,
   "timezone": "America/Chicago",
   "zips": "68781"
 },
 {
   "City-State": "Hemingford-NE",
   "id": 1840011188,
   "city": "Hemingford",
   "city_ascii": "Hemingford",
   "state_id": "NE",
   "City-State": "Hemingford-NE",
   "state_name": "Nebraska",
   "county_fips": 31013,
   "county_name": "Box Butte",
   "lat": 42.3213,
   "lng": -103.0755,
   "population": 796,
   "population_proper": 796,
   "density": 452,
   "source": "polygon",
   "incorporated": true,
   "timezone": "America/Denver",
   "zips": "69348"
 },
 {
   "City-State": "Naponee-NE",
   "id": 1840012267,
   "city": "Naponee",
   "city_ascii": "Naponee",
   "state_id": "NE",
   "City-State": "Naponee-NE",
   "state_name": "Nebraska",
   "county_fips": 31061,
   "county_name": "Franklin",
   "lat": 40.0747,
   "lng": -99.1386,
   "population": 100,
   "population_proper": 100,
   "density": 167,
   "source": "polygon",
   "incorporated": true,
   "timezone": "America/Chicago",
   "zips": "68960"
 },
 {
   "City-State": "Rulo-NE",
   "id": 1840012345,
   "city": "Rulo",
   "city_ascii": "Rulo",
   "state_id": "NE",
   "City-State": "Rulo-NE",
   "state_name": "Nebraska",
   "county_fips": 31147,
   "county_name": "Richardson",
   "lat": 40.0516,
   "lng": -95.4306,
   "population": 162,
   "population_proper": 162,
   "density": 99,
   "source": "polygon",
   "incorporated": true,
   "timezone": "America/Chicago",
   "zips": "68431"
 },
 {
   "City-State": "West Point-NE",
   "id": 1840003222,
   "city": "West Point",
   "city_ascii": "West Point",
   "state_id": "NE",
   "City-State": "West Point-NE",
   "state_name": "Nebraska",
   "county_fips": 31039,
   "county_name": "Cuming",
   "lat": 41.8378,
   "lng": -96.7061,
   "population": 3144,
   "population_proper": 3327,
   "density": 465,
   "source": "polygon",
   "incorporated": true,
   "timezone": "America/Chicago",
   "zips": "68788"
 },
 {
   "City-State": "Wausa-NE",
   "id": 1840011068,
   "city": "Wausa",
   "city_ascii": "Wausa",
   "state_id": "NE",
   "City-State": "Wausa-NE",
   "state_name": "Nebraska",
   "county_fips": 31107,
   "county_name": "Knox",
   "lat": 42.4979,
   "lng": -97.5393,
   "population": 607,
   "population_proper": 607,
   "density": 446,
   "source": "polygon",
   "incorporated": true,
   "timezone": "America/Chicago",
   "zips": "68786"
 },
 {
   "City-State": "Bee-NE",
   "id": 1840011837,
   "city": "Bee",
   "city_ascii": "Bee",
   "state_id": "NE",
   "City-State": "Bee-NE",
   "state_name": "Nebraska",
   "county_fips": 31159,
   "county_name": "Seward",
   "lat": 41.0064,
   "lng": -97.0583,
   "population": 193,
   "population_proper": 193,
   "density": 298,
   "source": "polygon",
   "incorporated": true,
   "timezone": "America/Chicago",
   "zips": "68314"
 },
 {
   "City-State": "Emerson-NE",
   "id": 1840011096,
   "city": "Emerson",
   "city_ascii": "Emerson",
   "state_id": "NE",
   "City-State": "Emerson-NE",
   "state_name": "Nebraska",
   "county_fips": 31051,
   "county_name": "Dixon",
   "lat": 42.2783,
   "lng": -96.7263,
   "population": 804,
   "population_proper": 804,
   "density": 655,
   "source": "polygon",
   "incorporated": true,
   "timezone": "America/Chicago",
   "zips": "68733"
 },
 {
   "City-State": "Taylor-NE",
   "id": 1840011370,
   "city": "Taylor",
   "city_ascii": "Taylor",
   "state_id": "NE",
   "City-State": "Taylor-NE",
   "state_name": "Nebraska",
   "county_fips": 31115,
   "county_name": "Loup",
   "lat": 41.7696,
   "lng": -99.3814,
   "population": 180,
   "population_proper": 180,
   "density": 266,
   "source": "polygon",
   "incorporated": true,
   "timezone": "America/Chicago",
   "zips": "68879"
 },
 {
   "City-State": "Byron-NE",
   "id": 1840010472,
   "city": "Byron",
   "city_ascii": "Byron",
   "state_id": "NE",
   "City-State": "Byron-NE",
   "state_name": "Nebraska",
   "county_fips": 31169,
   "county_name": "Thayer",
   "lat": 40.0048,
   "lng": -97.7686,
   "population": 81,
   "population_proper": 81,
   "density": 204,
   "source": "polygon",
   "incorporated": true,
   "timezone": "America/Chicago",
   "zips": "68325"
 },
 {
   "City-State": "Genoa-NE",
   "id": 1840000639,
   "city": "Genoa",
   "city_ascii": "Genoa",
   "state_id": "NE",
   "City-State": "Genoa-NE",
   "state_name": "Nebraska",
   "county_fips": 31125,
   "county_name": "Nance",
   "lat": 41.4462,
   "lng": -97.7322,
   "population": 954,
   "population_proper": 954,
   "density": 464,
   "source": "polygon",
   "incorporated": true,
   "timezone": "America/Chicago",
   "zips": "68640"
 },
 {
   "City-State": "Upland-NE",
   "id": 1840012268,
   "city": "Upland",
   "city_ascii": "Upland",
   "state_id": "NE",
   "City-State": "Upland-NE",
   "state_name": "Nebraska",
   "county_fips": 31061,
   "county_name": "Franklin",
   "lat": 40.3195,
   "lng": -98.9023,
   "population": 136,
   "population_proper": 136,
   "density": 127,
   "source": "polygon",
   "incorporated": true,
   "timezone": "America/Chicago",
   "zips": "68981"
 },
 {
   "City-State": "Creighton-NE",
   "id": 1840002458,
   "city": "Creighton",
   "city_ascii": "Creighton",
   "state_id": "NE",
   "City-State": "Creighton-NE",
   "state_name": "Nebraska",
   "county_fips": 31107,
   "county_name": "Knox",
   "lat": 42.4649,
   "lng": -97.9072,
   "population": 1117,
   "population_proper": 1117,
   "density": 356,
   "source": "polygon",
   "incorporated": true,
   "timezone": "America/Chicago",
   "zips": "68729"
 },
 {
   "City-State": "Albion-NE",
   "id": 1840007049,
   "city": "Albion",
   "city_ascii": "Albion",
   "state_id": "NE",
   "City-State": "Albion-NE",
   "state_name": "Nebraska",
   "county_fips": 31011,
   "county_name": "Boone",
   "lat": 41.6877,
   "lng": -97.9984,
   "population": 1599,
   "population_proper": 1599,
   "density": 626,
   "source": "polygon",
   "incorporated": true,
   "timezone": "America/Chicago",
   "zips": "68620"
 },
 {
   "City-State": "Leigh-NE",
   "id": 1840011446,
   "city": "Leigh",
   "city_ascii": "Leigh",
   "state_id": "NE",
   "City-State": "Leigh-NE",
   "state_name": "Nebraska",
   "county_fips": 31037,
   "county_name": "Colfax",
   "lat": 41.7024,
   "lng": -97.2394,
   "population": 401,
   "population_proper": 401,
   "density": 258,
   "source": "polygon",
   "incorporated": true,
   "timezone": "America/Chicago",
   "zips": "68643"
 },
 {
   "City-State": "Bartley-NE",
   "id": 1840012292,
   "city": "Bartley",
   "city_ascii": "Bartley",
   "state_id": "NE",
   "City-State": "Bartley-NE",
   "state_name": "Nebraska",
   "county_fips": 31145,
   "county_name": "Red Willow",
   "lat": 40.2511,
   "lng": -100.3104,
   "population": 273,
   "population_proper": 273,
   "density": 112,
   "source": "polygon",
   "incorporated": true,
   "timezone": "America/Chicago",
   "zips": "69020"
 },
 {
   "City-State": "Lebanon-NE",
   "id": 1840012293,
   "city": "Lebanon",
   "city_ascii": "Lebanon",
   "state_id": "NE",
   "City-State": "Lebanon-NE",
   "state_name": "Nebraska",
   "county_fips": 31145,
   "county_name": "Red Willow",
   "lat": 40.0487,
   "lng": -100.276,
   "population": 77,
   "population_proper": 77,
   "density": 184,
   "source": "polygon",
   "incorporated": true,
   "timezone": "America/Chicago",
   "zips": "69036"
 },
 {
   "City-State": "Hershey-NE",
   "id": 1840011649,
   "city": "Hershey",
   "city_ascii": "Hershey",
   "state_id": "NE",
   "City-State": "Hershey-NE",
   "state_name": "Nebraska",
   "county_fips": 31111,
   "county_name": "Lincoln",
   "lat": 41.1602,
   "lng": -100.9984,
   "population": 663,
   "population_proper": 663,
   "density": 341,
   "source": "polygon",
   "incorporated": true,
   "timezone": "America/Chicago",
   "zips": "69143"
 },
 {
   "City-State": "Hamlet-NE",
   "id": 1840012044,
   "city": "Hamlet",
   "city_ascii": "Hamlet",
   "state_id": "NE",
   "City-State": "Hamlet-NE",
   "state_name": "Nebraska",
   "county_fips": 31085,
   "county_name": "Hayes",
   "lat": 40.3845,
   "lng": -101.2346,
   "population": 53,
   "population_proper": 53,
   "density": 65,
   "source": "polygon",
   "incorporated": true,
   "timezone": "America/Chicago",
   "zips": "69040 69045"
 },
 {
   "City-State": "Julian-NE",
   "id": 1840012147,
   "city": "Julian",
   "city_ascii": "Julian",
   "state_id": "NE",
   "City-State": "Julian-NE",
   "state_name": "Nebraska",
   "county_fips": 31127,
   "county_name": "Nemaha",
   "lat": 40.5198,
   "lng": -95.8674,
   "population": 57,
   "population_proper": 57,
   "density": 250,
   "source": "polygon",
   "incorporated": true,
   "timezone": "America/Chicago",
   "zips": "68379"
 },
 {
   "City-State": "Utica-NE",
   "id": 1840011843,
   "city": "Utica",
   "city_ascii": "Utica",
   "state_id": "NE",
   "City-State": "Utica-NE",
   "state_name": "Nebraska",
   "county_fips": 31159,
   "county_name": "Seward",
   "lat": 40.8953,
   "lng": -97.3453,
   "population": 851,
   "population_proper": 851,
   "density": 712,
   "source": "polygon",
   "incorporated": true,
   "timezone": "America/Chicago",
   "zips": "68456"
 },
 {
   "City-State": "Denton-NE",
   "id": 1840011847,
   "city": "Denton",
   "city_ascii": "Denton",
   "state_id": "NE",
   "City-State": "Denton-NE",
   "state_name": "Nebraska",
   "county_fips": 31109,
   "county_name": "Lancaster",
   "lat": 40.7393,
   "lng": -96.846,
   "population": 205,
   "population_proper": 205,
   "density": 646,
   "source": "polygon",
   "incorporated": true,
   "timezone": "America/Chicago",
   "zips": "68339"
 },
 {
   "City-State": "Scottsbluff-NE",
   "id": 1840009197,
   "city": "Scottsbluff",
   "city_ascii": "Scottsbluff",
   "state_id": "NE",
   "City-State": "Scottsbluff-NE",
   "state_name": "Nebraska",
   "county_fips": 31157,
   "county_name": "Scotts Bluff",
   "lat": 41.8676,
   "lng": -103.6618,
   "population": 25678,
   "population_proper": 14883,
   "density": 921,
   "source": "polygon",
   "incorporated": true,
   "timezone": "America/Denver",
   "zips": "69361 69363"
 },
 {
   "City-State": "Thedford-NE",
   "id": 1840011366,
   "city": "Thedford",
   "city_ascii": "Thedford",
   "state_id": "NE",
   "City-State": "Thedford-NE",
   "state_name": "Nebraska",
   "county_fips": 31171,
   "county_name": "Thomas",
   "lat": 41.9785,
   "lng": -100.5754,
   "population": 218,
   "population_proper": 218,
   "density": 369,
   "source": "polygon",
   "incorporated": true,
   "timezone": "America/Chicago",
   "zips": "69166"
 },
 {
   "City-State": "Cozad-NE",
   "id": 1840007167,
   "city": "Cozad",
   "city_ascii": "Cozad",
   "state_id": "NE",
   "City-State": "Cozad-NE",
   "state_name": "Nebraska",
   "county_fips": 31047,
   "county_name": "Dawson",
   "lat": 40.8612,
   "lng": -99.9863,
   "population": 3696,
   "population_proper": 3805,
   "density": 560,
   "source": "polygon",
   "incorporated": true,
   "timezone": "America/Chicago",
   "zips": "69130"
 },
 {
   "City-State": "Stockville-NE",
   "id": 1840012035,
   "city": "Stockville",
   "city_ascii": "Stockville",
   "state_id": "NE",
   "City-State": "Stockville-NE",
   "state_name": "Nebraska",
   "county_fips": 31063,
   "county_name": "Frontier",
   "lat": 40.5336,
   "lng": -100.3845,
   "population": 24,
   "population_proper": 24,
   "density": 35,
   "source": "polygon",
   "incorporated": true,
   "timezone": "America/Chicago",
   "zips": "69039 69042"
 },
 {
   "City-State": "Martinsburg-NE",
   "id": 1840011097,
   "city": "Martinsburg",
   "city_ascii": "Martinsburg",
   "state_id": "NE",
   "City-State": "Martinsburg-NE",
   "state_name": "Nebraska",
   "county_fips": 31051,
   "county_name": "Dixon",
   "lat": 42.5082,
   "lng": -96.8314,
   "population": 90,
   "population_proper": 90,
   "density": 333,
   "source": "polygon",
   "incorporated": true,
   "timezone": "America/Chicago",
   "zips": "68770 68710"
 },
 {
   "City-State": "Inman-NE",
   "id": 1840011044,
   "city": "Inman",
   "city_ascii": "Inman",
   "state_id": "NE",
   "City-State": "Inman-NE",
   "state_name": "Nebraska",
   "county_fips": 31089,
   "county_name": "Holt",
   "lat": 42.3819,
   "lng": -98.5298,
   "population": 126,
   "population_proper": 126,
   "density": 170,
   "source": "polygon",
   "incorporated": true,
   "timezone": "America/Chicago",
   "zips": "68742"
 },
 {
   "City-State": "Nora-NE",
   "id": 1840012272,
   "city": "Nora",
   "city_ascii": "Nora",
   "state_id": "NE",
   "City-State": "Nora-NE",
   "state_name": "Nebraska",
   "county_fips": 31129,
   "county_name": "Nuckolls",
   "lat": 40.1641,
   "lng": -97.9738,
   "population": 20,
   "population_proper": 20,
   "density": 20,
   "source": "polygon",
   "incorporated": true,
   "timezone": "America/Chicago",
   "zips": "68961"
 },
 {
   "City-State": "Bruno-NE",
   "id": 1840010270,
   "city": "Bruno",
   "city_ascii": "Bruno",
   "state_id": "NE",
   "City-State": "Bruno-NE",
   "state_name": "Nebraska",
   "county_fips": 31023,
   "county_name": "Butler",
   "lat": 41.2832,
   "lng": -96.9609,
   "population": 95,
   "population_proper": 95,
   "density": 134,
   "source": "polygon",
   "incorporated": true,
   "timezone": "America/Chicago",
   "zips": "68014"
 },
 {
   "City-State": "Milligan-NE",
   "id": 1840012051,
   "city": "Milligan",
   "city_ascii": "Milligan",
   "state_id": "NE",
   "City-State": "Milligan-NE",
   "state_name": "Nebraska",
   "county_fips": 31059,
   "county_name": "Fillmore",
   "lat": 40.5005,
   "lng": -97.3883,
   "population": 275,
   "population_proper": 275,
   "density": 444,
   "source": "polygon",
   "incorporated": true,
   "timezone": "America/Chicago",
   "zips": "68406"
 },
 {
   "City-State": "Scribner-NE",
   "id": 1840000567,
   "city": "Scribner",
   "city_ascii": "Scribner",
   "state_id": "NE",
   "City-State": "Scribner-NE",
   "state_name": "Nebraska",
   "county_fips": 31053,
   "county_name": "Dodge",
   "lat": 41.665,
   "lng": -96.6653,
   "population": 843,
   "population_proper": 843,
   "density": 509,
   "source": "polygon",
   "incorporated": true,
   "timezone": "America/Chicago",
   "zips": "68057"
 },
 {
   "City-State": "Alda-NE",
   "id": 1840010331,
   "city": "Alda",
   "city_ascii": "Alda",
   "state_id": "NE",
   "City-State": "Alda-NE",
   "state_name": "Nebraska",
   "county_fips": 31079,
   "county_name": "Hall",
   "lat": 40.8669,
   "lng": -98.469,
   "population": 650,
   "population_proper": 650,
   "density": 655,
   "source": "polygon",
   "incorporated": true,
   "timezone": "America/Chicago",
   "zips": "68810"
 },
 {
   "City-State": "Waterloo-NE",
   "id": 1840011670,
   "city": "Waterloo",
   "city_ascii": "Waterloo",
   "state_id": "NE",
   "City-State": "Waterloo-NE",
   "state_name": "Nebraska",
   "county_fips": 31055,
   "county_name": "Douglas",
   "lat": 41.2856,
   "lng": -96.285,
   "population": 909,
   "population_proper": 909,
   "density": 544,
   "source": "polygon",
   "incorporated": true,
   "timezone": "America/Chicago",
   "zips": "68069"
 },
 {
   "City-State": "Eagle-NE",
   "id": 1840011811,
   "city": "Eagle",
   "city_ascii": "Eagle",
   "state_id": "NE",
   "City-State": "Eagle-NE",
   "state_name": "Nebraska",
   "county_fips": 31025,
   "county_name": "Cass",
   "lat": 40.8162,
   "lng": -96.4327,
   "population": 1068,
   "population_proper": 1068,
   "density": 1195,
   "source": "polygon",
   "incorporated": true,
   "timezone": "America/Chicago",
   "zips": "68347"
 },
 {
   "City-State": "Raymond-NE",
   "id": 1840011849,
   "city": "Raymond",
   "city_ascii": "Raymond",
   "state_id": "NE",
   "City-State": "Raymond-NE",
   "state_name": "Nebraska",
   "county_fips": 31109,
   "county_name": "Lancaster",
   "lat": 40.9567,
   "lng": -96.7815,
   "population": 184,
   "population_proper": 184,
   "density": 540,
   "source": "polygon",
   "incorporated": true,
   "timezone": "America/Chicago",
   "zips": "68428"
 },
 {
   "City-State": "Winnebago-NE",
   "id": 1840011220,
   "city": "Winnebago",
   "city_ascii": "Winnebago",
   "state_id": "NE",
   "City-State": "Winnebago-NE",
   "state_name": "Nebraska",
   "county_fips": 31173,
   "county_name": "Thurston",
   "lat": 42.2361,
   "lng": -96.4721,
   "population": 795,
   "population_proper": 795,
   "density": 1514,
   "source": "polygon",
   "incorporated": true,
   "timezone": "America/Chicago",
   "zips": "68071"
 },
 {
   "City-State": "Gothenburg-NE",
   "id": 1840008284,
   "city": "Gothenburg",
   "city_ascii": "Gothenburg",
   "state_id": "NE",
   "City-State": "Gothenburg-NE",
   "state_name": "Nebraska",
   "county_fips": 31047,
   "county_name": "Dawson",
   "lat": 40.924,
   "lng": -100.1539,
   "population": 3418,
   "population_proper": 3475,
   "density": 373,
   "source": "polygon",
   "incorporated": true,
   "timezone": "America/Chicago",
   "zips": "69138"
 },
 {
   "City-State": "Hoskins-NE",
   "id": 1840011214,
   "city": "Hoskins",
   "city_ascii": "Hoskins",
   "state_id": "NE",
   "City-State": "Hoskins-NE",
   "state_name": "Nebraska",
   "county_fips": 31179,
   "county_name": "Wayne",
   "lat": 42.1126,
   "lng": -97.3045,
   "population": 288,
   "population_proper": 288,
   "density": 360,
   "source": "polygon",
   "incorporated": true,
   "timezone": "America/Chicago",
   "zips": "68740"
 },
 {
   "City-State": "Swanton-NE",
   "id": 1840012057,
   "city": "Swanton",
   "city_ascii": "Swanton",
   "state_id": "NE",
   "City-State": "Swanton-NE",
   "state_name": "Nebraska",
   "county_fips": 31151,
   "county_name": "Saline",
   "lat": 40.3797,
   "lng": -97.0799,
   "population": 95,
   "population_proper": 95,
   "density": 182,
   "source": "polygon",
   "incorporated": true,
   "timezone": "America/Chicago",
   "zips": "68445"
 },
 {
   "City-State": "Riverton-NE",
   "id": 1840012266,
   "city": "Riverton",
   "city_ascii": "Riverton",
   "state_id": "NE",
   "City-State": "Riverton-NE",
   "state_name": "Nebraska",
   "county_fips": 31061,
   "county_name": "Franklin",
   "lat": 40.0897,
   "lng": -98.7597,
   "population": 84,
   "population_proper": 84,
   "density": 82,
   "source": "polygon",
   "incorporated": true,
   "timezone": "America/Chicago",
   "zips": "68972"
 },
 {
   "City-State": "Chapman-NE",
   "id": 1840010285,
   "city": "Chapman",
   "city_ascii": "Chapman",
   "state_id": "NE",
   "City-State": "Chapman-NE",
   "state_name": "Nebraska",
   "county_fips": 31121,
   "county_name": "Merrick",
   "lat": 41.0232,
   "lng": -98.1594,
   "population": 286,
   "population_proper": 286,
   "density": 247,
   "source": "polygon",
   "incorporated": true,
   "timezone": "America/Chicago",
   "zips": "68827"
 },
 {
   "City-State": "Palisade-NE",
   "id": 1840012296,
   "city": "Palisade",
   "city_ascii": "Palisade",
   "state_id": "NE",
   "City-State": "Palisade-NE",
   "state_name": "Nebraska",
   "county_fips": 31087,
   "county_name": "Hitchcock",
   "lat": 40.3483,
   "lng": -101.1075,
   "population": 337,
   "population_proper": 337,
   "density": 366,
   "source": "polygon",
   "incorporated": true,
   "timezone": "America/Chicago",
   "zips": "69040"
 },
 {
   "City-State": "Martin-NE",
   "id": 1840024162,
   "city": "Martin",
   "city_ascii": "Martin",
   "state_id": "NE",
   "City-State": "Martin-NE",
   "state_name": "Nebraska",
   "county_fips": 31101,
   "county_name": "Keith",
   "lat": 41.2581,
   "lng": -101.7091,
   "population": null,
   "population_proper": null,
   "density": 8.2,
   "source": "polygon",
   "incorporated": false,
   "timezone": "America/Denver",
   "zips": "69146"
 },
 {
   "City-State": "Wauneta-NE",
   "id": 1840012047,
   "city": "Wauneta",
   "city_ascii": "Wauneta",
   "state_id": "NE",
   "City-State": "Wauneta-NE",
   "state_name": "Nebraska",
   "county_fips": 31029,
   "county_name": "Chase",
   "lat": 40.4165,
   "lng": -101.3766,
   "population": 568,
   "population_proper": 568,
   "density": 226,
   "source": "polygon",
   "incorporated": true,
   "timezone": "America/Denver",
   "zips": "69045"
 },
 {
   "City-State": "Hayes Center-NE",
   "id": 1840012045,
   "city": "Hayes Center",
   "city_ascii": "Hayes Center",
   "state_id": "NE",
   "City-State": "Hayes Center-NE",
   "state_name": "Nebraska",
   "county_fips": 31085,
   "county_name": "Hayes",
   "lat": 40.511,
   "lng": -101.0204,
   "population": 200,
   "population_proper": 200,
   "density": 286,
   "source": "polygon",
   "incorporated": true,
   "timezone": "America/Chicago",
   "zips": "69032"
 },
 {
   "City-State": "Verdon-NE",
   "id": 1840012349,
   "city": "Verdon",
   "city_ascii": "Verdon",
   "state_id": "NE",
   "City-State": "Verdon-NE",
   "state_name": "Nebraska",
   "county_fips": 31147,
   "county_name": "Richardson",
   "lat": 40.1491,
   "lng": -95.7112,
   "population": 165,
   "population_proper": 165,
   "density": 268,
   "source": "polygon",
   "incorporated": true,
   "timezone": "America/Chicago",
   "zips": "68457"
 },
 {
   "City-State": "Anoka-NE",
   "id": 1840010079,
   "city": "Anoka",
   "city_ascii": "Anoka",
   "state_id": "NE",
   "City-State": "Anoka-NE",
   "state_name": "Nebraska",
   "county_fips": 31015,
   "county_name": "Boyd",
   "lat": 42.946,
   "lng": -98.8285,
   "population": 6,
   "population_proper": 6,
   "density": 4,
   "source": "polygon",
   "incorporated": true,
   "timezone": "America/Chicago",
   "zips": "68722"
 },
 {
   "City-State": "Crofton-NE",
   "id": 1840002459,
   "city": "Crofton",
   "city_ascii": "Crofton",
   "state_id": "NE",
   "City-State": "Crofton-NE",
   "state_name": "Nebraska",
   "county_fips": 31107,
   "county_name": "Knox",
   "lat": 42.7315,
   "lng": -97.4986,
   "population": 689,
   "population_proper": 689,
   "density": 415,
   "source": "polygon",
   "incorporated": true,
   "timezone": "America/Chicago",
   "zips": "68730"
 },
 {
   "City-State": "Belgrade-NE",
   "id": 1840011589,
   "city": "Belgrade",
   "city_ascii": "Belgrade",
   "state_id": "NE",
   "City-State": "Belgrade-NE",
   "state_name": "Nebraska",
   "county_fips": 31125,
   "county_name": "Nance",
   "lat": 41.4709,
   "lng": -98.0677,
   "population": 117,
   "population_proper": 117,
   "density": 241,
   "source": "polygon",
   "incorporated": true,
   "timezone": "America/Chicago",
   "zips": "68623"
 },
 {
   "City-State": "Maxwell-NE",
   "id": 1840011650,
   "city": "Maxwell",
   "city_ascii": "Maxwell",
   "state_id": "NE",
   "City-State": "Maxwell-NE",
   "state_name": "Nebraska",
   "county_fips": 31111,
   "county_name": "Lincoln",
   "lat": 41.0784,
   "lng": -100.5257,
   "population": 301,
   "population_proper": 301,
   "density": 340,
   "source": "polygon",
   "incorporated": true,
   "timezone": "America/Chicago",
   "zips": "69151"
 },
 {
   "City-State": "Crookston-NE",
   "id": 1840011040,
   "city": "Crookston",
   "city_ascii": "Crookston",
   "state_id": "NE",
   "City-State": "Crookston-NE",
   "state_name": "Nebraska",
   "county_fips": 31031,
   "county_name": "Cherry",
   "lat": 42.9263,
   "lng": -100.7534,
   "population": 71,
   "population_proper": 71,
   "density": 63,
   "source": "polygon",
   "incorporated": true,
   "timezone": "America/Chicago",
   "zips": "69212"
 },
 {
   "City-State": "Ong-NE",
   "id": 1840012063,
   "city": "Ong",
   "city_ascii": "Ong",
   "state_id": "NE",
   "City-State": "Ong-NE",
   "state_name": "Nebraska",
   "county_fips": 31035,
   "county_name": "Clay",
   "lat": 40.3984,
   "lng": -97.8392,
   "population": 59,
   "population_proper": 59,
   "density": 79,
   "source": "polygon",
   "incorporated": true,
   "timezone": "America/Chicago",
   "zips": "68452"
 },
 {
   "City-State": "Inland-NE",
   "id": 1840024288,
   "city": "Inland",
   "city_ascii": "Inland",
   "state_id": "NE",
   "City-State": "Inland-NE",
   "state_name": "Nebraska",
   "county_fips": 31035,
   "county_name": "Clay",
   "lat": 40.5954,
   "lng": -98.2232,
   "population": null,
   "population_proper": null,
   "density": 67.9,
   "source": "polygon",
   "incorporated": false,
   "timezone": "America/Chicago",
   "zips": "68954"
 },
 {
   "City-State": "Manley-NE",
   "id": 1840011813,
   "city": "Manley",
   "city_ascii": "Manley",
   "state_id": "NE",
   "City-State": "Manley-NE",
   "state_name": "Nebraska",
   "county_fips": 31025,
   "county_name": "Cass",
   "lat": 40.92,
   "lng": -96.1665,
   "population": 166,
   "population_proper": 166,
   "density": 949,
   "source": "polygon",
   "incorporated": true,
   "timezone": "America/Chicago",
   "zips": "68403"
 },
 {
   "City-State": "Niobrara-NE",
   "id": 1840011064,
   "city": "Niobrara",
   "city_ascii": "Niobrara",
   "state_id": "NE",
   "City-State": "Niobrara-NE",
   "state_name": "Nebraska",
   "county_fips": 31107,
   "county_name": "Knox",
   "lat": 42.7499,
   "lng": -98.0317,
   "population": 349,
   "population_proper": 349,
   "density": 185,
   "source": "polygon",
   "incorporated": true,
   "timezone": "America/Chicago",
   "zips": "68760"
 },
 {
   "City-State": "Monroe-NE",
   "id": 1840011454,
   "city": "Monroe",
   "city_ascii": "Monroe",
   "state_id": "NE",
   "City-State": "Monroe-NE",
   "state_name": "Nebraska",
   "county_fips": 31141,
   "county_name": "Platte",
   "lat": 41.474,
   "lng": -97.5998,
   "population": 288,
   "population_proper": 288,
   "density": 640,
   "source": "polygon",
   "incorporated": true,
   "timezone": "America/Chicago",
   "zips": "68647"
 },
 {
   "City-State": "Bassett-NE",
   "id": 1840006922,
   "city": "Bassett",
   "city_ascii": "Bassett",
   "state_id": "NE",
   "City-State": "Bassett-NE",
   "state_name": "Nebraska",
   "county_fips": 31149,
   "county_name": "Rock",
   "lat": 42.5827,
   "lng": -99.5366,
   "population": 562,
   "population_proper": 562,
   "density": 488,
   "source": "polygon",
   "incorporated": true,
   "timezone": "America/Chicago",
   "zips": "68714"
 },
 {
   "City-State": "Willow Island-NE",
   "id": 1840024236,
   "city": "Willow Island",
   "city_ascii": "Willow Island",
   "state_id": "NE",
   "City-State": "Willow Island-NE",
   "state_name": "Nebraska",
   "county_fips": 31047,
   "county_name": "Dawson",
   "lat": 40.89,
   "lng": -100.0707,
   "population": null,
   "population_proper": null,
   "density": 12.1,
   "source": "polygon",
   "incorporated": false,
   "timezone": "America/Chicago",
   "zips": "69171"
 },
 {
   "City-State": "Dunbar-NE",
   "id": 1840011965,
   "city": "Dunbar",
   "city_ascii": "Dunbar",
   "state_id": "NE",
   "City-State": "Dunbar-NE",
   "state_name": "Nebraska",
   "county_fips": 31131,
   "county_name": "Otoe",
   "lat": 40.6687,
   "lng": -96.0309,
   "population": 190,
   "population_proper": 190,
   "density": 318,
   "source": "polygon",
   "incorporated": true,
   "timezone": "America/Chicago",
   "zips": "68346"
 },
 {
   "City-State": "Arlington-NE",
   "id": 1840011526,
   "city": "Arlington",
   "city_ascii": "Arlington",
   "state_id": "NE",
   "City-State": "Arlington-NE",
   "state_name": "Nebraska",
   "county_fips": 31177,
   "county_name": "Washington",
   "lat": 41.4548,
   "lng": -96.3565,
   "population": 1273,
   "population_proper": 1273,
   "density": 821,
   "source": "polygon",
   "incorporated": true,
   "timezone": "America/Chicago",
   "zips": "68002"
 },
 {
   "City-State": "Weissert-NE",
   "id": 1840033180,
   "city": "Weissert",
   "city_ascii": "Weissert",
   "state_id": "NE",
   "City-State": "Weissert-NE",
   "state_name": "Nebraska",
   "county_fips": 31041,
   "county_name": "Custer",
   "lat": 41.4672,
   "lng": -99.4432,
   "population": null,
   "population_proper": null,
   "density": 1.6,
   "source": "point",
   "incorporated": false,
   "timezone": "America/Chicago",
   "zips": "68814"
 },
 {
   "City-State": "Broadwater-NE",
   "id": 1840010163,
   "city": "Broadwater",
   "city_ascii": "Broadwater",
   "state_id": "NE",
   "City-State": "Broadwater-NE",
   "state_name": "Nebraska",
   "county_fips": 31123,
   "county_name": "Morrill",
   "lat": 41.5979,
   "lng": -102.8524,
   "population": 123,
   "population_proper": 123,
   "density": 298,
   "source": "polygon",
   "incorporated": true,
   "timezone": "America/Denver",
   "zips": "69125"
 },
 {
   "City-State": "Otoe-NE",
   "id": 1840011966,
   "city": "Otoe",
   "city_ascii": "Otoe",
   "state_id": "NE",
   "City-State": "Otoe-NE",
   "state_name": "Nebraska",
   "county_fips": 31131,
   "county_name": "Otoe",
   "lat": 40.7242,
   "lng": -96.1206,
   "population": 173,
   "population_proper": 173,
   "density": 419,
   "source": "polygon",
   "incorporated": true,
   "timezone": "America/Chicago",
   "zips": "68417"
 },
 {
   "City-State": "Paxton-NE",
   "id": 1840011647,
   "city": "Paxton",
   "city_ascii": "Paxton",
   "state_id": "NE",
   "City-State": "Paxton-NE",
   "state_name": "Nebraska",
   "county_fips": 31101,
   "county_name": "Keith",
   "lat": 41.1235,
   "lng": -101.3521,
   "population": 495,
   "population_proper": 495,
   "density": 185,
   "source": "polygon",
   "incorporated": true,
   "timezone": "America/Denver",
   "zips": "69155"
 },
 {
   "City-State": "Unadilla-NE",
   "id": 1840011969,
   "city": "Unadilla",
   "city_ascii": "Unadilla",
   "state_id": "NE",
   "City-State": "Unadilla-NE",
   "state_name": "Nebraska",
   "county_fips": 31131,
   "county_name": "Otoe",
   "lat": 40.6827,
   "lng": -96.2702,
   "population": 322,
   "population_proper": 322,
   "density": 404,
   "source": "polygon",
   "incorporated": true,
   "timezone": "America/Chicago",
   "zips": "68454"
 },
 {
   "City-State": "Dixon-NE",
   "id": 1840011095,
   "city": "Dixon",
   "city_ascii": "Dixon",
   "state_id": "NE",
   "City-State": "Dixon-NE",
   "state_name": "Nebraska",
   "county_fips": 31051,
   "county_name": "Dixon",
   "lat": 42.4153,
   "lng": -96.9948,
   "population": 83,
   "population_proper": 83,
   "density": 211,
   "source": "polygon",
   "incorporated": true,
   "timezone": "America/Chicago",
   "zips": "68732"
 },
 {
   "City-State": "Brunswick-NE",
   "id": 1840010116,
   "city": "Brunswick",
   "city_ascii": "Brunswick",
   "state_id": "NE",
   "City-State": "Brunswick-NE",
   "state_name": "Nebraska",
   "county_fips": 31003,
   "county_name": "Antelope",
   "lat": 42.3377,
   "lng": -97.9718,
   "population": 133,
   "population_proper": 133,
   "density": 86,
   "source": "polygon",
   "incorporated": true,
   "timezone": "America/Chicago",
   "zips": "68720"
 },
 {
   "City-State": "Smithfield-NE",
   "id": 1840012043,
   "city": "Smithfield",
   "city_ascii": "Smithfield",
   "state_id": "NE",
   "City-State": "Smithfield-NE",
   "state_name": "Nebraska",
   "county_fips": 31073,
   "county_name": "Gosper",
   "lat": 40.5733,
   "lng": -99.7409,
   "population": 51,
   "population_proper": 51,
   "density": 116,
   "source": "polygon",
   "incorporated": true,
   "timezone": "America/Chicago",
   "zips": "68976"
 },
 {
   "City-State": "Ayr-NE",
   "id": 1840012036,
   "city": "Ayr",
   "city_ascii": "Ayr",
   "state_id": "NE",
   "City-State": "Ayr-NE",
   "state_name": "Nebraska",
   "county_fips": 31001,
   "county_name": "Adams",
   "lat": 40.4383,
   "lng": -98.4409,
   "population": 94,
   "population_proper": 94,
   "density": 207,
   "source": "polygon",
   "incorporated": true,
   "timezone": "America/Chicago",
   "zips": "68925"
 },
 {
   "City-State": "Deweese-NE",
   "id": 1840012060,
   "city": "Deweese",
   "city_ascii": "Deweese",
   "state_id": "NE",
   "City-State": "Deweese-NE",
   "state_name": "Nebraska",
   "county_fips": 31035,
   "county_name": "Clay",
   "lat": 40.3548,
   "lng": -98.1392,
   "population": 63,
   "population_proper": 63,
   "density": 193,
   "source": "polygon",
   "incorporated": true,
   "timezone": "America/Chicago",
   "zips": "68934"
 },
 {
   "City-State": "Ashby-NE",
   "id": 1840033132,
   "city": "Ashby",
   "city_ascii": "Ashby",
   "state_id": "NE",
   "City-State": "Ashby-NE",
   "state_name": "Nebraska",
   "county_fips": 31075,
   "county_name": "Grant",
   "lat": 42.0219,
   "lng": -101.9277,
   "population": null,
   "population_proper": null,
   "density": 13.7,
   "source": "point",
   "incorporated": false,
   "timezone": "America/Denver",
   "zips": "69333"
 },
 {
   "City-State": "Stanton-NE",
   "id": 1840009192,
   "city": "Stanton",
   "city_ascii": "Stanton",
   "state_id": "NE",
   "City-State": "Stanton-NE",
   "state_name": "Nebraska",
   "county_fips": 31167,
   "county_name": "Stanton",
   "lat": 41.9472,
   "lng": -97.2172,
   "population": 1516,
   "population_proper": 1516,
   "density": 336,
   "source": "polygon",
   "incorporated": true,
   "timezone": "America/Chicago",
   "zips": "68779"
 },
 {
   "City-State": "Elyria-NE",
   "id": 1840011475,
   "city": "Elyria",
   "city_ascii": "Elyria",
   "state_id": "NE",
   "City-State": "Elyria-NE",
   "state_name": "Nebraska",
   "county_fips": 31175,
   "county_name": "Valley",
   "lat": 41.6802,
   "lng": -99.0053,
   "population": 50,
   "population_proper": 50,
   "density": 72,
   "source": "polygon",
   "incorporated": true,
   "timezone": "America/Chicago",
   "zips": "68837"
 },
 {
   "City-State": "Madrid-NE",
   "id": 1840011870,
   "city": "Madrid",
   "city_ascii": "Madrid",
   "state_id": "NE",
   "City-State": "Madrid-NE",
   "state_name": "Nebraska",
   "county_fips": 31135,
   "county_name": "Perkins",
   "lat": 40.8525,
   "lng": -101.5277,
   "population": 231,
   "population_proper": 231,
   "density": 79,
   "source": "polygon",
   "incorporated": true,
   "timezone": "America/Denver",
   "zips": "69150"
 },
 {
   "City-State": "Preston-NE",
   "id": 1840012344,
   "city": "Preston",
   "city_ascii": "Preston",
   "state_id": "NE",
   "City-State": "Preston-NE",
   "state_name": "Nebraska",
   "county_fips": 31147,
   "county_name": "Richardson",
   "lat": 40.0346,
   "lng": -95.5181,
   "population": 27,
   "population_proper": 27,
   "density": 183,
   "source": "polygon",
   "incorporated": true,
   "timezone": "America/Chicago",
   "zips": "68355"
 },
 {
   "City-State": "Sparks-NE",
   "id": 1840033177,
   "city": "Sparks",
   "city_ascii": "Sparks",
   "state_id": "NE",
   "City-State": "Sparks-NE",
   "state_name": "Nebraska",
   "county_fips": 31031,
   "county_name": "Cherry",
   "lat": 42.9411,
   "lng": -100.256,
   "population": null,
   "population_proper": null,
   "density": 10.1,
   "source": "point",
   "incorporated": false,
   "timezone": "America/Chicago",
   "zips": "69220"
 },
 {
   "City-State": "Whitney-NE",
   "id": 1840011031,
   "city": "Whitney",
   "city_ascii": "Whitney",
   "state_id": "NE",
   "City-State": "Whitney-NE",
   "state_name": "Nebraska",
   "county_fips": 31045,
   "county_name": "Dawes",
   "lat": 42.7839,
   "lng": -103.2569,
   "population": 76,
   "population_proper": 76,
   "density": 185,
   "source": "polygon",
   "incorporated": true,
   "timezone": "America/Denver",
   "zips": "69367"
 },
 {
   "City-State": "Wilsonville-NE",
   "id": 1840012279,
   "city": "Wilsonville",
   "city_ascii": "Wilsonville",
   "state_id": "NE",
   "City-State": "Wilsonville-NE",
   "state_name": "Nebraska",
   "county_fips": 31065,
   "county_name": "Furnas",
   "lat": 40.1119,
   "lng": -100.1066,
   "population": 90,
   "population_proper": 90,
   "density": 130,
   "source": "polygon",
   "incorporated": true,
   "timezone": "America/Chicago",
   "zips": "69046"
 },
 {
   "City-State": "Enola-NE",
   "id": 1840033145,
   "city": "Enola",
   "city_ascii": "Enola",
   "state_id": "NE",
   "City-State": "Enola-NE",
   "state_name": "Nebraska",
   "county_fips": 31119,
   "county_name": "Madison",
   "lat": 41.9039,
   "lng": -97.4628,
   "population": null,
   "population_proper": null,
   "density": 35.1,
   "source": "point",
   "incorporated": false,
   "timezone": "America/Chicago",
   "zips": "68701"
 },
 {
   "City-State": "Loma-NE",
   "id": 1840033156,
   "city": "Loma",
   "city_ascii": "Loma",
   "state_id": "NE",
   "City-State": "Loma-NE",
   "state_name": "Nebraska",
   "county_fips": 31023,
   "county_name": "Butler",
   "lat": 41.1281,
   "lng": -96.942,
   "population": null,
   "population_proper": null,
   "density": 22.3,
   "source": "point",
   "incorporated": false,
   "timezone": "America/Chicago",
   "zips": "68635"
 },
 {
   "City-State": "Wilcox-NE",
   "id": 1840012068,
   "city": "Wilcox",
   "city_ascii": "Wilcox",
   "state_id": "NE",
   "City-State": "Wilcox-NE",
   "state_name": "Nebraska",
   "county_fips": 31099,
   "county_name": "Kearney",
   "lat": 40.3641,
   "lng": -99.1694,
   "population": 355,
   "population_proper": 355,
   "density": 254,
   "source": "polygon",
   "incorporated": true,
   "timezone": "America/Chicago",
   "zips": "68982"
 },
 {
   "City-State": "Rogers-NE",
   "id": 1840011449,
   "city": "Rogers",
   "city_ascii": "Rogers",
   "state_id": "NE",
   "City-State": "Rogers-NE",
   "state_name": "Nebraska",
   "county_fips": 31037,
   "county_name": "Colfax",
   "lat": 41.4643,
   "lng": -96.9159,
   "population": 93,
   "population_proper": 93,
   "density": 211,
   "source": "polygon",
   "incorporated": true,
   "timezone": "America/Chicago",
   "zips": "68659"
 },
 {
   "City-State": "Stapleton-NE",
   "id": 1840011474,
   "city": "Stapleton",
   "city_ascii": "Stapleton",
   "state_id": "NE",
   "City-State": "Stapleton-NE",
   "state_name": "Nebraska",
   "county_fips": 31113,
   "county_name": "Logan",
   "lat": 41.4802,
   "lng": -100.5126,
   "population": 309,
   "population_proper": 309,
   "density": 475,
   "source": "polygon",
   "incorporated": true,
   "timezone": "America/Chicago",
   "zips": "69163"
 },
 {
   "City-State": "Morrill-NE",
   "id": 1840011396,
   "city": "Morrill",
   "city_ascii": "Morrill",
   "state_id": "NE",
   "City-State": "Morrill-NE",
   "state_name": "Nebraska",
   "county_fips": 31157,
   "county_name": "Scotts Bluff",
   "lat": 41.9638,
   "lng": -103.9244,
   "population": 915,
   "population_proper": 915,
   "density": 588,
   "source": "polygon",
   "incorporated": true,
   "timezone": "America/Denver",
   "zips": "69358"
 },
 {
   "City-State": "Cowles-NE",
   "id": 1840012263,
   "city": "Cowles",
   "city_ascii": "Cowles",
   "state_id": "NE",
   "City-State": "Cowles-NE",
   "state_name": "Nebraska",
   "county_fips": 31181,
   "county_name": "Webster",
   "lat": 40.1714,
   "lng": -98.4491,
   "population": 29,
   "population_proper": 29,
   "density": 20,
   "source": "polygon",
   "incorporated": true,
   "timezone": "America/Chicago",
   "zips": "68930"
 },
 {
   "City-State": "Enders-NE",
   "id": 1840024287,
   "city": "Enders",
   "city_ascii": "Enders",
   "state_id": "NE",
   "City-State": "Enders-NE",
   "state_name": "Nebraska",
   "county_fips": 31029,
   "county_name": "Chase",
   "lat": 40.455,
   "lng": -101.5356,
   "population": null,
   "population_proper": null,
   "density": 61.5,
   "source": "polygon",
   "incorporated": false,
   "timezone": "America/Denver",
   "zips": "69027"
 },
 {
   "City-State": "Gordon-NE",
   "id": 1840008019,
   "city": "Gordon",
   "city_ascii": "Gordon",
   "state_id": "NE",
   "City-State": "Gordon-NE",
   "state_name": "Nebraska",
   "county_fips": 31161,
   "county_name": "Sheridan",
   "lat": 42.8063,
   "lng": -102.2039,
   "population": 1535,
   "population_proper": 1535,
   "density": 636,
   "source": "polygon",
   "incorporated": true,
   "timezone": "America/Denver",
   "zips": "69343"
 },
 {
   "City-State": "Cotesfield-NE",
   "id": 1840011660,
   "city": "Cotesfield",
   "city_ascii": "Cotesfield",
   "state_id": "NE",
   "City-State": "Cotesfield-NE",
   "state_name": "Nebraska",
   "county_fips": 31093,
   "county_name": "Howard",
   "lat": 41.3576,
   "lng": -98.6336,
   "population": 45,
   "population_proper": 45,
   "density": 33,
   "source": "polygon",
   "incorporated": true,
   "timezone": "America/Chicago",
   "zips": "68835"
 },
 {
   "City-State": "Seward-NE",
   "id": 1840009356,
   "city": "Seward",
   "city_ascii": "Seward",
   "state_id": "NE",
   "City-State": "Seward-NE",
   "state_name": "Nebraska",
   "county_fips": 31159,
   "county_name": "Seward",
   "lat": 40.9096,
   "lng": -97.0961,
   "population": 6879,
   "population_proper": 7219,
   "density": 652,
   "source": "polygon",
   "incorporated": true,
   "timezone": "America/Chicago",
   "zips": "68434"
 },
 {
   "City-State": "Dwight-NE",
   "id": 1840011624,
   "city": "Dwight",
   "city_ascii": "Dwight",
   "state_id": "NE",
   "City-State": "Dwight-NE",
   "state_name": "Nebraska",
   "county_fips": 31023,
   "county_name": "Butler",
   "lat": 41.0827,
   "lng": -97.0191,
   "population": 195,
   "population_proper": 195,
   "density": 306,
   "source": "polygon",
   "incorporated": true,
   "timezone": "America/Chicago",
   "zips": "68635"
 },
 {
   "City-State": "Swedeburg-NE",
   "id": 1840033199,
   "city": "Swedeburg",
   "city_ascii": "Swedeburg",
   "state_id": "NE",
   "City-State": "Swedeburg-NE",
   "state_name": "Nebraska",
   "county_fips": 31155,
   "county_name": "Saunders",
   "lat": 41.1361,
   "lng": -96.6247,
   "population": null,
   "population_proper": null,
   "density": 58.2,
   "source": "point",
   "incorporated": false,
   "timezone": "America/Chicago",
   "zips": "68066"
 },
 {
   "City-State": "Cairo-NE",
   "id": 1840010330,
   "city": "Cairo",
   "city_ascii": "Cairo",
   "state_id": "NE",
   "City-State": "Cairo-NE",
   "state_name": "Nebraska",
   "county_fips": 31079,
   "county_name": "Hall",
   "lat": 41.0054,
   "lng": -98.6023,
   "population": 804,
   "population_proper": 804,
   "density": 405,
   "source": "polygon",
   "incorporated": true,
   "timezone": "America/Chicago",
   "zips": "68824"
 },
 {
   "City-State": "Holbrook-NE",
   "id": 1840012276,
   "city": "Holbrook",
   "city_ascii": "Holbrook",
   "state_id": "NE",
   "City-State": "Holbrook-NE",
   "state_name": "Nebraska",
   "county_fips": 31065,
   "county_name": "Furnas",
   "lat": 40.3047,
   "lng": -100.0099,
   "population": 199,
   "population_proper": 199,
   "density": 476,
   "source": "polygon",
   "incorporated": true,
   "timezone": "America/Chicago",
   "zips": "68948"
 },
 {
   "City-State": "Potter-NE",
   "id": 1840011643,
   "city": "Potter",
   "city_ascii": "Potter",
   "state_id": "NE",
   "City-State": "Potter-NE",
   "state_name": "Nebraska",
   "county_fips": 31033,
   "county_name": "Cheyenne",
   "lat": 41.2184,
   "lng": -103.3136,
   "population": 326,
   "population_proper": 326,
   "density": 272,
   "source": "polygon",
   "incorporated": true,
   "timezone": "America/Denver",
   "zips": "69156"
 },
 {
   "City-State": "Bancroft-NE",
   "id": 1840011360,
   "city": "Bancroft",
   "city_ascii": "Bancroft",
   "state_id": "NE",
   "City-State": "Bancroft-NE",
   "state_name": "Nebraska",
   "county_fips": 31039,
   "county_name": "Cuming",
   "lat": 42.0104,
   "lng": -96.5733,
   "population": 475,
   "population_proper": 475,
   "density": 500,
   "source": "polygon",
   "incorporated": true,
   "timezone": "America/Chicago",
   "zips": "68004"
 },
 {
   "City-State": "Giltner-NE",
   "id": 1840011734,
   "city": "Giltner",
   "city_ascii": "Giltner",
   "state_id": "NE",
   "City-State": "Giltner-NE",
   "state_name": "Nebraska",
   "county_fips": 31081,
   "county_name": "Hamilton",
   "lat": 40.7749,
   "lng": -98.1534,
   "population": 347,
   "population_proper": 347,
   "density": 345,
   "source": "polygon",
   "incorporated": true,
   "timezone": "America/Chicago",
   "zips": "68841"
 },
 {
   "City-State": "Wilber-NE",
   "id": 1840010390,
   "city": "Wilber",
   "city_ascii": "Wilber",
   "state_id": "NE",
   "City-State": "Wilber-NE",
   "state_name": "Nebraska",
   "county_fips": 31151,
   "county_name": "Saline",
   "lat": 40.4809,
   "lng": -96.9646,
   "population": 1891,
   "population_proper": 1891,
   "density": 810,
   "source": "polygon",
   "incorporated": true,
   "timezone": "America/Chicago",
   "zips": "68465"
 },
 {
   "City-State": "Hickman-NE",
   "id": 1840007168,
   "city": "Hickman",
   "city_ascii": "Hickman",
   "state_id": "NE",
   "City-State": "Hickman-NE",
   "state_name": "Nebraska",
   "county_fips": 31109,
   "county_name": "Lancaster",
   "lat": 40.624,
   "lng": -96.6309,
   "population": 2139,
   "population_proper": 2139,
   "density": 1152,
   "source": "polygon",
   "incorporated": true,
   "timezone": "America/Chicago",
   "zips": "68372"
 },
 {
   "City-State": "Polk-NE",
   "id": 1840011654,
   "city": "Polk",
   "city_ascii": "Polk",
   "state_id": "NE",
   "City-State": "Polk-NE",
   "state_name": "Nebraska",
   "county_fips": 31143,
   "county_name": "Polk",
   "lat": 41.0755,
   "lng": -97.7835,
   "population": 303,
   "population_proper": 303,
   "density": 239,
   "source": "polygon",
   "incorporated": true,
   "timezone": "America/Chicago",
   "zips": "68654"
 },
 {
   "City-State": "Gretna-NE",
   "id": 1840007143,
   "city": "Gretna",
   "city_ascii": "Gretna",
   "state_id": "NE",
   "City-State": "Gretna-NE",
   "state_name": "Nebraska",
   "county_fips": 31153,
   "county_name": "Sarpy",
   "lat": 41.1313,
   "lng": -96.245,
   "population": 5060,
   "population_proper": 5060,
   "density": 831,
   "source": "polygon",
   "incorporated": true,
   "timezone": "America/Chicago",
   "zips": "68028"
 },
 {
   "City-State": "Duncan-NE",
   "id": 1840011453,
   "city": "Duncan",
   "city_ascii": "Duncan",
   "state_id": "NE",
   "City-State": "Duncan-NE",
   "state_name": "Nebraska",
   "county_fips": 31141,
   "county_name": "Platte",
   "lat": 41.3901,
   "lng": -97.4934,
   "population": 365,
   "population_proper": 365,
   "density": 339,
   "source": "polygon",
   "incorporated": true,
   "timezone": "America/Chicago",
   "zips": "68634"
 },
 {
   "City-State": "Bertrand-NE",
   "id": 1840012076,
   "city": "Bertrand",
   "city_ascii": "Bertrand",
   "state_id": "NE",
   "City-State": "Bertrand-NE",
   "state_name": "Nebraska",
   "county_fips": 31137,
   "county_name": "Phelps",
   "lat": 40.5263,
   "lng": -99.6324,
   "population": 734,
   "population_proper": 734,
   "density": 511,
   "source": "polygon",
   "incorporated": true,
   "timezone": "America/Chicago",
   "zips": "68927"
 },
 {
   "City-State": "Washington-NE",
   "id": 1840011529,
   "city": "Washington",
   "city_ascii": "Washington",
   "state_id": "NE",
   "City-State": "Washington-NE",
   "state_name": "Nebraska",
   "county_fips": 31177,
   "county_name": "Washington",
   "lat": 41.3976,
   "lng": -96.2074,
   "population": 151,
   "population_proper": 151,
   "density": 284,
   "source": "polygon",
   "incorporated": true,
   "timezone": "America/Chicago",
   "zips": "68068 68007"
 },
 {
   "City-State": "Talmage-NE",
   "id": 1840011968,
   "city": "Talmage",
   "city_ascii": "Talmage",
   "state_id": "NE",
   "City-State": "Talmage-NE",
   "state_name": "Nebraska",
   "county_fips": 31131,
   "county_name": "Otoe",
   "lat": 40.5315,
   "lng": -96.0239,
   "population": 240,
   "population_proper": 240,
   "density": 565,
   "source": "polygon",
   "incorporated": true,
   "timezone": "America/Chicago",
   "zips": "68448"
 },
 {
   "City-State": "Snyder-NE",
   "id": 1840011461,
   "city": "Snyder",
   "city_ascii": "Snyder",
   "state_id": "NE",
   "City-State": "Snyder-NE",
   "state_name": "Nebraska",
   "county_fips": 31053,
   "county_name": "Dodge",
   "lat": 41.7046,
   "lng": -96.7868,
   "population": 298,
   "population_proper": 298,
   "density": 240,
   "source": "polygon",
   "incorporated": true,
   "timezone": "America/Chicago",
   "zips": "68664 68057"
 },
 {
   "City-State": "Lewellen-NE",
   "id": 1840011391,
   "city": "Lewellen",
   "city_ascii": "Lewellen",
   "state_id": "NE",
   "City-State": "Lewellen-NE",
   "state_name": "Nebraska",
   "county_fips": 31069,
   "county_name": "Garden",
   "lat": 41.3306,
   "lng": -102.1437,
   "population": 211,
   "population_proper": 211,
   "density": 220,
   "source": "polygon",
   "incorporated": true,
   "timezone": "America/Denver",
   "zips": "69147"
 },
 {
   "City-State": "Liberty-NE",
   "id": 1840012161,
   "city": "Liberty",
   "city_ascii": "Liberty",
   "state_id": "NE",
   "City-State": "Liberty-NE",
   "state_name": "Nebraska",
   "county_fips": 31067,
   "county_name": "Gage",
   "lat": 40.0854,
   "lng": -96.4829,
   "population": 75,
   "population_proper": 75,
   "density": 117,
   "source": "polygon",
   "incorporated": true,
   "timezone": "America/Chicago",
   "zips": "68381"
 },
 {
   "City-State": "Petersburg-NE",
   "id": 1840011425,
   "city": "Petersburg",
   "city_ascii": "Petersburg",
   "state_id": "NE",
   "City-State": "Petersburg-NE",
   "state_name": "Nebraska",
   "county_fips": 31011,
   "county_name": "Boone",
   "lat": 41.8536,
   "lng": -98.0811,
   "population": 325,
   "population_proper": 325,
   "density": 335,
   "source": "polygon",
   "incorporated": true,
   "timezone": "America/Chicago",
   "zips": "68652"
 },
 {
   "City-State": "Peru-NE",
   "id": 1840009427,
   "city": "Peru",
   "city_ascii": "Peru",
   "state_id": "NE",
   "City-State": "Peru-NE",
   "state_name": "Nebraska",
   "county_fips": 31127,
   "county_name": "Nemaha",
   "lat": 40.4786,
   "lng": -95.7313,
   "population": 782,
   "population_proper": 782,
   "density": 574,
   "source": "polygon",
   "incorporated": true,
   "timezone": "America/Chicago",
   "zips": "68421"
 },
 {
   "City-State": "Steinauer-NE",
   "id": 1840012340,
   "city": "Steinauer",
   "city_ascii": "Steinauer",
   "state_id": "NE",
   "City-State": "Steinauer-NE",
   "state_name": "Nebraska",
   "county_fips": 31133,
   "county_name": "Pawnee",
   "lat": 40.2073,
   "lng": -96.2329,
   "population": 71,
   "population_proper": 71,
   "density": 203,
   "source": "polygon",
   "incorporated": true,
   "timezone": "America/Chicago",
   "zips": "68441"
 },
 {
   "City-State": "Alma-NE",
   "id": 1840001384,
   "city": "Alma",
   "city_ascii": "Alma",
   "state_id": "NE",
   "City-State": "Alma-NE",
   "state_name": "Nebraska",
   "county_fips": 31083,
   "county_name": "Harlan",
   "lat": 40.1012,
   "lng": -99.3655,
   "population": 1153,
   "population_proper": 1153,
   "density": 526,
   "source": "polygon",
   "incorporated": true,
   "timezone": "America/Chicago",
   "zips": "68920"
 },
 {
   "City-State": "Scotia-NE",
   "id": 1840011465,
   "city": "Scotia",
   "city_ascii": "Scotia",
   "state_id": "NE",
   "City-State": "Scotia-NE",
   "state_name": "Nebraska",
   "county_fips": 31077,
   "county_name": "Greeley",
   "lat": 41.4678,
   "lng": -98.7025,
   "population": 294,
   "population_proper": 294,
   "density": 327,
   "source": "polygon",
   "incorporated": true,
   "timezone": "America/Chicago",
   "zips": "68875"
 },
 {
   "City-State": "Broken Bow-NE",
   "id": 1840003347,
   "city": "Broken Bow",
   "city_ascii": "Broken Bow",
   "state_id": "NE",
   "City-State": "Broken Bow-NE",
   "state_name": "Nebraska",
   "county_fips": 31041,
   "county_name": "Custer",
   "lat": 41.4052,
   "lng": -99.6401,
   "population": 3516,
   "population_proper": 3539,
   "density": 699,
   "source": "polygon",
   "incorporated": true,
   "timezone": "America/Chicago",
   "zips": "68822"
 },
 {
   "City-State": "Gering-NE",
   "id": 1840008139,
   "city": "Gering",
   "city_ascii": "Gering",
   "state_id": "NE",
   "City-State": "Gering-NE",
   "state_name": "Nebraska",
   "county_fips": 31157,
   "county_name": "Scotts Bluff",
   "lat": 41.8275,
   "lng": -103.6649,
   "population": 8360,
   "population_proper": 8360,
   "density": 750,
   "source": "polygon",
   "incorporated": true,
   "timezone": "America/Denver",
   "zips": "69341"
 },
 {
   "City-State": "Gandy-NE",
   "id": 1840011473,
   "city": "Gandy",
   "city_ascii": "Gandy",
   "state_id": "NE",
   "City-State": "Gandy-NE",
   "state_name": "Nebraska",
   "county_fips": 31113,
   "county_name": "Logan",
   "lat": 41.4698,
   "lng": -100.4583,
   "population": 32,
   "population_proper": 32,
   "density": 50,
   "source": "polygon",
   "incorporated": true,
   "timezone": "America/Chicago",
   "zips": "69163"
 },
 {
   "City-State": "Cook-NE",
   "id": 1840012167,
   "city": "Cook",
   "city_ascii": "Cook",
   "state_id": "NE",
   "City-State": "Cook-NE",
   "state_name": "Nebraska",
   "county_fips": 31097,
   "county_name": "Johnson",
   "lat": 40.5105,
   "lng": -96.1617,
   "population": 316,
   "population_proper": 316,
   "density": 705,
   "source": "polygon",
   "incorporated": true,
   "timezone": "America/Chicago",
   "zips": "68329"
 },
 {
   "City-State": "Bostwick-NE",
   "id": 1840033137,
   "city": "Bostwick",
   "city_ascii": "Bostwick",
   "state_id": "NE",
   "City-State": "Bostwick-NE",
   "state_name": "Nebraska",
   "county_fips": 31129,
   "county_name": "Nuckolls",
   "lat": 40.0483,
   "lng": -98.1842,
   "population": null,
   "population_proper": null,
   "density": 5.4,
   "source": "point",
   "incorporated": false,
   "timezone": "America/Chicago",
   "zips": "68978"
 },
 {
   "City-State": "Richfield-NE",
   "id": 1840024199,
   "city": "Richfield",
   "city_ascii": "Richfield",
   "state_id": "NE",
   "City-State": "Richfield-NE",
   "state_name": "Nebraska",
   "county_fips": 31153,
   "county_name": "Sarpy",
   "lat": 41.1108,
   "lng": -96.0763,
   "population": null,
   "population_proper": null,
   "density": 23,
   "source": "polygon",
   "incorporated": false,
   "timezone": "America/Chicago",
   "zips": "68046 68059"
 },
 {
   "City-State": "Creston-NE",
   "id": 1840011452,
   "city": "Creston",
   "city_ascii": "Creston",
   "state_id": "NE",
   "City-State": "Creston-NE",
   "state_name": "Nebraska",
   "county_fips": 31141,
   "county_name": "Platte",
   "lat": 41.7081,
   "lng": -97.3625,
   "population": 203,
   "population_proper": 203,
   "density": 378,
   "source": "polygon",
   "incorporated": true,
   "timezone": "America/Chicago",
   "zips": "68631"
 },
 {
   "City-State": "Beemer-NE",
   "id": 1840011361,
   "city": "Beemer",
   "city_ascii": "Beemer",
   "state_id": "NE",
   "City-State": "Beemer-NE",
   "state_name": "Nebraska",
   "county_fips": 31039,
   "county_name": "Cuming",
   "lat": 41.93,
   "lng": -96.8093,
   "population": 664,
   "population_proper": 664,
   "density": 640,
   "source": "polygon",
   "incorporated": true,
   "timezone": "America/Chicago",
   "zips": "68716"
 },
 {
   "City-State": "Guide Rock-NE",
   "id": 1840012262,
   "city": "Guide Rock",
   "city_ascii": "Guide Rock",
   "state_id": "NE",
   "City-State": "Guide Rock-NE",
   "state_name": "Nebraska",
   "county_fips": 31181,
   "county_name": "Webster",
   "lat": 40.0737,
   "lng": -98.3287,
   "population": 207,
   "population_proper": 207,
   "density": 159,
   "source": "polygon",
   "incorporated": true,
   "timezone": "America/Chicago",
   "zips": "68942"
 },
 {
   "City-State": "North Platte-NE",
   "id": 1840008251,
   "city": "North Platte",
   "city_ascii": "North Platte",
   "state_id": "NE",
   "City-State": "North Platte-NE",
   "state_name": "Nebraska",
   "county_fips": 31111,
   "county_name": "Lincoln",
   "lat": 41.1266,
   "lng": -100.764,
   "population": 24578,
   "population_proper": 24110,
   "density": 703,
   "source": "polygon",
   "incorporated": true,
   "timezone": "America/Chicago",
   "zips": "69101 69103"
 },
 {
   "City-State": "Alvo-NE",
   "id": 1840010327,
   "city": "Alvo",
   "city_ascii": "Alvo",
   "state_id": "NE",
   "City-State": "Alvo-NE",
   "state_name": "Nebraska",
   "county_fips": 31025,
   "county_name": "Cass",
   "lat": 40.8723,
   "lng": -96.3865,
   "population": 132,
   "population_proper": 132,
   "density": 509,
   "source": "polygon",
   "incorporated": true,
   "timezone": "America/Chicago",
   "zips": "68304"
 },
 {
   "City-State": "Agnew-NE",
   "id": 1840033128,
   "city": "Agnew",
   "city_ascii": "Agnew",
   "state_id": "NE",
   "City-State": "Agnew-NE",
   "state_name": "Nebraska",
   "county_fips": 31109,
   "county_name": "Lancaster",
   "lat": 41.0169,
   "lng": -96.8147,
   "population": null,
   "population_proper": null,
   "density": 26.9,
   "source": "point",
   "incorporated": false,
   "timezone": "America/Chicago",
   "zips": "68428"
 },
 {
   "City-State": "Springview-NE",
   "id": 1840011037,
   "city": "Springview",
   "city_ascii": "Springview",
   "state_id": "NE",
   "City-State": "Springview-NE",
   "state_name": "Nebraska",
   "county_fips": 31103,
   "county_name": "Keya Paha",
   "lat": 42.8249,
   "lng": -99.7475,
   "population": 232,
   "population_proper": 232,
   "density": 134,
   "source": "polygon",
   "incorporated": true,
   "timezone": "America/Chicago",
   "zips": "68778"
 },
 {
   "City-State": "Carleton-NE",
   "id": 1840010473,
   "city": "Carleton",
   "city_ascii": "Carleton",
   "state_id": "NE",
   "City-State": "Carleton-NE",
   "state_name": "Nebraska",
   "county_fips": 31169,
   "county_name": "Thayer",
   "lat": 40.3033,
   "lng": -97.6816,
   "population": 88,
   "population_proper": 88,
   "density": 37,
   "source": "polygon",
   "incorporated": true,
   "timezone": "America/Chicago",
   "zips": "68326"
 },
 {
   "City-State": "Cambridge-NE",
   "id": 1840007247,
   "city": "Cambridge",
   "city_ascii": "Cambridge",
   "state_id": "NE",
   "City-State": "Cambridge-NE",
   "state_name": "Nebraska",
   "county_fips": 31065,
   "county_name": "Furnas",
   "lat": 40.2843,
   "lng": -100.1653,
   "population": 1038,
   "population_proper": 1038,
   "density": 299,
   "source": "polygon",
   "incorporated": true,
   "timezone": "America/Chicago",
   "zips": "69022"
 },
 {
   "City-State": "Clinton-NE",
   "id": 1840011030,
   "city": "Clinton",
   "city_ascii": "Clinton",
   "state_id": "NE",
   "City-State": "Clinton-NE",
   "state_name": "Nebraska",
   "county_fips": 31161,
   "county_name": "Sheridan",
   "lat": 42.7597,
   "lng": -102.348,
   "population": 40,
   "population_proper": 40,
   "density": 164,
   "source": "polygon",
   "incorporated": true,
   "timezone": "America/Denver",
   "zips": "69343"
 },
 {
   "City-State": "Lemoyne-NE",
   "id": 1840024161,
   "city": "Lemoyne",
   "city_ascii": "Lemoyne",
   "state_id": "NE",
   "City-State": "Lemoyne-NE",
   "state_name": "Nebraska",
   "county_fips": 31101,
   "county_name": "Keith",
   "lat": 41.2766,
   "lng": -101.8133,
   "population": null,
   "population_proper": null,
   "density": 67.2,
   "source": "polygon",
   "incorporated": false,
   "timezone": "America/Denver",
   "zips": "69146"
 },