[
 {
   "City-State": "Albany-VT",
   "id": 1840004046,
   "city": "Albany",
   "city_ascii": "Albany",
   "state_id": "VT",
   "City-State": "Albany-VT",
   "state_name": "Vermont",
   "county_fips": 50019,
   "county_name": "Orleans",
   "lat": 44.7302,
   "lng": -72.381,
   "population": 184,
   "population_proper": 184,
   "density": 46,
   "source": "polygon",
   "incorporated": true,
   "timezone": "America/New_York",
   "zips": "5820"
 },
 {
   "City-State": "Arlington-VT",
   "id": 1840002897,
   "city": "Arlington",
   "city_ascii": "Arlington",
   "state_id": "VT",
   "City-State": "Arlington-VT",
   "state_name": "Vermont",
   "county_fips": 50003,
   "county_name": "Bennington",
   "lat": 43.0691,
   "lng": -73.1475,
   "population": null,
   "population_proper": null,
   "density": 243.9,
   "source": "polygon",
   "incorporated": false,
   "timezone": "America/New_York",
   "zips": "05252 05250"
 },
 {
   "City-State": "Barnet-VT",
   "id": 1840025345,
   "city": "Barnet",
   "city_ascii": "Barnet",
   "state_id": "VT",
   "City-State": "Barnet-VT",
   "state_name": "Vermont",
   "county_fips": 50005,
   "county_name": "Caledonia",
   "lat": 44.2956,
   "lng": -72.0496,
   "population": null,
   "population_proper": null,
   "density": 85,
   "source": "polygon",
   "incorporated": false,
   "timezone": "America/New_York",
   "zips": "5821"
 },
 {
   "City-State": "Groton-VT",
   "id": 1840025348,
   "city": "Groton",
   "city_ascii": "Groton",
   "state_id": "VT",
   "City-State": "Groton-VT",
   "state_name": "Vermont",
   "county_fips": 50005,
   "county_name": "Caledonia",
   "lat": 44.214,
   "lng": -72.1968,
   "population": null,
   "population_proper": null,
   "density": 112.2,
   "source": "polygon",
   "incorporated": false,
   "timezone": "America/New_York",
   "zips": "5046"
 },
 {
   "City-State": "Barre-VT",
   "id": 1840002186,
   "city": "Barre",
   "city_ascii": "Barre",
   "state_id": "VT",
   "City-State": "Barre-VT",
   "state_name": "Vermont",
   "county_fips": 50023,
   "county_name": "Washington",
   "lat": 44.1997,
   "lng": -72.5083,
   "population": 20857,
   "population_proper": 8710,
   "density": 852,
   "source": "polygon",
   "incorporated": true,
   "timezone": "America/New_York",
   "zips": "5641"
 },
 {
   "City-State": "Shelburne-VT",
   "id": 1840025352,
   "city": "Shelburne",
   "city_ascii": "Shelburne",
   "state_id": "VT",
   "City-State": "Shelburne-VT",
   "state_name": "Vermont",
   "county_fips": 50007,
   "county_name": "Chittenden",
   "lat": 44.3759,
   "lng": -73.2265,
   "population": null,
   "population_proper": null,
   "density": 300,
   "source": "polygon",
   "incorporated": false,
   "timezone": "America/New_York",
   "zips": "5482"
 },
 {
   "City-State": "West Pawlet-VT",
   "id": 1840037485,
   "city": "West Pawlet",
   "city_ascii": "West Pawlet",
   "state_id": "VT",
   "City-State": "West Pawlet-VT",
   "state_name": "Vermont",
   "county_fips": 50021,
   "county_name": "Rutland",
   "lat": 43.3537,
   "lng": -73.2521,
   "population": null,
   "population_proper": null,
   "density": 121.8,
   "source": "point",
   "incorporated": false,
   "timezone": "America/New_York",
   "zips": "5775"
 },
 {
   "City-State": "Chelsea-VT",
   "id": 1840037480,
   "city": "Chelsea",
   "city_ascii": "Chelsea",
   "state_id": "VT",
   "City-State": "Chelsea-VT",
   "state_name": "Vermont",
   "county_fips": 50017,
   "county_name": "Orange",
   "lat": 43.9871,
   "lng": -72.4522,
   "population": null,
   "population_proper": null,
   "density": 115.9,
   "source": "polygon",
   "incorporated": false,
   "timezone": "America/New_York",
   "zips": "5038"
 },
 {
   "City-State": "Irasburg-VT",
   "id": 1840025332,
   "city": "Irasburg",
   "city_ascii": "Irasburg",
   "state_id": "VT",
   "City-State": "Irasburg-VT",
   "state_name": "Vermont",
   "county_fips": 50019,
   "county_name": "Orleans",
   "lat": 44.8002,
   "lng": -72.2849,
   "population": null,
   "population_proper": null,
   "density": 82.3,
   "source": "polygon",
   "incorporated": false,
   "timezone": "America/New_York",
   "zips": "5845"
 },
 {
   "City-State": "Waterbury-VT",
   "id": 1840004103,
   "city": "Waterbury",
   "city_ascii": "Waterbury",
   "state_id": "VT",
   "City-State": "Waterbury-VT",
   "state_name": "Vermont",
   "county_fips": 50023,
   "county_name": "Washington",
   "lat": 44.3429,
   "lng": -72.7429,
   "population": 3092,
   "population_proper": 1835,
   "density": 375,
   "source": "polygon",
   "incorporated": true,
   "timezone": "America/New_York",
   "zips": "05676 05671"
 },
 {
   "City-State": "East Montpelier-VT",
   "id": 1840023972,
   "city": "East Montpelier",
   "city_ascii": "East Montpelier",
   "state_id": "VT",
   "City-State": "East Montpelier-VT",
   "state_name": "Vermont",
   "county_fips": 50023,
   "county_name": "Washington",
   "lat": 44.2695,
   "lng": -72.4881,
   "population": null,
   "population_proper": null,
   "density": 140.8,
   "source": "polygon",
   "incorporated": false,
   "timezone": "America/New_York",
   "zips": "5651"
 },
 {
   "City-State": "Saxtons River-VT",
   "id": 1840004338,
   "city": "Saxtons River",
   "city_ascii": "Saxtons River",
   "state_id": "VT",
   "City-State": "Saxtons River-VT",
   "state_name": "Vermont",
   "county_fips": 50025,
   "county_name": "Windham",
   "lat": 43.139,
   "lng": -72.5101,
   "population": 545,
   "population_proper": 545,
   "density": 448,
   "source": "polygon",
   "incorporated": true,
   "timezone": "America/New_York",
   "zips": "5154"
 },
 {
   "City-State": "Winooski-VT",
   "id": 1840002312,
   "city": "Winooski",
   "city_ascii": "Winooski",
   "state_id": "VT",
   "City-State": "Winooski-VT",
   "state_name": "Vermont",
   "county_fips": 50007,
   "county_name": "Chittenden",
   "lat": 44.4951,
   "lng": -73.1842,
   "population": 7128,
   "population_proper": 7128,
   "density": 1922,
   "source": "polygon",
   "incorporated": true,
   "timezone": "America/New_York",
   "zips": "5404"
 },
 {
   "City-State": "Island Pond-VT",
   "id": 1840002269,
   "city": "Island Pond",
   "city_ascii": "Island Pond",
   "state_id": "VT",
   "City-State": "Island Pond-VT",
   "state_name": "Vermont",
   "county_fips": 50009,
   "county_name": "Essex",
   "lat": 44.8125,
   "lng": -71.8862,
   "population": null,
   "population_proper": null,
   "density": 370.6,
   "source": "polygon",
   "incorporated": false,
   "timezone": "America/New_York",
   "zips": "5846"
 },
 {
   "City-State": "Manchester Center-VT",
   "id": 1840002899,
   "city": "Manchester Center",
   "city_ascii": "Manchester Center",
   "state_id": "VT",
   "City-State": "Manchester Center-VT",
   "state_name": "Vermont",
   "county_fips": 50003,
   "county_name": "Bennington",
   "lat": 43.1822,
   "lng": -73.0362,
   "population": null,
   "population_proper": null,
   "density": 173.2,
   "source": "polygon",
   "incorporated": false,
   "timezone": "America/New_York",
   "zips": "5255"
 },
 {
   "City-State": "Cavendish-VT",
   "id": 1840025405,
   "city": "Cavendish",
   "city_ascii": "Cavendish",
   "state_id": "VT",
   "City-State": "Cavendish-VT",
   "state_name": "Vermont",
   "county_fips": 50027,
   "county_name": "Windsor",
   "lat": 43.3863,
   "lng": -72.6065,
   "population": null,
   "population_proper": null,
   "density": 58.8,
   "source": "polygon",
   "incorporated": false,
   "timezone": "America/New_York",
   "zips": "5142"
 },
 {
   "City-State": "West Topsham-VT",
   "id": 1840037486,
   "city": "West Topsham",
   "city_ascii": "West Topsham",
   "state_id": "VT",
   "City-State": "West Topsham-VT",
   "state_name": "Vermont",
   "county_fips": 50017,
   "county_name": "Orange",
   "lat": 44.1151,
   "lng": -72.3118,
   "population": null,
   "population_proper": null,
   "density": 64.8,
   "source": "point",
   "incorporated": false,
   "timezone": "America/New_York",
   "zips": "5086"
 },
 {
   "City-State": "Newport-VT",
   "id": 1840002270,
   "city": "Newport",
   "city_ascii": "Newport",
   "state_id": "VT",
   "City-State": "Newport-VT",
   "state_name": "Vermont",
   "county_fips": 50019,
   "county_name": "Orleans",
   "lat": 44.9375,
   "lng": -72.2088,
   "population": 3776,
   "population_proper": 4328,
   "density": 286,
   "source": "polygon",
   "incorporated": true,
   "timezone": "America/New_York",
   "zips": "5855"
 },
 {
   "City-State": "Northfield-VT",
   "id": 1840004102,
   "city": "Northfield",
   "city_ascii": "Northfield",
   "state_id": "VT",
   "City-State": "Northfield-VT",
   "state_name": "Vermont",
   "county_fips": 50023,
   "county_name": "Washington",
   "lat": 44.1531,
   "lng": -72.6557,
   "population": null,
   "population_proper": null,
   "density": 475.7,
   "source": "polygon",
   "incorporated": false,
   "timezone": "America/New_York",
   "zips": "5663"
 },
 {
   "City-State": "North Bennington-VT",
   "id": 1840004301,
   "city": "North Bennington",
   "city_ascii": "North Bennington",
   "state_id": "VT",
   "City-State": "North Bennington-VT",
   "state_name": "Vermont",
   "county_fips": 50003,
   "county_name": "Bennington",
   "lat": 42.924,
   "lng": -73.2411,
   "population": 1619,
   "population_proper": 1619,
   "density": 335,
   "source": "polygon",
   "incorporated": true,
   "timezone": "America/New_York",
   "zips": "5257"
 },
 {
   "City-State": "Perkinsville-VT",
   "id": 1840004160,
   "city": "Perkinsville",
   "city_ascii": "Perkinsville",
   "state_id": "VT",
   "City-State": "Perkinsville-VT",
   "state_name": "Vermont",
   "county_fips": 50027,
   "county_name": "Windsor",
   "lat": 43.3708,
   "lng": -72.5159,
   "population": 123,
   "population_proper": 123,
   "density": 260,
   "source": "polygon",
   "incorporated": true,
   "timezone": "America/New_York",
   "zips": "5151"
 },
 {
   "City-State": "Concord-VT",
   "id": 1840025327,
   "city": "Concord",
   "city_ascii": "Concord",
   "state_id": "VT",
   "City-State": "Concord-VT",
   "state_name": "Vermont",
   "county_fips": 50009,
   "county_name": "Essex",
   "lat": 44.4323,
   "lng": -71.8863,
   "population": null,
   "population_proper": null,
   "density": 166,
   "source": "polygon",
   "incorporated": false,
   "timezone": "America/New_York",
   "zips": "5824"
 },
 {
   "City-State": "Montpelier-VT",
   "id": 1840002187,
   "city": "Montpelier",
   "city_ascii": "Montpelier",
   "state_id": "VT",
   "City-State": "Montpelier-VT",
   "state_name": "Vermont",
   "county_fips": 50023,
   "county_name": "Washington",
   "lat": 44.2658,
   "lng": -72.5717,
   "population": 7535,
   "population_proper": 7535,
   "density": 289,
   "source": "polygon",
   "incorporated": true,
   "timezone": "America/New_York",
   "zips": "05602 05601 05603 05604 05609 05620 05633"
 },
 {
   "City-State": "Plainfield-VT",
   "id": 1840023974,
   "city": "Plainfield",
   "city_ascii": "Plainfield",
   "state_id": "VT",
   "City-State": "Plainfield-VT",
   "state_name": "Vermont",
   "county_fips": 50023,
   "county_name": "Washington",
   "lat": 44.2766,
   "lng": -72.427,
   "population": null,
   "population_proper": null,
   "density": 284.3,
   "source": "polygon",
   "incorporated": false,
   "timezone": "America/New_York",
   "zips": "5667"
 },
 {
   "City-State": "Troy-VT",
   "id": 1840025335,
   "city": "Troy",
   "city_ascii": "Troy",
   "state_id": "VT",
   "City-State": "Troy-VT",
   "state_name": "Vermont",
   "county_fips": 50019,
   "county_name": "Orleans",
   "lat": 44.909,
   "lng": -72.4046,
   "population": null,
   "population_proper": null,
   "density": 116.6,
   "source": "polygon",
   "incorporated": false,
   "timezone": "America/New_York",
   "zips": "05868 05859"
 },
 {
   "City-State": "Manchester-VT",
   "id": 1840004300,
   "city": "Manchester",
   "city_ascii": "Manchester",
   "state_id": "VT",
   "City-State": "Manchester-VT",
   "state_name": "Vermont",
   "county_fips": 50003,
   "county_name": "Bennington",
   "lat": 43.161,
   "lng": -73.0709,
   "population": 737,
   "population_proper": 737,
   "density": 80,
   "source": "polygon",
   "incorporated": true,
   "timezone": "America/New_York",
   "zips": "05255 05254"
 },
 {
   "City-State": "North Wolcott-VT",
   "id": 1840037488,
   "city": "North Wolcott",
   "city_ascii": "North Wolcott",
   "state_id": "VT",
   "City-State": "North Wolcott-VT",
   "state_name": "Vermont",
   "county_fips": 50015,
   "county_name": "Lamoille",
   "lat": 44.6112,
   "lng": -72.4604,
   "population": null,
   "population_proper": null,
   "density": 46.1,
   "source": "point",
   "incorporated": false,
   "timezone": "America/New_York",
   "zips": "5680"
 },
 {
   "City-State": "Windsor-VT",
   "id": 1840025414,
   "city": "Windsor",
   "city_ascii": "Windsor",
   "state_id": "VT",
   "City-State": "Windsor-VT",
   "state_name": "Vermont",
   "county_fips": 50027,
   "county_name": "Windsor",
   "lat": 43.4799,
   "lng": -72.3936,
   "population": null,
   "population_proper": null,
   "density": 1438.7,
   "source": "polygon",
   "incorporated": false,
   "timezone": "America/New_York",
   "zips": "5089"
 },
 {
   "City-State": "Brattleboro-VT",
   "id": 1840002940,
   "city": "Brattleboro",
   "city_ascii": "Brattleboro",
   "state_id": "VT",
   "City-State": "Brattleboro-VT",
   "state_name": "Vermont",
   "county_fips": 50025,
   "county_name": "Windham",
   "lat": 42.8588,
   "lng": -72.5628,
   "population": null,
   "population_proper": null,
   "density": 566.7,
   "source": "polygon",
   "incorporated": false,
   "timezone": "America/New_York",
   "zips": "05301 05302 05303 05304"
 },
 {
   "City-State": "Rochester-VT",
   "id": 1840025412,
   "city": "Rochester",
   "city_ascii": "Rochester",
   "state_id": "VT",
   "City-State": "Rochester-VT",
   "state_name": "Vermont",
   "county_fips": 50027,
   "county_name": "Windsor",
   "lat": 43.8743,
   "lng": -72.8052,
   "population": null,
   "population_proper": null,
   "density": 157.1,
   "source": "polygon",
   "incorporated": false,
   "timezone": "America/New_York",
   "zips": "5767"
 },
 {
   "City-State": "Jeffersonville-VT",
   "id": 1840004078,
   "city": "Jeffersonville",
   "city_ascii": "Jeffersonville",
   "state_id": "VT",
   "City-State": "Jeffersonville-VT",
   "state_name": "Vermont",
   "county_fips": 50015,
   "county_name": "Lamoille",
   "lat": 44.6427,
   "lng": -72.8282,
   "population": 765,
   "population_proper": 765,
   "density": 380,
   "source": "polygon",
   "incorporated": true,
   "timezone": "America/New_York",
   "zips": "5464"
 },
 {
   "City-State": "Beecher Falls-VT",
   "id": 1840025316,
   "city": "Beecher Falls",
   "city_ascii": "Beecher Falls",
   "state_id": "VT",
   "City-State": "Beecher Falls-VT",
   "state_name": "Vermont",
   "county_fips": 50009,
   "county_name": "Essex",
   "lat": 45.009,
   "lng": -71.4935,
   "population": null,
   "population_proper": null,
   "density": 54.3,
   "source": "polygon",
   "incorporated": false,
   "timezone": "America/New_York",
   "zips": "05903 05902"
 },
 {
   "City-State": "Bennington-VT",
   "id": 1840002898,
   "city": "Bennington",
   "city_ascii": "Bennington",
   "state_id": "VT",
   "City-State": "Bennington-VT",
   "state_name": "Vermont",
   "county_fips": 50003,
   "county_name": "Bennington",
   "lat": 42.8746,
   "lng": -73.1852,
   "population": null,
   "population_proper": null,
   "density": 2061.3,
   "source": "polygon",
   "incorporated": false,
   "timezone": "America/New_York",
   "zips": "5201"
 },
 {
   "City-State": "Brandon-VT",
   "id": 1840002633,
   "city": "Brandon",
   "city_ascii": "Brandon",
   "state_id": "VT",
   "City-State": "Brandon-VT",
   "state_name": "Vermont",
   "county_fips": 50021,
   "county_name": "Rutland",
   "lat": 43.8011,
   "lng": -73.0843,
   "population": null,
   "population_proper": null,
   "density": 620.8,
   "source": "polygon",
   "incorporated": false,
   "timezone": "America/New_York",
   "zips": "5733"
 },
 {
   "City-State": "East Barre-VT",
   "id": 1840023971,
   "city": "East Barre",
   "city_ascii": "East Barre",
   "state_id": "VT",
   "City-State": "East Barre-VT",
   "state_name": "Vermont",
   "county_fips": 50023,
   "county_name": "Washington",
   "lat": 44.1498,
   "lng": -72.4498,
   "population": null,
   "population_proper": null,
   "density": 196.1,
   "source": "polygon",
   "incorporated": false,
   "timezone": "America/New_York",
   "zips": "5641"
 },
 {
   "City-State": "Williamstown-VT",
   "id": 1840025394,
   "city": "Williamstown",
   "city_ascii": "Williamstown",
   "state_id": "VT",
   "City-State": "Williamstown-VT",
   "state_name": "Vermont",
   "county_fips": 50017,
   "county_name": "Orange",
   "lat": 44.1218,
   "lng": -72.5427,
   "population": null,
   "population_proper": null,
   "density": 369.1,
   "source": "polygon",
   "incorporated": false,
   "timezone": "America/New_York",
   "zips": "5679"
 },
 {
   "City-State": "Burlington-VT",
   "id": 1840002310,
   "city": "Burlington",
   "city_ascii": "Burlington",
   "state_id": "VT",
   "City-State": "Burlington-VT",
   "state_name": "Vermont",
   "county_fips": 50007,
   "county_name": "Chittenden",
   "lat": 44.4877,
   "lng": -73.2314,
   "population": 108331,
   "population_proper": 42260,
   "density": 1583,
   "source": "polygon",
   "incorporated": true,
   "timezone": "America/New_York",
   "zips": "05405 05401 05408 05402 05406"
 },
 {
   "City-State": "South Shaftsbury-VT",
   "id": 1840004303,
   "city": "South Shaftsbury",
   "city_ascii": "South Shaftsbury",
   "state_id": "VT",
   "City-State": "South Shaftsbury-VT",
   "state_name": "Vermont",
   "county_fips": 50003,
   "county_name": "Bennington",
   "lat": 42.9411,
   "lng": -73.202,
   "population": null,
   "population_proper": null,
   "density": 490.3,
   "source": "polygon",
   "incorporated": false,
   "timezone": "America/New_York",
   "zips": "5262"
 },
 {
   "City-State": "Lyndonville-VT",
   "id": 1840004081,
   "city": "Lyndonville",
   "city_ascii": "Lyndonville",
   "state_id": "VT",
   "City-State": "Lyndonville-VT",
   "state_name": "Vermont",
   "county_fips": 50005,
   "county_name": "Caledonia",
   "lat": 44.5352,
   "lng": -72.0016,
   "population": 2838,
   "population_proper": 1172,
   "density": 639,
   "source": "polygon",
   "incorporated": true,
   "timezone": "America/New_York",
   "zips": "5851"
 },
 {
   "City-State": "Waitsfield-VT",
   "id": 1840025371,
   "city": "Waitsfield",
   "city_ascii": "Waitsfield",
   "state_id": "VT",
   "City-State": "Waitsfield-VT",
   "state_name": "Vermont",
   "county_fips": 50023,
   "county_name": "Washington",
   "lat": 44.19,
   "lng": -72.8246,
   "population": null,
   "population_proper": null,
   "density": 104,
   "source": "polygon",
   "incorporated": false,
   "timezone": "America/New_York",
   "zips": "5673"
 },
 {
   "City-State": "Stowe-VT",
   "id": 1840025344,
   "city": "Stowe",
   "city_ascii": "Stowe",
   "state_id": "VT",
   "City-State": "Stowe-VT",
   "state_name": "Vermont",
   "county_fips": 50015,
   "county_name": "Lamoille",
   "lat": 44.4662,
   "lng": -72.6853,
   "population": null,
   "population_proper": null,
   "density": 376.3,
   "source": "polygon",
   "incorporated": false,
   "timezone": "America/New_York",
   "zips": "5672"
 },
 {
   "City-State": "Websterville-VT",
   "id": 1840023975,
   "city": "Websterville",
   "city_ascii": "Websterville",
   "state_id": "VT",
   "City-State": "Websterville-VT",
   "state_name": "Vermont",
   "county_fips": 50023,
   "county_name": "Washington",
   "lat": 44.1617,
   "lng": -72.4722,
   "population": null,
   "population_proper": null,
   "density": 234.6,
   "source": "polygon",
   "incorporated": false,
   "timezone": "America/New_York",
   "zips": "05641 05678"
 },
 {
   "City-State": "Saint Albans-VT",
   "id": 1840002267,
   "city": "Saint Albans",
   "city_ascii": "Saint Albans",
   "state_id": "VT",
   "City-State": "Saint Albans-VT",
   "state_name": "Vermont",
   "county_fips": 50011,
   "county_name": "Franklin",
   "lat": 44.8119,
   "lng": -73.0846,
   "population": 8888,
   "population_proper": 6792,
   "density": 1294,
   "source": "polygon",
   "incorporated": true,
   "timezone": "America/New_York",
   "zips": "05478 05479"
 },
 {
   "City-State": "Wilder-VT",
   "id": 1840004163,
   "city": "Wilder",
   "city_ascii": "Wilder",
   "state_id": "VT",
   "City-State": "Wilder-VT",
   "state_name": "Vermont",
   "county_fips": 50027,
   "county_name": "Windsor",
   "lat": 43.673,
   "lng": -72.3109,
   "population": null,
   "population_proper": null,
   "density": 877.7,
   "source": "polygon",
   "incorporated": false,
   "timezone": "America/New_York",
   "zips": "05001 05088"
 },
 {
   "City-State": "South Royalton-VT",
   "id": 1840025413,
   "city": "South Royalton",
   "city_ascii": "South Royalton",
   "state_id": "VT",
   "City-State": "South Royalton-VT",
   "state_name": "Vermont",
   "county_fips": 50027,
   "county_name": "Windsor",
   "lat": 43.8123,
   "lng": -72.5156,
   "population": null,
   "population_proper": null,
   "density": 323.6,
   "source": "polygon",
   "incorporated": false,
   "timezone": "America/New_York",
   "zips": "5068"
 },
 {
   "City-State": "East Burke-VT",
   "id": 1840025347,
   "city": "East Burke",
   "city_ascii": "East Burke",
   "state_id": "VT",
   "City-State": "East Burke-VT",
   "state_name": "Vermont",
   "county_fips": 50005,
   "county_name": "Caledonia",
   "lat": 44.5875,
   "lng": -71.9403,
   "population": null,
   "population_proper": null,
   "density": 65.8,
   "source": "polygon",
   "incorporated": false,
   "timezone": "America/New_York",
   "zips": "5832"
 },
 {
   "City-State": "Jericho-VT",
   "id": 1840004084,
   "city": "Jericho",
   "city_ascii": "Jericho",
   "state_id": "VT",
   "City-State": "Jericho-VT",
   "state_name": "Vermont",
   "county_fips": 50007,
   "county_name": "Chittenden",
   "lat": 44.5049,
   "lng": -72.9878,
   "population": null,
   "population_proper": null,
   "density": 380.2,
   "source": "polygon",
   "incorporated": true,
   "timezone": "America/New_York",
   "zips": "5465"
 },
 {
   "City-State": "Johnson-VT",
   "id": 1840004079,
   "city": "Johnson",
   "city_ascii": "Johnson",
   "state_id": "VT",
   "City-State": "Johnson-VT",
   "state_name": "Vermont",
   "county_fips": 50015,
   "county_name": "Lamoille",
   "lat": 44.6366,
   "lng": -72.6786,
   "population": 1462,
   "population_proper": 1462,
   "density": 483,
   "source": "polygon",
   "incorporated": true,
   "timezone": "America/New_York",
   "zips": "5656"
 },
 {
   "City-State": "West Burke-VT",
   "id": 1840004082,
   "city": "West Burke",
   "city_ascii": "West Burke",
   "state_id": "VT",
   "City-State": "West Burke-VT",
   "state_name": "Vermont",
   "county_fips": 50005,
   "county_name": "Caledonia",
   "lat": 44.6431,
   "lng": -71.9792,
   "population": 334,
   "population_proper": 334,
   "density": 271,
   "source": "polygon",
   "incorporated": true,
   "timezone": "America/New_York",
   "zips": "5871"
 },
 {
   "City-State": "Castleton-VT",
   "id": 1840025426,
   "city": "Castleton",
   "city_ascii": "Castleton",
   "state_id": "VT",
   "City-State": "Castleton-VT",
   "state_name": "Vermont",
   "county_fips": 50021,
   "county_name": "Rutland",
   "lat": 43.6054,
   "lng": -73.1853,
   "population": null,
   "population_proper": null,
   "density": 568,
   "source": "polygon",
   "incorporated": false,
   "timezone": "America/New_York",
   "zips": "5735"
 },
 {
   "City-State": "Morrisville-VT",
   "id": 1840004080,
   "city": "Morrisville",
   "city_ascii": "Morrisville",
   "state_id": "VT",
   "City-State": "Morrisville-VT",
   "state_name": "Vermont",
   "county_fips": 50015,
   "county_name": "Lamoille",
   "lat": 44.5583,
   "lng": -72.5933,
   "population": 2050,
   "population_proper": 2050,
   "density": 404,
   "source": "polygon",
   "incorporated": true,
   "timezone": "America/New_York",
   "zips": "5661"
 },
 {
   "City-State": "Barton-VT",
   "id": 1840004047,
   "city": "Barton",
   "city_ascii": "Barton",
   "state_id": "VT",
   "City-State": "Barton-VT",
   "state_name": "Vermont",
   "county_fips": 50019,
   "county_name": "Orleans",
   "lat": 44.7481,
   "lng": -72.1753,
   "population": 673,
   "population_proper": 673,
   "density": 218,
   "source": "polygon",
   "incorporated": true,
   "timezone": "America/New_York",
   "zips": "5822"
 },
 {
   "City-State": "Chester-VT",
   "id": 1840002598,
   "city": "Chester",
   "city_ascii": "Chester",
   "state_id": "VT",
   "City-State": "Chester-VT",
   "state_name": "Vermont",
   "county_fips": 50027,
   "county_name": "Windsor",
   "lat": 43.2648,
   "lng": -72.5935,
   "population": null,
   "population_proper": null,
   "density": 315.4,
   "source": "polygon",
   "incorporated": false,
   "timezone": "America/New_York",
   "zips": "5143"
 },
 {
   "City-State": "Derby Line-VT",
   "id": 1840004049,
   "city": "Derby Line",
   "city_ascii": "Derby Line",
   "state_id": "VT",
   "City-State": "Derby Line-VT",
   "state_name": "Vermont",
   "county_fips": 50019,
   "county_name": "Orleans",
   "lat": 45.0008,
   "lng": -72.1034,
   "population": 629,
   "population_proper": 629,
   "density": 335,
   "source": "polygon",
   "incorporated": true,
   "timezone": "America/Montreal",
   "zips": "5830"
 },
 {
   "City-State": "Cambridge-VT",
   "id": 1840004076,
   "city": "Cambridge",
   "city_ascii": "Cambridge",
   "state_id": "VT",
   "City-State": "Cambridge-VT",
   "state_name": "Vermont",
   "county_fips": 50015,
   "county_name": "Lamoille",
   "lat": 44.639,
   "lng": -72.8788,
   "population": 242,
   "population_proper": 242,
   "density": 75,
   "source": "polygon",
   "incorporated": true,
   "timezone": "America/New_York",
   "zips": "05464 05444"
 },
 {
   "City-State": "Derby Center-VT",
   "id": 1840004048,
   "city": "Derby Center",
   "city_ascii": "Derby Center",
   "state_id": "VT",
   "City-State": "Derby Center-VT",
   "state_name": "Vermont",
   "county_fips": 50019,
   "county_name": "Orleans",
   "lat": 44.955,
   "lng": -72.1361,
   "population": 559,
   "population_proper": 559,
   "density": 154,
   "source": "polygon",
   "incorporated": true,
   "timezone": "America/New_York",
   "zips": "5829"
 },
 {
   "City-State": "South Burlington-VT",
   "id": 1840002311,
   "city": "South Burlington",
   "city_ascii": "South Burlington",
   "state_id": "VT",
   "City-State": "South Burlington-VT",
   "state_name": "Vermont",
   "county_fips": 50007,
   "county_name": "Chittenden",
   "lat": 44.4622,
   "lng": -73.2203,
   "population": 18971,
   "population_proper": 18971,
   "density": 444,
   "source": "polygon",
   "incorporated": true,
   "timezone": "America/New_York",
   "zips": "05403 05407"
 },
 {
   "City-State": "Newport Center-VT",
   "id": 1840025334,
   "city": "Newport Center",
   "city_ascii": "Newport Center",
   "state_id": "VT",
   "City-State": "Newport Center-VT",
   "state_name": "Vermont",
   "county_fips": 50019,
   "county_name": "Orleans",
   "lat": 44.9509,
   "lng": -72.3042,
   "population": null,
   "population_proper": null,
   "density": 304.6,
   "source": "polygon",
   "incorporated": false,
   "timezone": "America/New_York",
   "zips": "5857"
 },
 {
   "City-State": "Glover-VT",
   "id": 1840025329,
   "city": "Glover",
   "city_ascii": "Glover",
   "state_id": "VT",
   "City-State": "Glover-VT",
   "state_name": "Vermont",
   "county_fips": 50019,
   "county_name": "Orleans",
   "lat": 44.7077,
   "lng": -72.1934,
   "population": null,
   "population_proper": null,
   "density": 255.6,
   "source": "polygon",
   "incorporated": false,
   "timezone": "America/New_York",
   "zips": "5839"
 },
 {
   "City-State": "Orleans-VT",
   "id": 1840004051,
   "city": "Orleans",
   "city_ascii": "Orleans",
   "state_id": "VT",
   "City-State": "Orleans-VT",
   "state_name": "Vermont",
   "county_fips": 50019,
   "county_name": "Orleans",
   "lat": 44.8092,
   "lng": -72.2013,
   "population": 749,
   "population_proper": 749,
   "density": 318,
   "source": "polygon",
   "incorporated": true,
   "timezone": "America/New_York",
   "zips": "5860"
 },
 {
   "City-State": "Hinesburg-VT",
   "id": 1840023901,
   "city": "Hinesburg",
   "city_ascii": "Hinesburg",
   "state_id": "VT",
   "City-State": "Hinesburg-VT",
   "state_name": "Vermont",
   "county_fips": 50007,
   "county_name": "Chittenden",
   "lat": 44.3299,
   "lng": -73.1062,
   "population": null,
   "population_proper": null,
   "density": 354.1,
   "source": "polygon",
   "incorporated": false,
   "timezone": "America/New_York",
   "zips": "5461"
 },
 {
   "City-State": "Quechee-VT",
   "id": 1840025411,
   "city": "Quechee",
   "city_ascii": "Quechee",
   "state_id": "VT",
   "City-State": "Quechee-VT",
   "state_name": "Vermont",
   "county_fips": 50027,
   "county_name": "Windsor",
   "lat": 43.6445,
   "lng": -72.4184,
   "population": null,
   "population_proper": null,
   "density": 229.7,
   "source": "polygon",
   "incorporated": false,
   "timezone": "America/New_York",
   "zips": "05059 05001"
 },
 {
   "City-State": "Middlebury-VT",
   "id": 1840002220,
   "city": "Middlebury",
   "city_ascii": "Middlebury",
   "state_id": "VT",
   "City-State": "Middlebury-VT",
   "state_name": "Vermont",
   "county_fips": 50001,
   "county_name": "Addison",
   "lat": 44.0079,
   "lng": -73.1575,
   "population": null,
   "population_proper": null,
   "density": 962,
   "source": "polygon",
   "incorporated": false,
   "timezone": "America/New_York",
   "zips": "5753"
 },
 {
   "City-State": "West Brattleboro-VT",
   "id": 1840002941,
   "city": "West Brattleboro",
   "city_ascii": "West Brattleboro",
   "state_id": "VT",
   "City-State": "West Brattleboro-VT",
   "state_name": "Vermont",
   "county_fips": 50025,
   "county_name": "Windham",
   "lat": 42.8558,
   "lng": -72.6017,
   "population": null,
   "population_proper": null,
   "density": 618.3,
   "source": "polygon",
   "incorporated": false,
   "timezone": "America/New_York",
   "zips": "5301"
 },
 {
   "City-State": "Woodstock-VT",
   "id": 1840004161,
   "city": "Woodstock",
   "city_ascii": "Woodstock",
   "state_id": "VT",
   "City-State": "Woodstock-VT",
   "state_name": "Vermont",
   "county_fips": 50027,
   "county_name": "Windsor",
   "lat": 43.6257,
   "lng": -72.5167,
   "population": 861,
   "population_proper": 861,
   "density": 333,
   "source": "polygon",
   "incorporated": true,
   "timezone": "America/New_York",
   "zips": "5091"
 },
 {
   "City-State": "Fairfield-VT",
   "id": 1840037483,
   "city": "Fairfield",
   "city_ascii": "Fairfield",
   "state_id": "VT",
   "City-State": "Fairfield-VT",
   "state_name": "Vermont",
   "county_fips": 50011,
   "county_name": "Franklin",
   "lat": 44.802,
   "lng": -72.9457,
   "population": null,
   "population_proper": null,
   "density": 20,
   "source": "point",
   "incorporated": false,
   "timezone": "America/New_York",
   "zips": "5455"
 },
 {
   "City-State": "Richmond-VT",
   "id": 1840025351,
   "city": "Richmond",
   "city_ascii": "Richmond",
   "state_id": "VT",
   "City-State": "Richmond-VT",
   "state_name": "Vermont",
   "county_fips": 50007,
   "county_name": "Chittenden",
   "lat": 44.4076,
   "lng": -72.9965,
   "population": null,
   "population_proper": null,
   "density": 395.2,
   "source": "polygon",
   "incorporated": false,
   "timezone": "America/New_York",
   "zips": "5477"
 },
 {
   "City-State": "Enosburg Falls-VT",
   "id": 1840004032,
   "city": "Enosburg Falls",
   "city_ascii": "Enosburg Falls",
   "state_id": "VT",
   "City-State": "Enosburg Falls-VT",
   "state_name": "Vermont",
   "county_fips": 50011,
   "county_name": "Franklin",
   "lat": 44.9083,
   "lng": -72.8029,
   "population": 1299,
   "population_proper": 1299,
   "density": 140,
   "source": "polygon",
   "incorporated": true,
   "timezone": "America/New_York",
   "zips": "5450"
 },
 {
   "City-State": "Fairlee-VT",
   "id": 1840025392,
   "city": "Fairlee",
   "city_ascii": "Fairlee",
   "state_id": "VT",
   "City-State": "Fairlee-VT",
   "state_name": "Vermont",
   "county_fips": 50017,
   "county_name": "Orange",
   "lat": 43.899,
   "lng": -72.1546,
   "population": null,
   "population_proper": null,
   "density": 148.6,
   "source": "polygon",
   "incorporated": false,
   "timezone": "America/New_York",
   "zips": "5045"
 },
 {
   "City-State": "South Barre-VT",
   "id": 1840002188,
   "city": "South Barre",
   "city_ascii": "South Barre",
   "state_id": "VT",
   "City-State": "South Barre-VT",
   "state_name": "Vermont",
   "county_fips": 50023,
   "county_name": "Washington",
   "lat": 44.1646,
   "lng": -72.5038,
   "population": null,
   "population_proper": null,
   "density": 227.4,
   "source": "polygon",
   "incorporated": false,
   "timezone": "America/New_York",
   "zips": "05641 05670"
 },
 {
   "City-State": "North Westminster-VT",
   "id": 1840037484,
   "city": "North Westminster",
   "city_ascii": "North Westminster",
   "state_id": "VT",
   "City-State": "North Westminster-VT",
   "state_name": "Vermont",
   "county_fips": 50025,
   "county_name": "Windham",
   "lat": 43.1219,
   "lng": -72.4555,
   "population": null,
   "population_proper": null,
   "density": 292.2,
   "source": "polygon",
   "incorporated": false,
   "timezone": "America/New_York",
   "zips": "05101 05158"
 },
 {
   "City-State": "Essex Junction-VT",
   "id": 1840004083,
   "city": "Essex Junction",
   "city_ascii": "Essex Junction",
   "state_id": "VT",
   "City-State": "Essex Junction-VT",
   "state_name": "Vermont",
   "county_fips": 50007,
   "county_name": "Chittenden",
   "lat": 44.4903,
   "lng": -73.114,
   "population": 10412,
   "population_proper": 10412,
   "density": 880,
   "source": "polygon",
   "incorporated": true,
   "timezone": "America/New_York",
   "zips": "05452 05453"
 },
 {
   "City-State": "White River Junction-VT",
   "id": 1840004162,
   "city": "White River Junction",
   "city_ascii": "White River Junction",
   "state_id": "VT",
   "City-State": "White River Junction-VT",
   "state_name": "Vermont",
   "county_fips": 50027,
   "county_name": "Windsor",
   "lat": 43.6496,
   "lng": -72.3239,
   "population": null,
   "population_proper": null,
   "density": 1149.2,
   "source": "polygon",
   "incorporated": false,
   "timezone": "America/New_York",
   "zips": "05001 05009 05047"
 },
 {
   "City-State": "Newbury-VT",
   "id": 1840004131,
   "city": "Newbury",
   "city_ascii": "Newbury",
   "state_id": "VT",
   "City-State": "Newbury-VT",
   "state_name": "Vermont",
   "county_fips": 50017,
   "county_name": "Orange",
   "lat": 44.0812,
   "lng": -72.0594,
   "population": 357,
   "population_proper": 357,
   "density": 27,
   "source": "polygon",
   "incorporated": true,
   "timezone": "America/New_York",
   "zips": "5051"
 },
 {
   "City-State": "North Hartland-VT",
   "id": 1840025407,
   "city": "North Hartland",
   "city_ascii": "North Hartland",
   "state_id": "VT",
   "City-State": "North Hartland-VT",
   "state_name": "Vermont",
   "county_fips": 50027,
   "county_name": "Windsor",
   "lat": 43.5936,
   "lng": -72.3578,
   "population": null,
   "population_proper": null,
   "density": 166.4,
   "source": "polygon",
   "incorporated": false,
   "timezone": "America/New_York",
   "zips": "5052"
 },
 {
   "City-State": "Bethel-VT",
   "id": 1840025404,
   "city": "Bethel",
   "city_ascii": "Bethel",
   "state_id": "VT",
   "City-State": "Bethel-VT",
   "state_name": "Vermont",
   "county_fips": 50027,
   "county_name": "Windsor",
   "lat": 43.8312,
   "lng": -72.6365,
   "population": null,
   "population_proper": null,
   "density": 172.1,
   "source": "polygon",
   "incorporated": false,
   "timezone": "America/New_York",
   "zips": "5032"
 },
 {
   "City-State": "Poultney-VT",
   "id": 1840004166,
   "city": "Poultney",
   "city_ascii": "Poultney",
   "state_id": "VT",
   "City-State": "Poultney-VT",
   "state_name": "Vermont",
   "county_fips": 50021,
   "county_name": "Rutland",
   "lat": 43.5182,
   "lng": -73.2361,
   "population": 1608,
   "population_proper": 1608,
   "density": 981,
   "source": "polygon",
   "incorporated": true,
   "timezone": "America/New_York",
   "zips": "5764"
 },
 {
   "City-State": "Alburg-VT",
   "id": 1840004034,
   "city": "Alburg",
   "city_ascii": "Alburg",
   "state_id": "VT",
   "City-State": "Alburg-VT",
   "state_name": "Vermont",
   "county_fips": 50013,
   "county_name": "Grand Isle",
   "lat": 44.975,
   "lng": -73.3001,
   "population": null,
   "population_proper": null,
   "density": 173.8,
   "source": "point",
   "incorporated": true,
   "timezone": "America/New_York",
   "zips": "5440"
 },
 {
   "City-State": "Readsboro-VT",
   "id": 1840024049,
   "city": "Readsboro",
   "city_ascii": "Readsboro",
   "state_id": "VT",
   "City-State": "Readsboro-VT",
   "state_name": "Vermont",
   "county_fips": 50003,
   "county_name": "Bennington",
   "lat": 42.7683,
   "lng": -72.949,
   "population": null,
   "population_proper": null,
   "density": 266.3,
   "source": "polygon",
   "incorporated": false,
   "timezone": "America/New_York",
   "zips": "5350"
 },
 {
   "City-State": "North Springfield-VT",
   "id": 1840025408,
   "city": "North Springfield",
   "city_ascii": "North Springfield",
   "state_id": "VT",
   "City-State": "North Springfield-VT",
   "state_name": "Vermont",
   "county_fips": 50027,
   "county_name": "Windsor",
   "lat": 43.33,
   "lng": -72.5263,
   "population": null,
   "population_proper": null,
   "density": 133,
   "source": "polygon",
   "incorporated": false,
   "timezone": "America/New_York",
   "zips": "05150 05156"
 },
 {
   "City-State": "East Middlebury-VT",
   "id": 1840025378,
   "city": "East Middlebury",
   "city_ascii": "East Middlebury",
   "state_id": "VT",
   "City-State": "East Middlebury-VT",
   "state_name": "Vermont",
   "county_fips": 50001,
   "county_name": "Addison",
   "lat": 43.9747,
   "lng": -73.1056,
   "population": null,
   "population_proper": null,
   "density": 198.1,
   "source": "polygon",
   "incorporated": false,
   "timezone": "America/New_York",
   "zips": "05740 05753"
 },
 {
   "City-State": "Benson-VT",
   "id": 1840025425,
   "city": "Benson",
   "city_ascii": "Benson",
   "state_id": "VT",
   "City-State": "Benson-VT",
   "state_name": "Vermont",
   "county_fips": 50021,
   "county_name": "Rutland",
   "lat": 43.7072,
   "lng": -73.3094,
   "population": null,
   "population_proper": null,
   "density": 56,
   "source": "polygon",
   "incorporated": false,
   "timezone": "America/New_York",
   "zips": "05743 05731"
 },
 {
   "City-State": "Bradford-VT",
   "id": 1840002524,
   "city": "Bradford",
   "city_ascii": "Bradford",
   "state_id": "VT",
   "City-State": "Bradford-VT",
   "state_name": "Vermont",
   "county_fips": 50017,
   "county_name": "Orange",
   "lat": 43.9961,
   "lng": -72.1265,
   "population": null,
   "population_proper": null,
   "density": 523.5,
   "source": "polygon",
   "incorporated": false,
   "timezone": "America/New_York",
   "zips": "5033"
 },
 {
   "City-State": "East Randolph-VT",
   "id": 1840037481,
   "city": "East Randolph",
   "city_ascii": "East Randolph",
   "state_id": "VT",
   "City-State": "East Randolph-VT",
   "state_name": "Vermont",
   "county_fips": 50017,
   "county_name": "Orange",
   "lat": 43.9401,
   "lng": -72.5551,
   "population": null,
   "population_proper": null,
   "density": 96.6,
   "source": "point",
   "incorporated": false,
   "timezone": "America/New_York",
   "zips": "5061"
 },
 {
   "City-State": "Proctorsville-VT",
   "id": 1840025410,
   "city": "Proctorsville",
   "city_ascii": "Proctorsville",
   "state_id": "VT",
   "City-State": "Proctorsville-VT",
   "state_name": "Vermont",
   "county_fips": 50027,
   "county_name": "Windsor",
   "lat": 43.3824,
   "lng": -72.6415,
   "population": null,
   "population_proper": null,
   "density": 235.3,
   "source": "polygon",
   "incorporated": false,
   "timezone": "America/New_York",
   "zips": "5153"
 },
 {
   "City-State": "Rutland-VT",
   "id": 1840002632,
   "city": "Rutland",
   "city_ascii": "Rutland",
   "state_id": "VT",
   "City-State": "Rutland-VT",
   "state_name": "Vermont",
   "county_fips": 50021,
   "county_name": "Rutland",
   "lat": 43.6091,
   "lng": -72.9782,
   "population": 18765,
   "population_proper": 15601,
   "density": 797,
   "source": "polygon",
   "incorporated": true,
   "timezone": "America/New_York",
   "zips": "05701 05702"
 },
 {
   "City-State": "Fairfax-VT",
   "id": 1840037482,
   "city": "Fairfax",
   "city_ascii": "Fairfax",
   "state_id": "VT",
   "City-State": "Fairfax-VT",
   "state_name": "Vermont",
   "county_fips": 50011,
   "county_name": "Franklin",
   "lat": 44.6695,
   "lng": -73.0106,
   "population": null,
   "population_proper": null,
   "density": 279.6,
   "source": "polygon",
   "incorporated": false,
   "timezone": "America/New_York",
   "zips": "5454"
 },
 {
   "City-State": "Greensboro-VT",
   "id": 1840025330,
   "city": "Greensboro",
   "city_ascii": "Greensboro",
   "state_id": "VT",
   "City-State": "Greensboro-VT",
   "state_name": "Vermont",
   "county_fips": 50019,
   "county_name": "Orleans",
   "lat": 44.577,
   "lng": -72.3021,
   "population": null,
   "population_proper": null,
   "density": 45.5,
   "source": "polygon",
   "incorporated": false,
   "timezone": "America/New_York",
   "zips": "5841"
 },
 {
   "City-State": "Dorset-VT",
   "id": 1840025445,
   "city": "Dorset",
   "city_ascii": "Dorset",
   "state_id": "VT",
   "City-State": "Dorset-VT",
   "state_name": "Vermont",
   "county_fips": 50003,
   "county_name": "Bennington",
   "lat": 43.2551,
   "lng": -73.101,
   "population": null,
   "population_proper": null,
   "density": 76.8,
   "source": "polygon",
   "incorporated": false,
   "timezone": "America/New_York",
   "zips": "5251"
 },
 {
   "City-State": "Hyde Park-VT",
   "id": 1840004077,
   "city": "Hyde Park",
   "city_ascii": "Hyde Park",
   "state_id": "VT",
   "City-State": "Hyde Park-VT",
   "state_name": "Vermont",
   "county_fips": 50015,
   "county_name": "Lamoille",
   "lat": 44.596,
   "lng": -72.6123,
   "population": 494,
   "population_proper": 494,
   "density": 164,
   "source": "polygon",
   "incorporated": true,
   "timezone": "America/New_York",
   "zips": "5655"
 },
 {
   "City-State": "Worcester-VT",
   "id": 1840023976,
   "city": "Worcester",
   "city_ascii": "Worcester",
   "state_id": "VT",
   "City-State": "Worcester-VT",
   "state_name": "Vermont",
   "county_fips": 50023,
   "county_name": "Washington",
   "lat": 44.3716,
   "lng": -72.5497,
   "population": null,
   "population_proper": null,
   "density": 96.3,
   "source": "polygon",
   "incorporated": false,
   "timezone": "America/New_York",
   "zips": "5682"
 },
 {
   "City-State": "Canaan-VT",
   "id": 1840025326,
   "city": "Canaan",
   "city_ascii": "Canaan",
   "state_id": "VT",
   "City-State": "Canaan-VT",
   "state_name": "Vermont",
   "county_fips": 50009,
   "county_name": "Essex",
   "lat": 45.0044,
   "lng": -71.5344,
   "population": null,
   "population_proper": null,
   "density": 274.1,
   "source": "polygon",
   "incorporated": false,
   "timezone": "America/New_York",
   "zips": "5903"
 },
 {
   "City-State": "West Dover-VT",
   "id": 1840037487,
   "city": "West Dover",
   "city_ascii": "West Dover",
   "state_id": "VT",
   "City-State": "West Dover-VT",
   "state_name": "Vermont",
   "county_fips": 50025,
   "county_name": "Windham",
   "lat": 42.9392,
   "lng": -72.8529,
   "population": null,
   "population_proper": null,
   "density": 18.5,
   "source": "point",
   "incorporated": false,
   "timezone": "America/New_York",
   "zips": "5356"
 },
 {
   "City-State": "West Rutland-VT",
   "id": 1840002636,
   "city": "West Rutland",
   "city_ascii": "West Rutland",
   "state_id": "VT",
   "City-State": "West Rutland-VT",
   "state_name": "Vermont",
   "county_fips": 50021,
   "county_name": "Rutland",
   "lat": 43.5972,
   "lng": -73.0451,
   "population": null,
   "population_proper": null,
   "density": 679.8,
   "source": "polygon",
   "incorporated": false,
   "timezone": "America/New_York",
   "zips": "5777"
 },
 {
   "City-State": "Putney-VT",
   "id": 1840024050,
   "city": "Putney",
   "city_ascii": "Putney",
   "state_id": "VT",
   "City-State": "Putney-VT",
   "state_name": "Vermont",
   "county_fips": 50025,
   "county_name": "Windham",
   "lat": 42.9757,
   "lng": -72.5255,
   "population": null,
   "population_proper": null,
   "density": 185.2,
   "source": "polygon",
   "incorporated": false,
   "timezone": "America/New_York",
   "zips": "5346"
 },
 {
   "City-State": "Newfane-VT",
   "id": 1840004336,
   "city": "Newfane",
   "city_ascii": "Newfane",
   "state_id": "VT",
   "City-State": "Newfane-VT",
   "state_name": "Vermont",
   "county_fips": 50025,
   "county_name": "Windham",
   "lat": 42.9875,
   "lng": -72.6549,
   "population": 113,
   "population_proper": 113,
   "density": 248,
   "source": "polygon",
   "incorporated": true,
   "timezone": "America/New_York",
   "zips": "5345"
 },
 {
   "City-State": "Westminster-VT",
   "id": 1840004339,
   "city": "Westminster",
   "city_ascii": "Westminster",
   "state_id": "VT",
   "City-State": "Westminster-VT",
   "state_name": "Vermont",
   "county_fips": 50025,
   "county_name": "Windham",
   "lat": 43.0739,
   "lng": -72.4551,
   "population": 278,
   "population_proper": 278,
   "density": 80,
   "source": "polygon",
   "incorporated": true,
   "timezone": "America/New_York",
   "zips": "5158"
 },
 {
   "City-State": "Cabot-VT",
   "id": 1840037479,
   "city": "Cabot",
   "city_ascii": "Cabot",
   "state_id": "VT",
   "City-State": "Cabot-VT",
   "state_name": "Vermont",
   "county_fips": 50023,
   "county_name": "Washington",
   "lat": 44.4049,
   "lng": -72.3116,
   "population": null,
   "population_proper": null,
   "density": 121.8,
   "source": "polygon",
   "incorporated": false,
   "timezone": "America/New_York",
   "zips": "5647"
 },
 {
   "City-State": "Danville-VT",
   "id": 1840025346,
   "city": "Danville",
   "city_ascii": "Danville",
   "state_id": "VT",
   "City-State": "Danville-VT",
   "state_name": "Vermont",
   "county_fips": 50005,
   "county_name": "Caledonia",
   "lat": 44.4105,
   "lng": -72.1409,
   "population": null,
   "population_proper": null,
   "density": 239.5,
   "source": "polygon",
   "incorporated": false,
   "timezone": "America/New_York",
   "zips": "5828"
 },
 {
   "City-State": "Fair Haven-VT",
   "id": 1840002634,
   "city": "Fair Haven",
   "city_ascii": "Fair Haven",
   "state_id": "VT",
   "City-State": "Fair Haven-VT",
   "state_name": "Vermont",
   "county_fips": 50021,
   "county_name": "Rutland",
   "lat": 43.5928,
   "lng": -73.2694,
   "population": null,
   "population_proper": null,
   "density": 639.5,
   "source": "polygon",
   "incorporated": false,
   "timezone": "America/New_York",
   "zips": "5743"
 },
 {
   "City-State": "Springfield-VT",
   "id": 1840002599,
   "city": "Springfield",
   "city_ascii": "Springfield",
   "state_id": "VT",
   "City-State": "Springfield-VT",
   "state_name": "Vermont",
   "county_fips": 50027,
   "county_name": "Windsor",
   "lat": 43.2888,
   "lng": -72.4758,
   "population": null,
   "population_proper": null,
   "density": 955.1,
   "source": "polygon",
   "incorporated": false,
   "timezone": "America/New_York",
   "zips": "5156"
 },
 {
   "City-State": "Lowell-VT",
   "id": 1840025333,
   "city": "Lowell",
   "city_ascii": "Lowell",
   "state_id": "VT",
   "City-State": "Lowell-VT",
   "state_name": "Vermont",
   "county_fips": 50019,
   "county_name": "Orleans",
   "lat": 44.7951,
   "lng": -72.4449,
   "population": null,
   "population_proper": null,
   "density": 60,
   "source": "polygon",
   "incorporated": false,
   "timezone": "America/New_York",
   "zips": "5847"
 },
 {
   "City-State": "Old Bennington-VT",
   "id": 1840004302,
   "city": "Old Bennington",
   "city_ascii": "Old Bennington",
   "state_id": "VT",
   "City-State": "Old Bennington-VT",
   "state_name": "Vermont",
   "county_fips": 50003,
   "county_name": "Bennington",
   "lat": 42.8848,
   "lng": -73.2143,
   "population": 137,
   "population_proper": 137,
   "density": 143,
   "source": "polygon",
   "incorporated": true,
   "timezone": "America/New_York",
   "zips": "5201"
 },
 {
   "City-State": "Hartland-VT",
   "id": 1840025406,
   "city": "Hartland",
   "city_ascii": "Hartland",
   "state_id": "VT",
   "City-State": "Hartland-VT",
   "state_name": "Vermont",
   "county_fips": 50027,
   "county_name": "Windsor",
   "lat": 43.5425,
   "lng": -72.4001,
   "population": null,
   "population_proper": null,
   "density": 163.1,
   "source": "polygon",
   "incorporated": false,
   "timezone": "America/New_York",
   "zips": "5048"
 },
 {
   "City-State": "Marshfield-VT",
   "id": 1840004101,
   "city": "Marshfield",
   "city_ascii": "Marshfield",
   "state_id": "VT",
   "City-State": "Marshfield-VT",
   "state_name": "Vermont",
   "county_fips": 50023,
   "county_name": "Washington",
   "lat": 44.3519,
   "lng": -72.3521,
   "population": 261,
   "population_proper": 261,
   "density": 390,
   "source": "polygon",
   "incorporated": true,
   "timezone": "America/New_York",
   "zips": "5658"
 },
 {
   "City-State": "Norwich-VT",
   "id": 1840025409,
   "city": "Norwich",
   "city_ascii": "Norwich",
   "state_id": "VT",
   "City-State": "Norwich-VT",
   "state_name": "Vermont",
   "county_fips": 50027,
   "county_name": "Windsor",
   "lat": 43.7202,
   "lng": -72.3018,
   "population": null,
   "population_proper": null,
   "density": 225.5,
   "source": "polygon",
   "incorporated": false,
   "timezone": "America/New_York",
   "zips": "5055"
 },
 {
   "City-State": "Ascutney-VT",
   "id": 1840025403,
   "city": "Ascutney",
   "city_ascii": "Ascutney",
   "state_id": "VT",
   "City-State": "Ascutney-VT",
   "state_name": "Vermont",
   "county_fips": 50027,
   "county_name": "Windsor",
   "lat": 43.4079,
   "lng": -72.407,
   "population": null,
   "population_proper": null,
   "density": 95.6,
   "source": "polygon",
   "incorporated": false,
   "timezone": "America/New_York",
   "zips": "05151 05089"
 },
 {
   "City-State": "Wells-VT",
   "id": 1840025428,
   "city": "Wells",
   "city_ascii": "Wells",
   "state_id": "VT",
   "City-State": "Wells-VT",
   "state_name": "Vermont",
   "county_fips": 50021,
   "county_name": "Rutland",
   "lat": 43.4209,
   "lng": -73.2074,
   "population": null,
   "population_proper": null,
   "density": 218.5,
   "source": "polygon",
   "incorporated": false,
   "timezone": "America/New_York",
   "zips": "5774"
 },
 {
   "City-State": "North Troy-VT",
   "id": 1840004050,
   "city": "North Troy",
   "city_ascii": "North Troy",
   "state_id": "VT",
   "City-State": "North Troy-VT",
   "state_name": "Vermont",
   "county_fips": 50019,
   "county_name": "Orleans",
   "lat": 44.9963,
   "lng": -72.4038,
   "population": 573,
   "population_proper": 573,
   "density": 118,
   "source": "polygon",
   "incorporated": true,
   "timezone": "America/New_York",
   "zips": "5859"
 },
 {
   "City-State": "Vergennes-VT",
   "id": 1840002218,
   "city": "Vergennes",
   "city_ascii": "Vergennes",
   "state_id": "VT",
   "City-State": "Vergennes-VT",
   "state_name": "Vermont",
   "county_fips": 50001,
   "county_name": "Addison",
   "lat": 44.1664,
   "lng": -73.2555,
   "population": 2602,
   "population_proper": 2599,
   "density": 405,
   "source": "polygon",
   "incorporated": true,
   "timezone": "America/New_York",
   "zips": "5491"
 },
 {
   "City-State": "Jacksonville-VT",
   "id": 1840004335,
   "city": "Jacksonville",
   "city_ascii": "Jacksonville",
   "state_id": "VT",
   "City-State": "Jacksonville-VT",
   "state_name": "Vermont",
   "county_fips": 50025,
   "county_name": "Windham",
   "lat": 42.7976,
   "lng": -72.8192,
   "population": 216,
   "population_proper": 216,
   "density": 73,
   "source": "polygon",
   "incorporated": true,
   "timezone": "America/New_York",
   "zips": "5342"
 },
 {
   "City-State": "Milton-VT",
   "id": 1840002313,
   "city": "Milton",
   "city_ascii": "Milton",
   "state_id": "VT",
   "City-State": "Milton-VT",
   "state_name": "Vermont",
   "county_fips": 50007,
   "county_name": "Chittenden",
   "lat": 44.6352,
   "lng": -73.1155,
   "population": null,
   "population_proper": null,
   "density": 778.7,
   "source": "polygon",
   "incorporated": false,
   "timezone": "America/New_York",
   "zips": "5468"
 },
 {
   "City-State": "Hardwick-VT",
   "id": 1840025349,
   "city": "Hardwick",
   "city_ascii": "Hardwick",
   "state_id": "VT",
   "City-State": "Hardwick-VT",
   "state_name": "Vermont",
   "county_fips": 50005,
   "county_name": "Caledonia",
   "lat": 44.5022,
   "lng": -72.3653,
   "population": null,
   "population_proper": null,
   "density": 888.4,
   "source": "polygon",
   "incorporated": false,
   "timezone": "America/New_York",
   "zips": "5843"
 },
 {
   "City-State": "Swanton-VT",
   "id": 1840004033,
   "city": "Swanton",
   "city_ascii": "Swanton",
   "state_id": "VT",
   "City-State": "Swanton-VT",
   "state_name": "Vermont",
   "county_fips": 50011,
   "county_name": "Franklin",
   "lat": 44.9213,
   "lng": -73.1201,
   "population": 3047,
   "population_proper": 2380,
   "density": 1208,
   "source": "polygon",
   "incorporated": true,
   "timezone": "America/New_York",
   "zips": "5488"
 },
 {
   "City-State": "Coventry-VT",
   "id": 1840025328,
   "city": "Coventry",
   "city_ascii": "Coventry",
   "state_id": "VT",
   "City-State": "Coventry-VT",
   "state_name": "Vermont",
   "county_fips": 50019,
   "county_name": "Orleans",
   "lat": 44.866,
   "lng": -72.2679,
   "population": null,
   "population_proper": null,
   "density": 60.1,
   "source": "polygon",
   "incorporated": false,
   "timezone": "America/New_York",
   "zips": "5825"
 },
 {
   "City-State": "Wilmington-VT",
   "id": 1840025446,
   "city": "Wilmington",
   "city_ascii": "Wilmington",
   "state_id": "VT",
   "City-State": "Wilmington-VT",
   "state_name": "Vermont",
   "county_fips": 50025,
   "county_name": "Windham",
   "lat": 42.8717,
   "lng": -72.8677,
   "population": null,
   "population_proper": null,
   "density": 216.2,
   "source": "polygon",
   "incorporated": false,
   "timezone": "America/New_York",
   "zips": "5363"
 },
 {
   "City-State": "Ludlow-VT",
   "id": 1840004159,
   "city": "Ludlow",
   "city_ascii": "Ludlow",
   "state_id": "VT",
   "City-State": "Ludlow-VT",
   "state_name": "Vermont",
   "county_fips": 50027,
   "county_name": "Windsor",
   "lat": 43.3973,
   "lng": -72.6969,
   "population": 781,
   "population_proper": 781,
   "density": 225,
   "source": "polygon",
   "incorporated": true,
   "timezone": "America/New_York",
   "zips": "5149"
 },
 {
   "City-State": "Bellows Falls-VT",
   "id": 1840004334,
   "city": "Bellows Falls",
   "city_ascii": "Bellows Falls",
   "state_id": "VT",
   "City-State": "Bellows Falls-VT",
   "state_name": "Vermont",
   "county_fips": 50025,
   "county_name": "Windham",
   "lat": 43.1344,
   "lng": -72.455,
   "population": 5473,
   "population_proper": 3016,
   "density": 847,
   "source": "polygon",
   "incorporated": true,
   "timezone": "America/New_York",
   "zips": "5101"
 },
 {
   "City-State": "Bristol-VT",
   "id": 1840002219,
   "city": "Bristol",
   "city_ascii": "Bristol",
   "state_id": "VT",
   "City-State": "Bristol-VT",
   "state_name": "Vermont",
   "county_fips": 50001,
   "county_name": "Addison",
   "lat": 44.1383,
   "lng": -73.0874,
   "population": null,
   "population_proper": null,
   "density": 1019.1,
   "source": "polygon",
   "incorporated": false,
   "timezone": "America/New_York",
   "zips": "5443"
 },
 {
   "City-State": "Richford-VT",
   "id": 1840002268,
   "city": "Richford",
   "city_ascii": "Richford",
   "state_id": "VT",
   "City-State": "Richford-VT",
   "state_name": "Vermont",
   "county_fips": 50011,
   "county_name": "Franklin",
   "lat": 44.9952,
   "lng": -72.6648,
   "population": null,
   "population_proper": null,
   "density": 823,
   "source": "polygon",
   "incorporated": false,
   "timezone": "America/Montreal",
   "zips": "5476"
 },
 {
   "City-State": "Saint Johnsbury-VT",
   "id": 1840002305,
   "city": "Saint Johnsbury",
   "city_ascii": "Saint Johnsbury",
   "state_id": "VT",
   "City-State": "Saint Johnsbury-VT",
   "state_name": "Vermont",
   "county_fips": 50005,
   "county_name": "Caledonia",
   "lat": 44.4287,
   "lng": -72.0116,
   "population": null,
   "population_proper": null,
   "density": 1528.5,
   "source": "polygon",
   "incorporated": false,
   "timezone": "America/New_York",
   "zips": "5819"
 },
 {
   "City-State": "Wallingford-VT",
   "id": 1840002635,
   "city": "Wallingford",
   "city_ascii": "Wallingford",
   "state_id": "VT",
   "City-State": "Wallingford-VT",
   "state_name": "Vermont",
   "county_fips": 50021,
   "county_name": "Rutland",
   "lat": 43.4749,
   "lng": -72.9675,
   "population": null,
   "population_proper": null,
   "density": 549.6,
   "source": "polygon",
   "incorporated": false,
   "timezone": "America/New_York",
   "zips": "5773"
 },
 {
   "City-State": "Pittsford-VT",
   "id": 1840025427,
   "city": "Pittsford",
   "city_ascii": "Pittsford",
   "state_id": "VT",
   "City-State": "Pittsford-VT",
   "state_name": "Vermont",
   "county_fips": 50021,
   "county_name": "Rutland",
   "lat": 43.7068,
   "lng": -73.029,
   "population": null,
   "population_proper": null,
   "density": 138,
   "source": "polygon",
   "incorporated": false,
   "timezone": "America/New_York",
   "zips": "5763"
 },
 {
   "City-State": "Graniteville-VT",
   "id": 1840023973,
   "city": "Graniteville",
   "city_ascii": "Graniteville",
   "state_id": "VT",
   "City-State": "Graniteville-VT",
   "state_name": "Vermont",
   "county_fips": 50023,
   "county_name": "Washington",
   "lat": 44.1463,
   "lng": -72.4818,
   "population": null,
   "population_proper": null,
   "density": 233.7,
   "source": "polygon",
   "incorporated": false,
   "timezone": "America/New_York",
   "zips": "5654"
 },
 {
   "City-State": "Greensboro Bend-VT",
   "id": 1840025331,
   "city": "Greensboro Bend",
   "city_ascii": "Greensboro Bend",
   "state_id": "VT",
   "City-State": "Greensboro Bend-VT",
   "state_name": "Vermont",
   "county_fips": 50019,
   "county_name": "Orleans",
   "lat": 44.5583,
   "lng": -72.2642,
   "population": null,
   "population_proper": null,
   "density": 169,
   "source": "polygon",
   "incorporated": false,
   "timezone": "America/New_York",
   "zips": "5842"
 },
 {
   "City-State": "Randolph-VT",
   "id": 1840025393,
   "city": "Randolph",
   "city_ascii": "Randolph",
   "state_id": "VT",
   "City-State": "Randolph-VT",
   "state_name": "Vermont",
   "county_fips": 50017,
   "county_name": "Orange",
   "lat": 43.9273,
   "lng": -72.6728,
   "population": null,
   "population_proper": null,
   "density": 433.6,
   "source": "polygon",
   "incorporated": false,
   "timezone": "America/New_York",
   "zips": "5060"
 },
 {
   "City-State": "Wells River-VT",
   "id": 1840004132,
   "city": "Wells River",
   "city_ascii": "Wells River",
   "state_id": "VT",
   "City-State": "Wells River-VT",
   "state_name": "Vermont",
   "county_fips": 50017,
   "county_name": "Orange",
   "lat": 44.1537,
   "lng": -72.0617,
   "population": 389,
   "population_proper": 389,
   "density": 80,
   "source": "polygon",
   "incorporated": true,
   "timezone": "America/New_York",
   "zips": "5081"
 }
]