[
 {
   "City-State": "Albany-WY",
   "id": 1840017461,
   "city": "Albany",
   "city_ascii": "Albany",
   "state_id": "WY",
   "City-State": "Albany-WY",
   "state_name": "Wyoming",
   "county_fips": 56001,
   "county_name": "Albany",
   "lat": 41.1868,
   "lng": -106.1255,
   "population": null,
   "population_proper": null,
   "density": 3.9,
   "source": "polygon",
   "incorporated": false,
   "timezone": "America/Denver",
   "zips": "82070"
 },
 {
   "City-State": "Wilson-WY",
   "id": 1840018612,
   "city": "Wilson",
   "city_ascii": "Wilson",
   "state_id": "WY",
   "City-State": "Wilson-WY",
   "state_name": "Wyoming",
   "county_fips": 56039,
   "county_name": "Teton",
   "lat": 43.486,
   "lng": -110.8937,
   "population": null,
   "population_proper": null,
   "density": 22.4,
   "source": "polygon",
   "incorporated": false,
   "timezone": "America/Denver",
   "zips": "83014"
 },
 {
   "City-State": "Natrona-WY",
   "id": 1840038376,
   "city": "Natrona",
   "city_ascii": "Natrona",
   "state_id": "WY",
   "City-State": "Natrona-WY",
   "state_name": "Wyoming",
   "county_fips": 56025,
   "county_name": "Natrona",
   "lat": 43.0297,
   "lng": -106.8092,
   "population": null,
   "population_proper": null,
   "density": 1.7,
   "source": "point",
   "incorporated": false,
   "timezone": "America/Denver",
   "zips": "82646"
 },
 {
   "City-State": "Greybull-WY",
   "id": 1840021241,
   "city": "Greybull",
   "city_ascii": "Greybull",
   "state_id": "WY",
   "City-State": "Greybull-WY",
   "state_name": "Wyoming",
   "county_fips": 56003,
   "county_name": "Big Horn",
   "lat": 44.4888,
   "lng": -108.0592,
   "population": 1872,
   "population_proper": 1872,
   "density": 382,
   "source": "polygon",
   "incorporated": true,
   "timezone": "America/Denver",
   "zips": "82426"
 },
 {
   "City-State": "Frontier-WY",
   "id": 1840038328,
   "city": "Frontier",
   "city_ascii": "Frontier",
   "state_id": "WY",
   "City-State": "Frontier-WY",
   "state_name": "Wyoming",
   "county_fips": 56023,
   "county_name": "Lincoln",
   "lat": 41.8141,
   "lng": -110.5371,
   "population": null,
   "population_proper": null,
   "density": 21.5,
   "source": "point",
   "incorporated": false,
   "timezone": "America/Denver",
   "zips": "83121"
 },
 {
   "City-State": "Worland-WY",
   "id": 1840021266,
   "city": "Worland",
   "city_ascii": "Worland",
   "state_id": "WY",
   "City-State": "Worland-WY",
   "state_name": "Wyoming",
   "county_fips": 56043,
   "county_name": "Washakie",
   "lat": 44.0026,
   "lng": -107.9543,
   "population": 5294,
   "population_proper": 5316,
   "density": 450,
   "source": "polygon",
   "incorporated": true,
   "timezone": "America/Denver",
   "zips": "82401"
 },
 {
   "City-State": "Brookhurst-WY",
   "id": 1840017446,
   "city": "Brookhurst",
   "city_ascii": "Brookhurst",
   "state_id": "WY",
   "City-State": "Brookhurst-WY",
   "state_name": "Wyoming",
   "county_fips": 56025,
   "county_name": "Natrona",
   "lat": 42.8618,
   "lng": -106.2272,
   "population": null,
   "population_proper": null,
   "density": 3.7,
   "source": "polygon",
   "incorporated": false,
   "timezone": "America/Denver",
   "zips": "82636"
 },
 {
   "City-State": "Reliance-WY",
   "id": 1840018692,
   "city": "Reliance",
   "city_ascii": "Reliance",
   "state_id": "WY",
   "City-State": "Reliance-WY",
   "state_name": "Wyoming",
   "county_fips": 56037,
   "county_name": "Sweetwater",
   "lat": 41.6682,
   "lng": -109.1977,
   "population": null,
   "population_proper": null,
   "density": 221.5,
   "source": "polygon",
   "incorporated": false,
   "timezone": "America/Denver",
   "zips": "82943 82901"
 },
 {
   "City-State": "Medicine Bow-WY",
   "id": 1840022370,
   "city": "Medicine Bow",
   "city_ascii": "Medicine Bow",
   "state_id": "WY",
   "City-State": "Medicine Bow-WY",
   "state_name": "Wyoming",
   "county_fips": 56007,
   "county_name": "Carbon",
   "lat": 41.8996,
   "lng": -106.2019,
   "population": 270,
   "population_proper": 270,
   "density": 30,
   "source": "polygon",
   "incorporated": true,
   "timezone": "America/Denver",
   "zips": "82329"
 },
 {
   "City-State": "Afton-WY",
   "id": 1840021291,
   "city": "Afton",
   "city_ascii": "Afton",
   "state_id": "WY",
   "City-State": "Afton-WY",
   "state_name": "Wyoming",
   "county_fips": 56023,
   "county_name": "Lincoln",
   "lat": 42.7295,
   "lng": -110.9317,
   "population": 1995,
   "population_proper": 1995,
   "density": 183,
   "source": "polygon",
   "incorporated": true,
   "timezone": "America/Denver",
   "zips": "83110"
 },
 {
   "City-State": "Daniel-WY",
   "id": 1840018659,
   "city": "Daniel",
   "city_ascii": "Daniel",
   "state_id": "WY",
   "City-State": "Daniel-WY",
   "state_name": "Wyoming",
   "county_fips": 56035,
   "county_name": "Sublette",
   "lat": 42.8658,
   "lng": -110.0767,
   "population": null,
   "population_proper": null,
   "density": 28.6,
   "source": "polygon",
   "incorporated": false,
   "timezone": "America/Denver",
   "zips": "83115"
 },
 {
   "City-State": "Dixon-WY",
   "id": 1840021310,
   "city": "Dixon",
   "city_ascii": "Dixon",
   "state_id": "WY",
   "City-State": "Dixon-WY",
   "state_name": "Wyoming",
   "county_fips": 56007,
   "county_name": "Carbon",
   "lat": 41.0345,
   "lng": -107.5355,
   "population": 95,
   "population_proper": 95,
   "density": 279,
   "source": "polygon",
   "incorporated": true,
   "timezone": "America/Denver",
   "zips": "82323"
 },
 {
   "City-State": "Fort Laramie-WY",
   "id": 1840021303,
   "city": "Fort Laramie",
   "city_ascii": "Fort Laramie",
   "state_id": "WY",
   "City-State": "Fort Laramie-WY",
   "state_name": "Wyoming",
   "county_fips": 56015,
   "county_name": "Goshen",
   "lat": 42.2134,
   "lng": -104.5178,
   "population": 222,
   "population_proper": 222,
   "density": 321,
   "source": "polygon",
   "incorporated": true,
   "timezone": "America/Denver",
   "zips": "82212"
 },
 {
   "City-State": "Ethete-WY",
   "id": 1840017435,
   "city": "Ethete",
   "city_ascii": "Ethete",
   "state_id": "WY",
   "City-State": "Ethete-WY",
   "state_name": "Wyoming",
   "county_fips": 56013,
   "county_name": "Fremont",
   "lat": 43.0008,
   "lng": -108.723,
   "population": null,
   "population_proper": null,
   "density": 23.2,
   "source": "polygon",
   "incorporated": false,
   "timezone": "America/Denver",
   "zips": "82510 82520"
 },
 {
   "City-State": "Powell-WY",
   "id": 1840019976,
   "city": "Powell",
   "city_ascii": "Powell",
   "state_id": "WY",
   "City-State": "Powell-WY",
   "state_name": "Wyoming",
   "county_fips": 56029,
   "county_name": "Park",
   "lat": 44.7962,
   "lng": -108.7682,
   "population": 6483,
   "population_proper": 6407,
   "density": 583,
   "source": "polygon",
   "incorporated": true,
   "timezone": "America/Denver",
   "zips": "82435"
 },
 {
   "City-State": "Arrowhead Springs-WY",
   "id": 1840038423,
   "city": "Arrowhead Springs",
   "city_ascii": "Arrowhead Springs",
   "state_id": "WY",
   "City-State": "Arrowhead Springs-WY",
   "state_name": "Wyoming",
   "county_fips": 56037,
   "county_name": "Sweetwater",
   "lat": 41.5081,
   "lng": -109.1551,
   "population": null,
   "population_proper": null,
   "density": 20.8,
   "source": "polygon",
   "incorporated": false,
   "timezone": "America/Denver",
   "zips": "82901"
 },
 {
   "City-State": "Homa Hills-WY",
   "id": 1840038431,
   "city": "Homa Hills",
   "city_ascii": "Homa Hills",
   "state_id": "WY",
   "City-State": "Homa Hills-WY",
   "state_name": "Wyoming",
   "county_fips": 56025,
   "county_name": "Natrona",
   "lat": 42.9857,
   "lng": -106.3719,
   "population": null,
   "population_proper": null,
   "density": 38.3,
   "source": "polygon",
   "incorporated": false,
   "timezone": "America/Denver",
   "zips": "82601"
 },
 {
   "City-State": "Encampment-WY",
   "id": 1840021313,
   "city": "Encampment",
   "city_ascii": "Encampment",
   "state_id": "WY",
   "City-State": "Encampment-WY",
   "state_name": "Wyoming",
   "county_fips": 56007,
   "county_name": "Carbon",
   "lat": 41.2088,
   "lng": -106.7948,
   "population": 442,
   "population_proper": 442,
   "density": 106,
   "source": "polygon",
   "incorporated": true,
   "timezone": "America/Denver",
   "zips": "82325"
 },
 {
   "City-State": "Pine Haven-WY",
   "id": 1840022347,
   "city": "Pine Haven",
   "city_ascii": "Pine Haven",
   "state_id": "WY",
   "City-State": "Pine Haven-WY",
   "state_name": "Wyoming",
   "county_fips": 56011,
   "county_name": "Crook",
   "lat": 44.3534,
   "lng": -104.8104,
   "population": 526,
   "population_proper": 526,
   "density": 155,
   "source": "polygon",
   "incorporated": true,
   "timezone": "America/Denver",
   "zips": "82721"
 },
 {
   "City-State": "South Superior-WY",
   "id": 1840038347,
   "city": "South Superior",
   "city_ascii": "South Superior",
   "state_id": "WY",
   "City-State": "South Superior-WY",
   "state_name": "Wyoming",
   "county_fips": 56037,
   "county_name": "Sweetwater",
   "lat": 41.7619,
   "lng": -108.9668,
   "population": null,
   "population_proper": null,
   "density": 185.2,
   "source": "point",
   "incorporated": true,
   "timezone": "America/Denver",
   "zips": "82945"
 },
 {
   "City-State": "Shell-WY",
   "id": 1840026119,
   "city": "Shell",
   "city_ascii": "Shell",
   "state_id": "WY",
   "City-State": "Shell-WY",
   "state_name": "Wyoming",
   "county_fips": 56003,
   "county_name": "Big Horn",
   "lat": 44.5346,
   "lng": -107.7843,
   "population": null,
   "population_proper": null,
   "density": 44,
   "source": "polygon",
   "incorporated": false,
   "timezone": "America/Denver",
   "zips": "82441"
 },
 {
   "City-State": "Arlington-WY",
   "id": 1840026207,
   "city": "Arlington",
   "city_ascii": "Arlington",
   "state_id": "WY",
   "City-State": "Arlington-WY",
   "state_name": "Wyoming",
   "county_fips": 56007,
   "county_name": "Carbon",
   "lat": 41.6052,
   "lng": -106.1999,
   "population": null,
   "population_proper": null,
   "density": 1.6,
   "source": "polygon",
   "incorporated": false,
   "timezone": "America/Denver",
   "zips": "82083"
 },
 {
   "City-State": "Lyman-WY",
   "id": 1840021340,
   "city": "Lyman",
   "city_ascii": "Lyman",
   "state_id": "WY",
   "City-State": "Lyman-WY",
   "state_name": "Wyoming",
   "county_fips": 56041,
   "county_name": "Uinta",
   "lat": 41.3275,
   "lng": -110.2975,
   "population": 2072,
   "population_proper": 2072,
   "density": 514,
   "source": "polygon",
   "incorporated": true,
   "timezone": "America/Denver",
   "zips": "82937"
 },
 {
   "City-State": "Kirby-WY",
   "id": 1840021268,
   "city": "Kirby",
   "city_ascii": "Kirby",
   "state_id": "WY",
   "City-State": "Kirby-WY",
   "state_name": "Wyoming",
   "county_fips": 56017,
   "county_name": "Hot Springs",
   "lat": 43.8031,
   "lng": -108.1811,
   "population": 91,
   "population_proper": 91,
   "density": 235,
   "source": "polygon",
   "incorporated": true,
   "timezone": "America/Denver",
   "zips": "82443 82430"
 },
 {
   "City-State": "Foxpark-WY",
   "id": 1840038401,
   "city": "Foxpark",
   "city_ascii": "Foxpark",
   "state_id": "WY",
   "City-State": "Foxpark-WY",
   "state_name": "Wyoming",
   "county_fips": 56001,
   "county_name": "Albany",
   "lat": 41.0794,
   "lng": -106.1525,
   "population": null,
   "population_proper": null,
   "density": 31.4,
   "source": "point",
   "incorporated": false,
   "timezone": "America/Denver",
   "zips": "82070"
 },
 {
   "City-State": "Fontenelle-WY",
   "id": 1840017454,
   "city": "Fontenelle",
   "city_ascii": "Fontenelle",
   "state_id": "WY",
   "City-State": "Fontenelle-WY",
   "state_name": "Wyoming",
   "county_fips": 56023,
   "county_name": "Lincoln",
   "lat": 41.9973,
   "lng": -110.0626,
   "population": null,
   "population_proper": null,
   "density": 8.4,
   "source": "polygon",
   "incorporated": false,
   "timezone": "America/Denver",
   "zips": "83101"
 },
 {
   "City-State": "Upton-WY",
   "id": 1840022351,
   "city": "Upton",
   "city_ascii": "Upton",
   "state_id": "WY",
   "City-State": "Upton-WY",
   "state_name": "Wyoming",
   "county_fips": 56045,
   "county_name": "Weston",
   "lat": 44.1025,
   "lng": -104.6376,
   "population": 1106,
   "population_proper": 1106,
   "density": 144,
   "source": "polygon",
   "incorporated": true,
   "timezone": "America/Denver",
   "zips": "82730"
 },
 {
   "City-State": "Meeteetse-WY",
   "id": 1840022341,
   "city": "Meeteetse",
   "city_ascii": "Meeteetse",
   "state_id": "WY",
   "City-State": "Meeteetse-WY",
   "state_name": "Wyoming",
   "county_fips": 56029,
   "county_name": "Park",
   "lat": 44.1545,
   "lng": -108.8608,
   "population": 327,
   "population_proper": 327,
   "density": 144,
   "source": "polygon",
   "incorporated": true,
   "timezone": "America/Denver",
   "zips": "82433"
 },
 {
   "City-State": "Parkman-WY",
   "id": 1840018596,
   "city": "Parkman",
   "city_ascii": "Parkman",
   "state_id": "WY",
   "City-State": "Parkman-WY",
   "state_name": "Wyoming",
   "county_fips": 56033,
   "county_name": "Sheridan",
   "lat": 44.9488,
   "lng": -107.3077,
   "population": null,
   "population_proper": null,
   "density": 18.4,
   "source": "polygon",
   "incorporated": false,
   "timezone": "America/Denver",
   "zips": "82838"
 },
 {
   "City-State": "Beulah-WY",
   "id": 1840023930,
   "city": "Beulah",
   "city_ascii": "Beulah",
   "state_id": "WY",
   "City-State": "Beulah-WY",
   "state_name": "Wyoming",
   "county_fips": 56011,
   "county_name": "Crook",
   "lat": 44.546,
   "lng": -104.0826,
   "population": null,
   "population_proper": null,
   "density": 83.3,
   "source": "polygon",
   "incorporated": false,
   "timezone": "America/Denver",
   "zips": "82712"
 },
 {
   "City-State": "Granger-WY",
   "id": 1840021317,
   "city": "Granger",
   "city_ascii": "Granger",
   "state_id": "WY",
   "City-State": "Granger-WY",
   "state_name": "Wyoming",
   "county_fips": 56037,
   "county_name": "Sweetwater",
   "lat": 41.597,
   "lng": -109.9627,
   "population": 137,
   "population_proper": 137,
   "density": 20,
   "source": "polygon",
   "incorporated": true,
   "timezone": "America/Denver",
   "zips": "82934"
 },
 {
   "City-State": "Burns-WY",
   "id": 1840021338,
   "city": "Burns",
   "city_ascii": "Burns",
   "state_id": "WY",
   "City-State": "Burns-WY",
   "state_name": "Wyoming",
   "county_fips": 56021,
   "county_name": "Laramie",
   "lat": 41.1909,
   "lng": -104.359,
   "population": 305,
   "population_proper": 305,
   "density": 38,
   "source": "polygon",
   "incorporated": true,
   "timezone": "America/Denver",
   "zips": "82053"
 },
 {
   "City-State": "Natwick-WY",
   "id": 1840038377,
   "city": "Natwick",
   "city_ascii": "Natwick",
   "state_id": "WY",
   "City-State": "Natwick-WY",
   "state_name": "Wyoming",
   "county_fips": 56031,
   "county_name": "Platte",
   "lat": 41.9608,
   "lng": -105.0566,
   "population": null,
   "population_proper": null,
   "density": 7.3,
   "source": "point",
   "incorporated": false,
   "timezone": "America/Denver",
   "zips": "82201"
 },
 {
   "City-State": "Bessemer Bend-WY",
   "id": 1840038424,
   "city": "Bessemer Bend",
   "city_ascii": "Bessemer Bend",
   "state_id": "WY",
   "City-State": "Bessemer Bend-WY",
   "state_name": "Wyoming",
   "county_fips": 56025,
   "county_name": "Natrona",
   "lat": 42.7576,
   "lng": -106.5237,
   "population": null,
   "population_proper": null,
   "density": 49.4,
   "source": "polygon",
   "incorporated": false,
   "timezone": "America/Denver",
   "zips": "82604"
 },
 {
   "City-State": "South Park-WY",
   "id": 1840038436,
   "city": "South Park",
   "city_ascii": "South Park",
   "state_id": "WY",
   "City-State": "South Park-WY",
   "state_name": "Wyoming",
   "county_fips": 56039,
   "county_name": "Teton",
   "lat": 43.4235,
   "lng": -110.7993,
   "population": null,
   "population_proper": null,
   "density": 152.3,
   "source": "polygon",
   "incorporated": false,
   "timezone": "America/Denver",
   "zips": "83001"
 },
 {
   "City-State": "Yoder-WY",
   "id": 1840022366,
   "city": "Yoder",
   "city_ascii": "Yoder",
   "state_id": "WY",
   "City-State": "Yoder-WY",
   "state_name": "Wyoming",
   "county_fips": 56015,
   "county_name": "Goshen",
   "lat": 41.917,
   "lng": -104.2955,
   "population": 159,
   "population_proper": 159,
   "density": 288,
   "source": "polygon",
   "incorporated": true,
   "timezone": "America/Denver",
   "zips": "82244"
 },
 {
   "City-State": "Bedford-WY",
   "id": 1840017451,
   "city": "Bedford",
   "city_ascii": "Bedford",
   "state_id": "WY",
   "City-State": "Bedford-WY",
   "state_name": "Wyoming",
   "county_fips": 56023,
   "county_name": "Lincoln",
   "lat": 42.8983,
   "lng": -110.9432,
   "population": null,
   "population_proper": null,
   "density": 18.9,
   "source": "polygon",
   "incorporated": false,
   "timezone": "America/Denver",
   "zips": "83127 83112"
 },
 {
   "City-State": "South Greeley-WY",
   "id": 1840038443,
   "city": "South Greeley",
   "city_ascii": "South Greeley",
   "state_id": "WY",
   "City-State": "South Greeley-WY",
   "state_name": "Wyoming",
   "county_fips": 56021,
   "county_name": "Laramie",
   "lat": 41.0933,
   "lng": -104.8067,
   "population": null,
   "population_proper": null,
   "density": 2014.8,
   "source": "polygon",
   "incorporated": false,
   "timezone": "America/Denver",
   "zips": "82007"
 },
 {
   "City-State": "Linch-WY",
   "id": 1840038333,
   "city": "Linch",
   "city_ascii": "Linch",
   "state_id": "WY",
   "City-State": "Linch-WY",
   "state_name": "Wyoming",
   "county_fips": 56019,
   "county_name": "Johnson",
   "lat": 43.6064,
   "lng": -106.1961,
   "population": null,
   "population_proper": null,
   "density": 6.9,
   "source": "point",
   "incorporated": false,
   "timezone": "America/Denver",
   "zips": "82640"
 },
 {
   "City-State": "Boysen-WY",
   "id": 1840038360,
   "city": "Boysen",
   "city_ascii": "Boysen",
   "state_id": "WY",
   "City-State": "Boysen-WY",
   "state_name": "Wyoming",
   "county_fips": 56013,
   "county_name": "Fremont",
   "lat": 43.4416,
   "lng": -108.1732,
   "population": null,
   "population_proper": null,
   "density": 1.3,
   "source": "point",
   "incorporated": false,
   "timezone": "America/Denver",
   "zips": "82649"
 },
 {
   "City-State": "Saratoga-WY",
   "id": 1840022371,
   "city": "Saratoga",
   "city_ascii": "Saratoga",
   "state_id": "WY",
   "City-State": "Saratoga-WY",
   "state_name": "Wyoming",
   "county_fips": 56007,
   "county_name": "Carbon",
   "lat": 41.4517,
   "lng": -106.8107,
   "population": 1686,
   "population_proper": 1686,
   "density": 191,
   "source": "polygon",
   "incorporated": true,
   "timezone": "America/Denver",
   "zips": "82331"
 },
 {
   "City-State": "Opal-WY",
   "id": 1840022362,
   "city": "Opal",
   "city_ascii": "Opal",
   "state_id": "WY",
   "City-State": "Opal-WY",
   "state_name": "Wyoming",
   "county_fips": 56023,
   "county_name": "Lincoln",
   "lat": 41.768,
   "lng": -110.324,
   "population": 105,
   "population_proper": 105,
   "density": 102,
   "source": "polygon",
   "incorporated": true,
   "timezone": "America/Denver",
   "zips": "83124"
 },
 {
   "City-State": "McKinnon-WY",
   "id": 1840017464,
   "city": "McKinnon",
   "city_ascii": "McKinnon",
   "state_id": "WY",
   "City-State": "McKinnon-WY",
   "state_name": "Wyoming",
   "county_fips": 56037,
   "county_name": "Sweetwater",
   "lat": 41.0314,
   "lng": -109.9384,
   "population": null,
   "population_proper": null,
   "density": 5.5,
   "source": "polygon",
   "incorporated": false,
   "timezone": "America/Denver",
   "zips": "82938"
 },
 {
   "City-State": "Hiland-WY",
   "id": 1840038412,
   "city": "Hiland",
   "city_ascii": "Hiland",
   "state_id": "WY",
   "City-State": "Hiland-WY",
   "state_name": "Wyoming",
   "county_fips": 56025,
   "county_name": "Natrona",
   "lat": 43.1152,
   "lng": -107.349,
   "population": null,
   "population_proper": null,
   "density": 1.3,
   "source": "point",
   "incorporated": false,
   "timezone": "America/Denver",
   "zips": "82638"
 },
 {
   "City-State": "Big Horn-WY",
   "id": 1840017428,
   "city": "Big Horn",
   "city_ascii": "Big Horn",
   "state_id": "WY",
   "City-State": "Big Horn-WY",
   "state_name": "Wyoming",
   "county_fips": 56033,
   "county_name": "Sheridan",
   "lat": 44.6791,
   "lng": -106.9971,
   "population": null,
   "population_proper": null,
   "density": 195,
   "source": "polygon",
   "incorporated": false,
   "timezone": "America/Denver",
   "zips": "82801"
 },
 {
   "City-State": "Alta-WY",
   "id": 1840017429,
   "city": "Alta",
   "city_ascii": "Alta",
   "state_id": "WY",
   "City-State": "Alta-WY",
   "state_name": "Wyoming",
   "county_fips": 56039,
   "county_name": "Teton",
   "lat": 43.7737,
   "lng": -111.0312,
   "population": null,
   "population_proper": null,
   "density": 52.3,
   "source": "polygon",
   "incorporated": false,
   "timezone": "America/Denver",
   "zips": "83414"
 },
 {
   "City-State": "Carlile-WY",
   "id": 1840038365,
   "city": "Carlile",
   "city_ascii": "Carlile",
   "state_id": "WY",
   "City-State": "Carlile-WY",
   "state_name": "Wyoming",
   "county_fips": 56011,
   "county_name": "Crook",
   "lat": 44.4869,
   "lng": -104.8014,
   "population": null,
   "population_proper": null,
   "density": 1.1,
   "source": "point",
   "incorporated": false,
   "timezone": "America/Denver",
   "zips": "82721"
 },
 {
   "City-State": "Lysite-WY",
   "id": 1840038414,
   "city": "Lysite",
   "city_ascii": "Lysite",
   "state_id": "WY",
   "City-State": "Lysite-WY",
   "state_name": "Wyoming",
   "county_fips": 56013,
   "county_name": "Fremont",
   "lat": 43.268,
   "lng": -107.6904,
   "population": null,
   "population_proper": null,
   "density": 32.4,
   "source": "point",
   "incorporated": false,
   "timezone": "America/Denver",
   "zips": "82642"
 },
 {
   "City-State": "Green River-WY",
   "id": 1840020100,
   "city": "Green River",
   "city_ascii": "Green River",
   "state_id": "WY",
   "City-State": "Green River-WY",
   "state_name": "Wyoming",
   "county_fips": 56037,
   "county_name": "Sweetwater",
   "lat": 41.5124,
   "lng": -109.4708,
   "population": 12458,
   "population_proper": 12305,
   "density": 346,
   "source": "polygon",
   "incorporated": true,
   "timezone": "America/Denver",
   "zips": "82935"
 },
 {
   "City-State": "Torrington-WY",
   "id": 1840021302,
   "city": "Torrington",
   "city_ascii": "Torrington",
   "state_id": "WY",
   "City-State": "Torrington-WY",
   "state_name": "Wyoming",
   "county_fips": 56015,
   "county_name": "Goshen",
   "lat": 42.0658,
   "lng": -104.1621,
   "population": 7389,
   "population_proper": 6715,
   "density": 561,
   "source": "polygon",
   "incorporated": true,
   "timezone": "America/Denver",
   "zips": "82240"
 },
 {
   "City-State": "Cowley-WY",
   "id": 1840021239,
   "city": "Cowley",
   "city_ascii": "Cowley",
   "state_id": "WY",
   "City-State": "Cowley-WY",
   "state_name": "Wyoming",
   "county_fips": 56003,
   "county_name": "Big Horn",
   "lat": 44.8835,
   "lng": -108.4694,
   "population": 745,
   "population_proper": 745,
   "density": 339,
   "source": "polygon",
   "incorporated": true,
   "timezone": "America/Denver",
   "zips": "82420"
 },
 {
   "City-State": "Burntfork-WY",
   "id": 1840038323,
   "city": "Burntfork",
   "city_ascii": "Burntfork",
   "state_id": "WY",
   "City-State": "Burntfork-WY",
   "state_name": "Wyoming",
   "county_fips": 56037,
   "county_name": "Sweetwater",
   "lat": 41.0291,
   "lng": -110.0043,
   "population": null,
   "population_proper": null,
   "density": 4.5,
   "source": "point",
   "incorporated": false,
   "timezone": "America/Denver",
   "zips": "82938"
 },
 {
   "City-State": "Bosler-WY",
   "id": 1840038321,
   "city": "Bosler",
   "city_ascii": "Bosler",
   "state_id": "WY",
   "City-State": "Bosler-WY",
   "state_name": "Wyoming",
   "county_fips": 56001,
   "county_name": "Albany",
   "lat": 41.5761,
   "lng": -105.6953,
   "population": null,
   "population_proper": null,
   "density": 3.1,
   "source": "point",
   "incorporated": false,
   "timezone": "America/Denver",
   "zips": "82051"
 },
 {
   "City-State": "Wolf-WY",
   "id": 1840024503,
   "city": "Wolf",
   "city_ascii": "Wolf",
   "state_id": "WY",
   "City-State": "Wolf-WY",
   "state_name": "Wyoming",
   "county_fips": 56033,
   "county_name": "Sheridan",
   "lat": 44.7716,
   "lng": -107.239,
   "population": null,
   "population_proper": null,
   "density": 19.9,
   "source": "point",
   "incorporated": false,
   "timezone": "America/Denver",
   "zips": "82834"
 },
 {
   "City-State": "Sinclair-WY",
   "id": 1840022372,
   "city": "Sinclair",
   "city_ascii": "Sinclair",
   "state_id": "WY",
   "City-State": "Sinclair-WY",
   "state_name": "Wyoming",
   "county_fips": 56007,
   "county_name": "Carbon",
   "lat": 41.7761,
   "lng": -107.1199,
   "population": 415,
   "population_proper": 415,
   "density": 65,
   "source": "polygon",
   "incorporated": true,
   "timezone": "America/Denver",
   "zips": "82334"
 },
 {
   "City-State": "Lance Creek-WY",
   "id": 1840017443,
   "city": "Lance Creek",
   "city_ascii": "Lance Creek",
   "state_id": "WY",
   "City-State": "Lance Creek-WY",
   "state_name": "Wyoming",
   "county_fips": 56027,
   "county_name": "Niobrara",
   "lat": 43.041,
   "lng": -104.6626,
   "population": null,
   "population_proper": null,
   "density": 11.7,
   "source": "polygon",
   "incorporated": false,
   "timezone": "America/Denver",
   "zips": "82225 82224 82222"
 },
 {
   "City-State": "Meadow Acres-WY",
   "id": 1840038433,
   "city": "Meadow Acres",
   "city_ascii": "Meadow Acres",
   "state_id": "WY",
   "City-State": "Meadow Acres-WY",
   "state_name": "Wyoming",
   "county_fips": 56025,
   "county_name": "Natrona",
   "lat": 42.8593,
   "lng": -106.0954,
   "population": null,
   "population_proper": null,
   "density": 28.5,
   "source": "polygon",
   "incorporated": false,
   "timezone": "America/Denver",
   "zips": "82636"
 },
 {
   "City-State": "Dubois-WY",
   "id": 1840021269,
   "city": "Dubois",
   "city_ascii": "Dubois",
   "state_id": "WY",
   "City-State": "Dubois-WY",
   "state_name": "Wyoming",
   "county_fips": 56013,
   "county_name": "Fremont",
   "lat": 43.5389,
   "lng": -109.6443,
   "population": 985,
   "population_proper": 985,
   "density": 109,
   "source": "polygon",
   "incorporated": true,
   "timezone": "America/Denver",
   "zips": "82513"
 },
 {
   "City-State": "Lingle-WY",
   "id": 1840021305,
   "city": "Lingle",
   "city_ascii": "Lingle",
   "state_id": "WY",
   "City-State": "Lingle-WY",
   "state_name": "Wyoming",
   "county_fips": 56015,
   "county_name": "Goshen",
   "lat": 42.1388,
   "lng": -104.3461,
   "population": 459,
   "population_proper": 459,
   "density": 569,
   "source": "polygon",
   "incorporated": true,
   "timezone": "America/Denver",
   "zips": "82223"
 },
 {
   "City-State": "North Rock Springs-WY",
   "id": 1840018691,
   "city": "North Rock Springs",
   "city_ascii": "North Rock Springs",
   "state_id": "WY",
   "City-State": "North Rock Springs-WY",
   "state_name": "Wyoming",
   "county_fips": 56037,
   "county_name": "Sweetwater",
   "lat": 41.6697,
   "lng": -109.2714,
   "population": null,
   "population_proper": null,
   "density": 486.6,
   "source": "polygon",
   "incorporated": false,
   "timezone": "America/Denver",
   "zips": "82901"
 },
 {
   "City-State": "Little America-WY",
   "id": 1840018690,
   "city": "Little America",
   "city_ascii": "Little America",
   "state_id": "WY",
   "City-State": "Little America-WY",
   "state_name": "Wyoming",
   "county_fips": 56037,
   "county_name": "Sweetwater",
   "lat": 41.547,
   "lng": -109.8642,
   "population": null,
   "population_proper": null,
   "density": 28.3,
   "source": "polygon",
   "incorporated": false,
   "timezone": "America/Denver",
   "zips": "82929"
 },
 {
   "City-State": "Osmond-WY",
   "id": 1840024048,
   "city": "Osmond",
   "city_ascii": "Osmond",
   "state_id": "WY",
   "City-State": "Osmond-WY",
   "state_name": "Wyoming",
   "county_fips": 56023,
   "county_name": "Lincoln",
   "lat": 42.6779,
   "lng": -110.9406,
   "population": null,
   "population_proper": null,
   "density": 220.6,
   "source": "polygon",
   "incorporated": false,
   "timezone": "America/Denver",
   "zips": "83110"
 },
 {
   "City-State": "Sundance-WY",
   "id": 1840022348,
   "city": "Sundance",
   "city_ascii": "Sundance",
   "state_id": "WY",
   "City-State": "Sundance-WY",
   "state_name": "Wyoming",
   "county_fips": 56011,
   "county_name": "Crook",
   "lat": 44.4048,
   "lng": -104.3624,
   "population": 1279,
   "population_proper": 1279,
   "density": 161,
   "source": "polygon",
   "incorporated": true,
   "timezone": "America/Denver",
   "zips": "82729"
 },
 {
   "City-State": "Clearview Acres-WY",
   "id": 1840038428,
   "city": "Clearview Acres",
   "city_ascii": "Clearview Acres",
   "state_id": "WY",
   "City-State": "Clearview Acres-WY",
   "state_name": "Wyoming",
   "county_fips": 56037,
   "county_name": "Sweetwater",
   "lat": 41.5842,
   "lng": -109.28,
   "population": null,
   "population_proper": null,
   "density": 858.5,
   "source": "polygon",
   "incorporated": false,
   "timezone": "America/Denver",
   "zips": "82901"
 },
 {
   "City-State": "Whiting-WY",
   "id": 1840038392,
   "city": "Whiting",
   "city_ascii": "Whiting",
   "state_id": "WY",
   "City-State": "Whiting-WY",
   "state_name": "Wyoming",
   "county_fips": 56031,
   "county_name": "Platte",
   "lat": 42.0089,
   "lng": -104.9711,
   "population": null,
   "population_proper": null,
   "density": 41.5,
   "source": "polygon",
   "incorporated": false,
   "timezone": "America/Denver",
   "zips": "82201"
 },
 {
   "City-State": "Sunrise-WY",
   "id": 1840038349,
   "city": "Sunrise",
   "city_ascii": "Sunrise",
   "state_id": "WY",
   "City-State": "Sunrise-WY",
   "state_name": "Wyoming",
   "county_fips": 56031,
   "county_name": "Platte",
   "lat": 42.3302,
   "lng": -104.7055,
   "population": null,
   "population_proper": null,
   "density": 1.2,
   "source": "point",
   "incorporated": false,
   "timezone": "America/Denver",
   "zips": "82215"
 },
 {
   "City-State": "Antelope Hills-WY",
   "id": 1840038422,
   "city": "Antelope Hills",
   "city_ascii": "Antelope Hills",
   "state_id": "WY",
   "City-State": "Antelope Hills-WY",
   "state_name": "Wyoming",
   "county_fips": 56025,
   "county_name": "Natrona",
   "lat": 43.0813,
   "lng": -106.3117,
   "population": null,
   "population_proper": null,
   "density": 10.4,
   "source": "polygon",
   "incorporated": false,
   "timezone": "America/Denver",
   "zips": "82601"
 },
 {
   "City-State": "Jackson-WY",
   "id": 1840021258,
   "city": "Jackson",
   "city_ascii": "Jackson",
   "state_id": "WY",
   "City-State": "Jackson-WY",
   "state_name": "Wyoming",
   "county_fips": 56039,
   "county_name": "Teton",
   "lat": 43.4723,
   "lng": -110.774,
   "population": 12540,
   "population_proper": 10529,
   "density": 1396,
   "source": "polygon",
   "incorporated": true,
   "timezone": "America/Denver",
   "zips": "83001 83002"
 },
 {
   "City-State": "Aladdin-WY",
   "id": 1840038356,
   "city": "Aladdin",
   "city_ascii": "Aladdin",
   "state_id": "WY",
   "City-State": "Aladdin-WY",
   "state_name": "Wyoming",
   "county_fips": 56011,
   "county_name": "Crook",
   "lat": 44.64,
   "lng": -104.1836,
   "population": null,
   "population_proper": null,
   "density": 7.2,
   "source": "point",
   "incorporated": false,
   "timezone": "America/Denver",
   "zips": "82710"
 },
 {
   "City-State": "Urie-WY",
   "id": 1840024145,
   "city": "Urie",
   "city_ascii": "Urie",
   "state_id": "WY",
   "City-State": "Urie-WY",
   "state_name": "Wyoming",
   "county_fips": 56041,
   "county_name": "Uinta",
   "lat": 41.3089,
   "lng": -110.3352,
   "population": null,
   "population_proper": null,
   "density": 43.7,
   "source": "polygon",
   "incorporated": false,
   "timezone": "America/Denver",
   "zips": "82937"
 },
 {
   "City-State": "Mills-WY",
   "id": 1840022359,
   "city": "Mills",
   "city_ascii": "Mills",
   "state_id": "WY",
   "City-State": "Mills-WY",
   "state_name": "Wyoming",
   "county_fips": 56025,
   "county_name": "Natrona",
   "lat": 42.846,
   "lng": -106.3808,
   "population": 3813,
   "population_proper": 3813,
   "density": 707,
   "source": "polygon",
   "incorporated": true,
   "timezone": "America/Denver",
   "zips": "82604 82644"
 },
 {
   "City-State": "Arvada-WY",
   "id": 1840017427,
   "city": "Arvada",
   "city_ascii": "Arvada",
   "state_id": "WY",
   "City-State": "Arvada-WY",
   "state_name": "Wyoming",
   "county_fips": 56033,
   "county_name": "Sheridan",
   "lat": 44.6622,
   "lng": -106.1419,
   "population": null,
   "population_proper": null,
   "density": 51.1,
   "source": "polygon",
   "incorporated": false,
   "timezone": "America/Denver",
   "zips": "82831"
 },
 {
   "City-State": "Laramie-WY",
   "id": 1840020096,
   "city": "Laramie",
   "city_ascii": "Laramie",
   "state_id": "WY",
   "City-State": "Laramie-WY",
   "state_name": "Wyoming",
   "county_fips": 56001,
   "county_name": "Albany",
   "lat": 41.3095,
   "lng": -105.6097,
   "population": 33587,
   "population_proper": 32382,
   "density": 704,
   "source": "polygon",
   "incorporated": true,
   "timezone": "America/Denver",
   "zips": "82072 82070 82071"
 },
 {
   "City-State": "Boulder Flats-WY",
   "id": 1840038425,
   "city": "Boulder Flats",
   "city_ascii": "Boulder Flats",
   "state_id": "WY",
   "City-State": "Boulder Flats-WY",
   "state_name": "Wyoming",
   "county_fips": 56013,
   "county_name": "Fremont",
   "lat": 42.9156,
   "lng": -108.7993,
   "population": null,
   "population_proper": null,
   "density": 9.9,
   "source": "polygon",
   "incorporated": false,
   "timezone": "America/Denver",
   "zips": "82520"
 },
 {
   "City-State": "Wright-WY",
   "id": 1840022344,
   "city": "Wright",
   "city_ascii": "Wright",
   "state_id": "WY",
   "City-State": "Wright-WY",
   "state_name": "Wyoming",
   "county_fips": 56005,
   "county_name": "Campbell",
   "lat": 43.7484,
   "lng": -105.4963,
   "population": 1834,
   "population_proper": 1834,
   "density": 248,
   "source": "polygon",
   "incorporated": true,
   "timezone": "America/Denver",
   "zips": "82732"
 },
 {
   "City-State": "Kemmerer-WY",
   "id": 1840018662,
   "city": "Kemmerer",
   "city_ascii": "Kemmerer",
   "state_id": "WY",
   "City-State": "Kemmerer-WY",
   "state_name": "Wyoming",
   "county_fips": 56023,
   "county_name": "Lincoln",
   "lat": 41.7761,
   "lng": -110.5555,
   "population": 3261,
   "population_proper": 2771,
   "density": 137,
   "source": "polygon",
   "incorporated": true,
   "timezone": "America/Denver",
   "zips": "83101 83121 83116"
 },
 {
   "City-State": "Deaver-WY",
   "id": 1840021240,
   "city": "Deaver",
   "city_ascii": "Deaver",
   "state_id": "WY",
   "City-State": "Deaver-WY",
   "state_name": "Wyoming",
   "county_fips": 56003,
   "county_name": "Big Horn",
   "lat": 44.889,
   "lng": -108.596,
   "population": 186,
   "population_proper": 186,
   "density": 70,
   "source": "polygon",
   "incorporated": true,
   "timezone": "America/Denver",
   "zips": "82421"
 },
 {
   "City-State": "Burlington-WY",
   "id": 1840021238,
   "city": "Burlington",
   "city_ascii": "Burlington",
   "state_id": "WY",
   "City-State": "Burlington-WY",
   "state_name": "Wyoming",
   "county_fips": 56003,
   "county_name": "Big Horn",
   "lat": 44.4471,
   "lng": -108.432,
   "population": 344,
   "population_proper": 344,
   "density": 131,
   "source": "polygon",
   "incorporated": true,
   "timezone": "America/Denver",
   "zips": "82411"
 },
 {
   "City-State": "Cheyenne-WY",
   "id": 1840018713,
   "city": "Cheyenne",
   "city_ascii": "Cheyenne",
   "state_id": "WY",
   "City-State": "Cheyenne-WY",
   "state_name": "Wyoming",
   "county_fips": 56021,
   "county_name": "Laramie",
   "lat": 41.1418,
   "lng": -104.7943,
   "population": 79217,
   "population_proper": 64019,
   "density": 929,
   "source": "polygon",
   "incorporated": true,
   "timezone": "America/Denver",
   "zips": "82009 82001 82007 82002 82003 82006 82008 82010"
 },
 {
   "City-State": "Crowheart-WY",
   "id": 1840017432,
   "city": "Crowheart",
   "city_ascii": "Crowheart",
   "state_id": "WY",
   "City-State": "Crowheart-WY",
   "state_name": "Wyoming",
   "county_fips": 56013,
   "county_name": "Fremont",
   "lat": 43.3398,
   "lng": -109.2298,
   "population": null,
   "population_proper": null,
   "density": 7.5,
   "source": "polygon",
   "incorporated": false,
   "timezone": "America/Denver",
   "zips": "82512"
 },
 {
   "City-State": "Robertson-WY",
   "id": 1840018714,
   "city": "Robertson",
   "city_ascii": "Robertson",
   "state_id": "WY",
   "City-State": "Robertson-WY",
   "state_name": "Wyoming",
   "county_fips": 56041,
   "county_name": "Uinta",
   "lat": 41.1816,
   "lng": -110.4274,
   "population": null,
   "population_proper": null,
   "density": 10,
   "source": "polygon",
   "incorporated": false,
   "timezone": "America/Denver",
   "zips": "82944"
 },
 {
   "City-State": "Evansville-WY",
   "id": 1840021290,
   "city": "Evansville",
   "city_ascii": "Evansville",
   "state_id": "WY",
   "City-State": "Evansville-WY",
   "state_name": "Wyoming",
   "county_fips": 56025,
   "county_name": "Natrona",
   "lat": 42.8681,
   "lng": -106.2525,
   "population": 2953,
   "population_proper": 2953,
   "density": 331,
   "source": "polygon",
   "incorporated": true,
   "timezone": "America/Denver",
   "zips": "82636"
 },
 {
   "City-State": "Riverside-WY",
   "id": 1840021312,
   "city": "Riverside",
   "city_ascii": "Riverside",
   "state_id": "WY",
   "City-State": "Riverside-WY",
   "state_name": "Wyoming",
   "county_fips": 56007,
   "county_name": "Carbon",
   "lat": 41.2154,
   "lng": -106.7813,
   "population": 55,
   "population_proper": 55,
   "density": 78,
   "source": "polygon",
   "incorporated": true,
   "timezone": "America/Denver",
   "zips": "82325"
 },
 {
   "City-State": "Vista West-WY",
   "id": 1840038444,
   "city": "Vista West",
   "city_ascii": "Vista West",
   "state_id": "WY",
   "City-State": "Vista West-WY",
   "state_name": "Wyoming",
   "county_fips": 56025,
   "county_name": "Natrona",
   "lat": 42.862,
   "lng": -106.4362,
   "population": null,
   "population_proper": null,
   "density": 254.7,
   "source": "polygon",
   "incorporated": false,
   "timezone": "America/Denver",
   "zips": "82604"
 },
 {
   "City-State": "Buffalo-WY",
   "id": 1840018615,
   "city": "Buffalo",
   "city_ascii": "Buffalo",
   "state_id": "WY",
   "City-State": "Buffalo-WY",
   "state_name": "Wyoming",
   "county_fips": 56019,
   "county_name": "Johnson",
   "lat": 44.3426,
   "lng": -106.7138,
   "population": 4373,
   "population_proper": 4590,
   "density": 396,
   "source": "polygon",
   "incorporated": true,
   "timezone": "America/Denver",
   "zips": "82834"
 },
 {
   "City-State": "Acme-WY",
   "id": 1840038313,
   "city": "Acme",
   "city_ascii": "Acme",
   "state_id": "WY",
   "City-State": "Acme-WY",
   "state_name": "Wyoming",
   "county_fips": 56033,
   "county_name": "Sheridan",
   "lat": 44.9105,
   "lng": -106.9851,
   "population": null,
   "population_proper": null,
   "density": 1.5,
   "source": "point",
   "incorporated": false,
   "timezone": "America/Denver",
   "zips": "82801"
 },
 {
   "City-State": "Alcova-WY",
   "id": 1840017445,
   "city": "Alcova",
   "city_ascii": "Alcova",
   "state_id": "WY",
   "City-State": "Alcova-WY",
   "state_name": "Wyoming",
   "county_fips": 56025,
   "county_name": "Natrona",
   "lat": 42.5543,
   "lng": -106.7263,
   "population": null,
   "population_proper": null,
   "density": 30.7,
   "source": "polygon",
   "incorporated": false,
   "timezone": "America/Denver",
   "zips": "82620"
 },
 {
   "City-State": "Hill View Heights-WY",
   "id": 1840038430,
   "city": "Hill View Heights",
   "city_ascii": "Hill View Heights",
   "state_id": "WY",
   "City-State": "Hill View Heights-WY",
   "state_name": "Wyoming",
   "county_fips": 56045,
   "county_name": "Weston",
   "lat": 43.8159,
   "lng": -104.1517,
   "population": null,
   "population_proper": null,
   "density": 120.2,
   "source": "polygon",
   "incorporated": false,
   "timezone": "America/Denver",
   "zips": "82701"
 },
 {
   "City-State": "Lost Springs-WY",
   "id": 1840021288,
   "city": "Lost Springs",
   "city_ascii": "Lost Springs",
   "state_id": "WY",
   "City-State": "Lost Springs-WY",
   "state_name": "Wyoming",
   "county_fips": 56009,
   "county_name": "Converse",
   "lat": 42.7654,
   "lng": -104.9252,
   "population": 4,
   "population_proper": 4,
   "density": 17,
   "source": "polygon",
   "incorporated": true,
   "timezone": "America/Denver",
   "zips": "82229"
 },
 {
   "City-State": "Purple Sage-WY",
   "id": 1840038435,
   "city": "Purple Sage",
   "city_ascii": "Purple Sage",
   "state_id": "WY",
   "City-State": "Purple Sage-WY",
   "state_name": "Wyoming",
   "county_fips": 56037,
   "county_name": "Sweetwater",
   "lat": 41.5514,
   "lng": -109.3202,
   "population": null,
   "population_proper": null,
   "density": 418.3,
   "source": "polygon",
   "incorporated": false,
   "timezone": "America/Denver",
   "zips": "82901"
 },
 {
   "City-State": "Merna-WY",
   "id": 1840038397,
   "city": "Merna",
   "city_ascii": "Merna",
   "state_id": "WY",
   "City-State": "Merna-WY",
   "state_name": "Wyoming",
   "county_fips": 56035,
   "county_name": "Sublette",
   "lat": 42.9463,
   "lng": -110.3407,
   "population": null,
   "population_proper": null,
   "density": 1.1,
   "source": "point",
   "incorporated": false,
   "timezone": "America/Denver",
   "zips": "83115"
 },
 {
   "City-State": "Casper Mountain-WY",
   "id": 1840038426,
   "city": "Casper Mountain",
   "city_ascii": "Casper Mountain",
   "state_id": "WY",
   "City-State": "Casper Mountain-WY",
   "state_name": "Wyoming",
   "county_fips": 56025,
   "county_name": "Natrona",
   "lat": 42.7449,
   "lng": -106.3211,
   "population": null,
   "population_proper": null,
   "density": 2.8,
   "source": "polygon",
   "incorporated": false,
   "timezone": "America/Denver",
   "zips": "82601"
 },
 {
   "City-State": "Alpine-WY",
   "id": 1840021292,
   "city": "Alpine",
   "city_ascii": "Alpine",
   "state_id": "WY",
   "City-State": "Alpine-WY",
   "state_name": "Wyoming",
   "county_fips": 56023,
   "county_name": "Lincoln",
   "lat": 43.1608,
   "lng": -111.0182,
   "population": 865,
   "population_proper": 865,
   "density": 477,
   "source": "polygon",
   "incorporated": true,
   "timezone": "America/Denver",
   "zips": "83128"
 },
 {
   "City-State": "La Barge-WY",
   "id": 1840021294,
   "city": "La Barge",
   "city_ascii": "La Barge",
   "state_id": "WY",
   "City-State": "La Barge-WY",
   "state_name": "Wyoming",
   "county_fips": 56023,
   "county_name": "Lincoln",
   "lat": 42.2605,
   "lng": -110.1971,
   "population": 558,
   "population_proper": 558,
   "density": 221,
   "source": "polygon",
   "incorporated": true,
   "timezone": "America/Denver",
   "zips": "83123"
 },
 {
   "City-State": "Casper-WY",
   "id": 1840038324,
   "city": "Casper",
   "city_ascii": "Casper",
   "state_id": "WY",
   "City-State": "Casper-WY",
   "state_name": "Wyoming",
   "county_fips": 56025,
   "county_name": "Natrona",
   "lat": 42.843,
   "lng": -106.3205,
   "population": 69224,
   "population_proper": 59324,
   "density": 881,
   "source": "polygon",
   "incorporated": true,
   "timezone": "America/Denver",
   "zips": "82604 82601 82609 82602 82605"
 },
 {
   "City-State": "Eden-WY",
   "id": 1840017463,
   "city": "Eden",
   "city_ascii": "Eden",
   "state_id": "WY",
   "City-State": "Eden-WY",
   "state_name": "Wyoming",
   "county_fips": 56037,
   "county_name": "Sweetwater",
   "lat": 42.0602,
   "lng": -109.4392,
   "population": null,
   "population_proper": null,
   "density": 7.8,
   "source": "polygon",
   "incorporated": false,
   "timezone": "America/Denver",
   "zips": "82932"
 },
 {
   "City-State": "Albin-WY",
   "id": 1840021339,
   "city": "Albin",
   "city_ascii": "Albin",
   "state_id": "WY",
   "City-State": "Albin-WY",
   "state_name": "Wyoming",
   "county_fips": 56021,
   "county_name": "Laramie",
   "lat": 41.417,
   "lng": -104.1016,
   "population": 201,
   "population_proper": 201,
   "density": 529,
   "source": "polygon",
   "incorporated": true,
   "timezone": "America/Denver",
   "zips": "82050"
 },
 {
   "City-State": "Huntley-WY",
   "id": 1840017460,
   "city": "Huntley",
   "city_ascii": "Huntley",
   "state_id": "WY",
   "City-State": "Huntley-WY",
   "state_name": "Wyoming",
   "county_fips": 56015,
   "county_name": "Goshen",
   "lat": 41.9316,
   "lng": -104.1437,
   "population": null,
   "population_proper": null,
   "density": 38.2,
   "source": "polygon",
   "incorporated": false,
   "timezone": "America/Denver",
   "zips": "82240"
 },
 {
   "City-State": "Milford-WY",
   "id": 1840038373,
   "city": "Milford",
   "city_ascii": "Milford",
   "state_id": "WY",
   "City-State": "Milford-WY",
   "state_name": "Wyoming",
   "county_fips": 56013,
   "county_name": "Fremont",
   "lat": 42.8763,
   "lng": -108.7843,
   "population": null,
   "population_proper": null,
   "density": 45.6,
   "source": "point",
   "incorporated": false,
   "timezone": "America/Denver",
   "zips": "82520"
 },
 {
   "City-State": "Point of Rocks-WY",
   "id": 1840038381,
   "city": "Point of Rocks",
   "city_ascii": "Point of Rocks",
   "state_id": "WY",
   "City-State": "Point of Rocks-WY",
   "state_name": "Wyoming",
   "county_fips": 56037,
   "county_name": "Sweetwater",
   "lat": 41.6831,
   "lng": -108.7755,
   "population": null,
   "population_proper": null,
   "density": 65.7,
   "source": "polygon",
   "incorporated": false,
   "timezone": "America/Denver",
   "zips": "82942"
 },
 {
   "City-State": "Bairoil-WY",
   "id": 1840020102,
   "city": "Bairoil",
   "city_ascii": "Bairoil",
   "state_id": "WY",
   "City-State": "Bairoil-WY",
   "state_name": "Wyoming",
   "county_fips": 56037,
   "county_name": "Sweetwater",
   "lat": 42.2372,
   "lng": -107.5611,
   "population": 104,
   "population_proper": 104,
   "density": 28,
   "source": "polygon",
   "incorporated": true,
   "timezone": "America/Denver",
   "zips": "82322"
 },
 {
   "City-State": "Clearmont-WY",
   "id": 1840022345,
   "city": "Clearmont",
   "city_ascii": "Clearmont",
   "state_id": "WY",
   "City-State": "Clearmont-WY",
   "state_name": "Wyoming",
   "county_fips": 56033,
   "county_name": "Sheridan",
   "lat": 44.6399,
   "lng": -106.3816,
   "population": 149,
   "population_proper": 149,
   "density": 362,
   "source": "polygon",
   "incorporated": true,
   "timezone": "America/Denver",
   "zips": "82835"
 },
 {
   "City-State": "Glenrock-WY",
   "id": 1840021287,
   "city": "Glenrock",
   "city_ascii": "Glenrock",
   "state_id": "WY",
   "City-State": "Glenrock-WY",
   "state_name": "Wyoming",
   "county_fips": 56009,
   "county_name": "Converse",
   "lat": 42.8564,
   "lng": -105.8629,
   "population": 2595,
   "population_proper": 2595,
   "density": 439,
   "source": "polygon",
   "incorporated": true,
   "timezone": "America/Denver",
   "zips": "82637"
 },
 {
   "City-State": "Thayne-WY",
   "id": 1840022365,
   "city": "Thayne",
   "city_ascii": "Thayne",
   "state_id": "WY",
   "City-State": "Thayne-WY",
   "state_name": "Wyoming",
   "county_fips": 56023,
   "county_name": "Lincoln",
   "lat": 42.9192,
   "lng": -110.9968,
   "population": 367,
   "population_proper": 367,
   "density": 101,
   "source": "polygon",
   "incorporated": true,
   "timezone": "America/Denver",
   "zips": "83127"
 },
 {
   "City-State": "Diamondville-WY",
   "id": 1840021293,
   "city": "Diamondville",
   "city_ascii": "Diamondville",
   "state_id": "WY",
   "City-State": "Diamondville-WY",
   "state_name": "Wyoming",
   "county_fips": 56023,
   "county_name": "Lincoln",
   "lat": 41.7771,
   "lng": -110.5357,
   "population": 743,
   "population_proper": 743,
   "density": 245,
   "source": "polygon",
   "incorporated": true,
   "timezone": "America/Denver",
   "zips": "83116"
 },
 {
   "City-State": "Jeffrey City-WY",
   "id": 1840017437,
   "city": "Jeffrey City",
   "city_ascii": "Jeffrey City",
   "state_id": "WY",
   "City-State": "Jeffrey City-WY",
   "state_name": "Wyoming",
   "county_fips": 56013,
   "county_name": "Fremont",
   "lat": 42.4808,
   "lng": -107.8256,
   "population": null,
   "population_proper": null,
   "density": 19.9,
   "source": "polygon",
   "incorporated": false,
   "timezone": "America/Denver",
   "zips": "82520 82310"
 },
 {
   "City-State": "Chugwater-WY",
   "id": 1840022367,
   "city": "Chugwater",
   "city_ascii": "Chugwater",
   "state_id": "WY",
   "City-State": "Chugwater-WY",
   "state_name": "Wyoming",
   "county_fips": 56031,
   "county_name": "Platte",
   "lat": 41.7557,
   "lng": -104.8229,
   "population": 212,
   "population_proper": 212,
   "density": 26,
   "source": "polygon",
   "incorporated": true,
   "timezone": "America/Denver",
   "zips": "82210"
 },
 {
   "City-State": "Westview Circle-WY",
   "id": 1840038438,
   "city": "Westview Circle",
   "city_ascii": "Westview Circle",
   "state_id": "WY",
   "City-State": "Westview Circle-WY",
   "state_name": "Wyoming",
   "county_fips": 56031,
   "county_name": "Platte",
   "lat": 42.0606,
   "lng": -105.0715,
   "population": null,
   "population_proper": null,
   "density": 8.2,
   "source": "polygon",
   "incorporated": false,
   "timezone": "America/Denver",
   "zips": "82201"
 },
 {
   "City-State": "Clark-WY",
   "id": 1840038367,
   "city": "Clark",
   "city_ascii": "Clark",
   "state_id": "WY",
   "City-State": "Clark-WY",
   "state_name": "Wyoming",
   "county_fips": 56029,
   "county_name": "Park",
   "lat": 44.8994,
   "lng": -109.151,
   "population": null,
   "population_proper": null,
   "density": 5.2,
   "source": "point",
   "incorporated": false,
   "timezone": "America/Denver",
   "zips": "82435"
 },
 {
   "City-State": "Glendo-WY",
   "id": 1840021306,
   "city": "Glendo",
   "city_ascii": "Glendo",
   "state_id": "WY",
   "City-State": "Glendo-WY",
   "state_name": "Wyoming",
   "county_fips": 56031,
   "county_name": "Platte",
   "lat": 42.5041,
   "lng": -105.0254,
   "population": 203,
   "population_proper": 203,
   "density": 146,
   "source": "polygon",
   "incorporated": true,
   "timezone": "America/Denver",
   "zips": "82213"
 },
 {
   "City-State": "Dayton-WY",
   "id": 1840021244,
   "city": "Dayton",
   "city_ascii": "Dayton",
   "state_id": "WY",
   "City-State": "Dayton-WY",
   "state_name": "Wyoming",
   "county_fips": 56033,
   "county_name": "Sheridan",
   "lat": 44.8733,
   "lng": -107.2625,
   "population": 822,
   "population_proper": 822,
   "density": 593,
   "source": "polygon",
   "incorporated": true,
   "timezone": "America/Denver",
   "zips": "82836"
 },
 {
   "City-State": "Atlantic City-WY",
   "id": 1840017434,
   "city": "Atlantic City",
   "city_ascii": "Atlantic City",
   "state_id": "WY",
   "City-State": "Atlantic City-WY",
   "state_name": "Wyoming",
   "county_fips": 56013,
   "county_name": "Fremont",
   "lat": 42.5012,
   "lng": -108.733,
   "population": null,
   "population_proper": null,
   "density": 22.5,
   "source": "polygon",
   "incorporated": false,
   "timezone": "America/Denver",
   "zips": "82520"
 },
 {
   "City-State": "Ryan Park-WY",
   "id": 1840024100,
   "city": "Ryan Park",
   "city_ascii": "Ryan Park",
   "state_id": "WY",
   "City-State": "Ryan Park-WY",
   "state_name": "Wyoming",
   "county_fips": 56007,
   "county_name": "Carbon",
   "lat": 41.3131,
   "lng": -106.4895,
   "population": null,
   "population_proper": null,
   "density": 4.4,
   "source": "polygon",
   "incorporated": false,
   "timezone": "America/Denver",
   "zips": "82331"
 },
 {
   "City-State": "Ralston-WY",
   "id": 1840018594,
   "city": "Ralston",
   "city_ascii": "Ralston",
   "state_id": "WY",
   "City-State": "Ralston-WY",
   "state_name": "Wyoming",
   "county_fips": 56029,
   "county_name": "Park",
   "lat": 44.7085,
   "lng": -108.8823,
   "population": null,
   "population_proper": null,
   "density": 17.5,
   "source": "polygon",
   "incorporated": false,
   "timezone": "America/Denver",
   "zips": "82440 82435"
 },
 {
   "City-State": "Hartrandt-WY",
   "id": 1840038429,
   "city": "Hartrandt",
   "city_ascii": "Hartrandt",
   "state_id": "WY",
   "City-State": "Hartrandt-WY",
   "state_name": "Wyoming",
   "county_fips": 56025,
   "county_name": "Natrona",
   "lat": 42.8836,
   "lng": -106.3492,
   "population": null,
   "population_proper": null,
   "density": 167.4,
   "source": "polygon",
   "incorporated": false,
   "timezone": "America/Denver",
   "zips": "82601"
 },
 {
   "City-State": "Centennial-WY",
   "id": 1840017462,
   "city": "Centennial",
   "city_ascii": "Centennial",
   "state_id": "WY",
   "City-State": "Centennial-WY",
   "state_name": "Wyoming",
   "county_fips": 56001,
   "county_name": "Albany",
   "lat": 41.3005,
   "lng": -106.1355,
   "population": null,
   "population_proper": null,
   "density": 7,
   "source": "polygon",
   "incorporated": false,
   "timezone": "America/Denver",
   "zips": "82055"
 },
 {
   "City-State": "Mountain View-WY",
   "id": 1840022388,
   "city": "Mountain View",
   "city_ascii": "Mountain View",
   "state_id": "WY",
   "City-State": "Mountain View-WY",
   "state_name": "Wyoming",
   "county_fips": 56041,
   "county_name": "Uinta",
   "lat": 41.2724,
   "lng": -110.3343,
   "population": 1287,
   "population_proper": 1287,
   "density": 575,
   "source": "polygon",
   "incorporated": true,
   "timezone": "America/Denver",
   "zips": "82939"
 },
 {
   "City-State": "Kaycee-WY",
   "id": 1840021260,
   "city": "Kaycee",
   "city_ascii": "Kaycee",
   "state_id": "WY",
   "City-State": "Kaycee-WY",
   "state_name": "Wyoming",
   "county_fips": 56019,
   "county_name": "Johnson",
   "lat": 43.7097,
   "lng": -106.6379,
   "population": 263,
   "population_proper": 263,
   "density": 254,
   "source": "polygon",
   "incorporated": true,
   "timezone": "America/Denver",
   "zips": "82639"
 },
 {
   "City-State": "Recluse-WY",
   "id": 1840038383,
   "city": "Recluse",
   "city_ascii": "Recluse",
   "state_id": "WY",
   "City-State": "Recluse-WY",
   "state_name": "Wyoming",
   "county_fips": 56005,
   "county_name": "Campbell",
   "lat": 44.7411,
   "lng": -105.7081,
   "population": null,
   "population_proper": null,
   "density": 2.9,
   "source": "point",
   "incorporated": false,
   "timezone": "America/Denver",
   "zips": "82725"
 },
 {
   "City-State": "La Grange-WY",
   "id": 1840021304,
   "city": "La Grange",
   "city_ascii": "La Grange",
   "state_id": "WY",
   "City-State": "La Grange-WY",
   "state_name": "Wyoming",
   "county_fips": 56015,
   "county_name": "Goshen",
   "lat": 41.6384,
   "lng": -104.163,
   "population": 451,
   "population_proper": 451,
   "density": 428,
   "source": "polygon",
   "incorporated": true,
   "timezone": "America/Denver",
   "zips": "82221"
 },
 {
   "City-State": "Story-WY",
   "id": 1840018597,
   "city": "Story",
   "city_ascii": "Story",
   "state_id": "WY",
   "City-State": "Story-WY",
   "state_name": "Wyoming",
   "county_fips": 56033,
   "county_name": "Sheridan",
   "lat": 44.5731,
   "lng": -106.9142,
   "population": null,
   "population_proper": null,
   "density": 158.3,
   "source": "polygon",
   "incorporated": false,
   "timezone": "America/Denver",
   "zips": "82842"
 },
 {
   "City-State": "Baggs-WY",
   "id": 1840020095,
   "city": "Baggs",
   "city_ascii": "Baggs",
   "state_id": "WY",
   "City-State": "Baggs-WY",
   "state_name": "Wyoming",
   "county_fips": 56007,
   "county_name": "Carbon",
   "lat": 41.0345,
   "lng": -107.6574,
   "population": 430,
   "population_proper": 430,
   "density": 328,
   "source": "polygon",
   "incorporated": true,
   "timezone": "America/Denver",
   "zips": "82321"
 },
 {
   "City-State": "Rafter J Ranch-WY",
   "id": 1840038440,
   "city": "Rafter J Ranch",
   "city_ascii": "Rafter J Ranch",
   "state_id": "WY",
   "City-State": "Rafter J Ranch-WY",
   "state_name": "Wyoming",
   "county_fips": 56039,
   "county_name": "Teton",
   "lat": 43.4317,
   "lng": -110.7922,
   "population": null,
   "population_proper": null,
   "density": 497,
   "source": "polygon",
   "incorporated": false,
   "timezone": "America/Denver",
   "zips": "83001"
 },
 {
   "City-State": "Ten Sleep-WY",
   "id": 1840022352,
   "city": "Ten Sleep",
   "city_ascii": "Ten Sleep",
   "state_id": "WY",
   "City-State": "Ten Sleep-WY",
   "state_name": "Wyoming",
   "county_fips": 56043,
   "county_name": "Washakie",
   "lat": 44.0349,
   "lng": -107.4483,
   "population": 250,
   "population_proper": 250,
   "density": 533,
   "source": "polygon",
   "incorporated": true,
   "timezone": "America/Denver",
   "zips": "82442"
 },
 {
   "City-State": "Rolling Hills-WY",
   "id": 1840021286,
   "city": "Rolling Hills",
   "city_ascii": "Rolling Hills",
   "state_id": "WY",
   "City-State": "Rolling Hills-WY",
   "state_name": "Wyoming",
   "county_fips": 56009,
   "county_name": "Converse",
   "lat": 42.9037,
   "lng": -105.8431,
   "population": 439,
   "population_proper": 439,
   "density": 258,
   "source": "polygon",
   "incorporated": true,
   "timezone": "America/Denver",
   "zips": "82637"
 },
 {
   "City-State": "Pavillion-WY",
   "id": 1840022354,
   "city": "Pavillion",
   "city_ascii": "Pavillion",
   "state_id": "WY",
   "City-State": "Pavillion-WY",
   "state_name": "Wyoming",
   "county_fips": 56013,
   "county_name": "Fremont",
   "lat": 43.244,
   "lng": -108.689,
   "population": 236,
   "population_proper": 236,
   "density": 452,
   "source": "polygon",
   "incorporated": true,
   "timezone": "America/Denver",
   "zips": "82523"
 },
 {
   "City-State": "Washam-WY",
   "id": 1840038437,
   "city": "Washam",
   "city_ascii": "Washam",
   "state_id": "WY",
   "City-State": "Washam-WY",
   "state_name": "Wyoming",
   "county_fips": 56037,
   "county_name": "Sweetwater",
   "lat": 41.0056,
   "lng": -109.6992,
   "population": null,
   "population_proper": null,
   "density": 0,
   "source": "polygon",
   "incorporated": false,
   "timezone": "America/Denver",
   "zips": "82938"
 },
 {
   "City-State": "Frannie-WY",
   "id": 1840021237,
   "city": "Frannie",
   "city_ascii": "Frannie",
   "state_id": "WY",
   "City-State": "Frannie-WY",
   "state_name": "Wyoming",
   "county_fips": 56003,
   "county_name": "Big Horn",
   "lat": 44.971,
   "lng": -108.6205,
   "population": 161,
   "population_proper": 161,
   "density": 140,
   "source": "polygon",
   "incorporated": true,
   "timezone": "America/Denver",
   "zips": "82423"
 },
 {
   "City-State": "Meriden-WY",
   "id": 1840038335,
   "city": "Meriden",
   "city_ascii": "Meriden",
   "state_id": "WY",
   "City-State": "Meriden-WY",
   "state_name": "Wyoming",
   "county_fips": 56021,
   "county_name": "Laramie",
   "lat": 41.5436,
   "lng": -104.3191,
   "population": null,
   "population_proper": null,
   "density": 1.4,
   "source": "point",
   "incorporated": false,
   "timezone": "America/Denver",
   "zips": "82081"
 },
 {
   "City-State": "Otto-WY",
   "id": 1840038339,
   "city": "Otto",
   "city_ascii": "Otto",
   "state_id": "WY",
   "City-State": "Otto-WY",
   "state_name": "Wyoming",
   "county_fips": 56003,
   "county_name": "Big Horn",
   "lat": 44.4033,
   "lng": -108.2743,
   "population": null,
   "population_proper": null,
   "density": 19.3,
   "source": "point",
   "incorporated": false,
   "timezone": "America/Denver",
   "zips": "82434"
 },
 {
   "City-State": "Basin-WY",
   "id": 1840019977,
   "city": "Basin",
   "city_ascii": "Basin",
   "state_id": "WY",
   "City-State": "Basin-WY",
   "state_name": "Wyoming",
   "county_fips": 56003,
   "county_name": "Big Horn",
   "lat": 44.3806,
   "lng": -108.0465,
   "population": 1300,
   "population_proper": 1300,
   "density": 210,
   "source": "polygon",
   "incorporated": true,
   "timezone": "America/Denver",
   "zips": "82410"
 },
 {
   "City-State": "Midwest-WY",
   "id": 1840022358,
   "city": "Midwest",
   "city_ascii": "Midwest",
   "state_id": "WY",
   "City-State": "Midwest-WY",
   "state_name": "Wyoming",
   "county_fips": 56025,
   "county_name": "Natrona",
   "lat": 43.4113,
   "lng": -106.2772,
   "population": 400,
   "population_proper": 400,
   "density": 357,
   "source": "polygon",
   "incorporated": true,
   "timezone": "America/Denver",
   "zips": "82643"
 },
 {
   "City-State": "Boulder-WY",
   "id": 1840017449,
   "city": "Boulder",
   "city_ascii": "Boulder",
   "state_id": "WY",
   "City-State": "Boulder-WY",
   "state_name": "Wyoming",
   "county_fips": 56035,
   "county_name": "Sublette",
   "lat": 42.7461,
   "lng": -109.7067,
   "population": null,
   "population_proper": null,
   "density": 67.2,
   "source": "polygon",
   "incorporated": false,
   "timezone": "America/Denver",
   "zips": "82923"
 },
 {
   "City-State": "Seminoe Dam-WY",
   "id": 1840038345,
   "city": "Seminoe Dam",
   "city_ascii": "Seminoe Dam",
   "state_id": "WY",
   "City-State": "Seminoe Dam-WY",
   "state_name": "Wyoming",
   "county_fips": 56007,
   "county_name": "Carbon",
   "lat": 42.1566,
   "lng": -106.9139,
   "population": null,
   "population_proper": null,
   "density": 2.8,
   "source": "point",
   "incorporated": false,
   "timezone": "America/Denver",
   "zips": "82334"
 },
 {
   "City-State": "James Town-WY",
   "id": 1840017466,
   "city": "James Town",
   "city_ascii": "James Town",
   "state_id": "WY",
   "City-State": "James Town-WY",
   "state_name": "Wyoming",
   "county_fips": 56037,
   "county_name": "Sweetwater",
   "lat": 41.5652,
   "lng": -109.5393,
   "population": null,
   "population_proper": null,
   "density": 248.3,
   "source": "polygon",
   "incorporated": false,
   "timezone": "America/Denver",
   "zips": "82935"
 },
 {
   "City-State": "Star Valley Ranch-WY",
   "id": 1840022364,
   "city": "Star Valley Ranch",
   "city_ascii": "Star Valley Ranch",
   "state_id": "WY",
   "City-State": "Star Valley Ranch-WY",
   "state_name": "Wyoming",
   "county_fips": 56023,
   "county_name": "Lincoln",
   "lat": 42.9799,
   "lng": -110.9625,
   "population": 1570,
   "population_proper": 1570,
   "density": 224,
   "source": "polygon",
   "incorporated": true,
   "timezone": "America/Denver",
   "zips": "83127"
 },
 {
   "City-State": "Cora-WY",
   "id": 1840017447,
   "city": "Cora",
   "city_ascii": "Cora",
   "state_id": "WY",
   "City-State": "Cora-WY",
   "state_name": "Wyoming",
   "county_fips": 56035,
   "county_name": "Sublette",
   "lat": 42.9578,
   "lng": -109.9917,
   "population": null,
   "population_proper": null,
   "density": 12.4,
   "source": "polygon",
   "incorporated": false,
   "timezone": "America/Denver",
   "zips": "82941 82925"
 },
 {
   "City-State": "Wapiti-WY",
   "id": 1840038403,
   "city": "Wapiti",
   "city_ascii": "Wapiti",
   "state_id": "WY",
   "City-State": "Wapiti-WY",
   "state_name": "Wyoming",
   "county_fips": 56029,
   "county_name": "Park",
   "lat": 44.4686,
   "lng": -109.4377,
   "population": null,
   "population_proper": null,
   "density": 11.9,
   "source": "point",
   "incorporated": false,
   "timezone": "America/Denver",
   "zips": "82450"
 },
 {
   "City-State": "Marbleton-WY",
   "id": 1840022360,
   "city": "Marbleton",
   "city_ascii": "Marbleton",
   "state_id": "WY",
   "City-State": "Marbleton-WY",
   "state_name": "Wyoming",
   "county_fips": 56035,
   "county_name": "Sublette",
   "lat": 42.5579,
   "lng": -110.1009,
   "population": 1069,
   "population_proper": 1069,
   "density": 459,
   "source": "polygon",
   "incorporated": true,
   "timezone": "America/Denver",
   "zips": "83113"
 },
 {
   "City-State": "Orpha-WY",
   "id": 1840038338,
   "city": "Orpha",
   "city_ascii": "Orpha",
   "state_id": "WY",
   "City-State": "Orpha-WY",
   "state_name": "Wyoming",
   "county_fips": 56009,
   "county_name": "Converse",
   "lat": 42.8547,
   "lng": -105.5036,
   "population": null,
   "population_proper": null,
   "density": 11.2,
   "source": "point",
   "incorporated": false,
   "timezone": "America/Denver",
   "zips": "82633"
 },
 {
   "City-State": "Red Buttes-WY",
   "id": 1840038341,
   "city": "Red Buttes",
   "city_ascii": "Red Buttes",
   "state_id": "WY",
   "City-State": "Red Buttes-WY",
   "state_name": "Wyoming",
   "county_fips": 56001,
   "county_name": "Albany",
   "lat": 41.1825,
   "lng": -105.5947,
   "population": null,
   "population_proper": null,
   "density": 1.3,
   "source": "point",
   "incorporated": false,
   "timezone": "America/Denver",
   "zips": "82070"
 },
 {
   "City-State": "Rock Springs-WY",
   "id": 1840020101,
   "city": "Rock Springs",
   "city_ascii": "Rock Springs",
   "state_id": "WY",
   "City-State": "Rock Springs-WY",
   "state_name": "Wyoming",
   "county_fips": 56037,
   "county_name": "Sweetwater",
   "lat": 41.595,
   "lng": -109.2237,
   "population": 27173,
   "population_proper": 23755,
   "density": 474,
   "source": "polygon",
   "incorporated": true,
   "timezone": "America/Denver",
   "zips": "82901 82902"
 },
 {
   "City-State": "Bonneville-WY",
   "id": 1840038320,
   "city": "Bonneville",
   "city_ascii": "Bonneville",
   "state_id": "WY",
   "City-State": "Bonneville-WY",
   "state_name": "Wyoming",
   "county_fips": 56013,
   "county_name": "Fremont",
   "lat": 43.2688,
   "lng": -108.0734,
   "population": null,
   "population_proper": null,
   "density": 14.6,
   "source": "point",
   "incorporated": false,
   "timezone": "America/Denver",
   "zips": "82649"
 },
 {
   "City-State": "Thayer Junction-WY",
   "id": 1840038390,
   "city": "Thayer Junction",
   "city_ascii": "Thayer Junction",
   "state_id": "WY",
   "City-State": "Thayer Junction-WY",
   "state_name": "Wyoming",
   "county_fips": 56037,
   "county_name": "Sweetwater",
   "lat": 41.6869,
   "lng": -108.9112,
   "population": null,
   "population_proper": null,
   "density": 2.5,
   "source": "point",
   "incorporated": false,
   "timezone": "America/Denver",
   "zips": "82901"
 },
 {
   "City-State": "Etna-WY",
   "id": 1840017452,
   "city": "Etna",
   "city_ascii": "Etna",
   "state_id": "WY",
   "City-State": "Etna-WY",
   "state_name": "Wyoming",
   "county_fips": 56023,
   "county_name": "Lincoln",
   "lat": 43.0334,
   "lng": -111.0129,
   "population": null,
   "population_proper": null,
   "density": 73.2,
   "source": "polygon",
   "incorporated": false,
   "timezone": "America/Denver",
   "zips": "83118"
 },
 {
   "City-State": "Slater-WY",
   "id": 1840018686,
   "city": "Slater",
   "city_ascii": "Slater",
   "state_id": "WY",
   "City-State": "Slater-WY",
   "state_name": "Wyoming",
   "county_fips": 56031,
   "county_name": "Platte",
   "lat": 41.8776,
   "lng": -104.7887,
   "population": null,
   "population_proper": null,
   "density": 4.7,
   "source": "polygon",
   "incorporated": false,
   "timezone": "America/Denver",
   "zips": "82201"
 },
 {
   "City-State": "Hulett-WY",
   "id": 1840021246,
   "city": "Hulett",
   "city_ascii": "Hulett",
   "state_id": "WY",
   "City-State": "Hulett-WY",
   "state_name": "Wyoming",
   "county_fips": 56011,
   "county_name": "Crook",
   "lat": 44.6829,
   "lng": -104.5982,
   "population": 409,
   "population_proper": 409,
   "density": 183,
   "source": "polygon",
   "incorporated": true,
   "timezone": "America/Denver",
   "zips": "82720"
 },
 {
   "City-State": "Lander-WY",
   "id": 1840020027,
   "city": "Lander",
   "city_ascii": "Lander",
   "state_id": "WY",
   "City-State": "Lander-WY",
   "state_name": "Wyoming",
   "county_fips": 56013,
   "county_name": "Fremont",
   "lat": 42.8313,
   "lng": -108.7599,
   "population": 7397,
   "population_proper": 7665,
   "density": 315,
   "source": "polygon",
   "incorporated": true,
   "timezone": "America/Denver",
   "zips": "82520"
 },
 {
   "City-State": "Hartville-WY",
   "id": 1840021308,
   "city": "Hartville",
   "city_ascii": "Hartville",
   "state_id": "WY",
   "City-State": "Hartville-WY",
   "state_name": "Wyoming",
   "county_fips": 56031,
   "county_name": "Platte",
   "lat": 42.3277,
   "lng": -104.7245,
   "population": 61,
   "population_proper": 61,
   "density": 90,
   "source": "polygon",
   "incorporated": true,
   "timezone": "America/Denver",
   "zips": "82215"
 },
 {
   "City-State": "South Torrington-WY",
   "id": 1840038348,
   "city": "South Torrington",
   "city_ascii": "South Torrington",
   "state_id": "WY",
   "City-State": "South Torrington-WY",
   "state_name": "Wyoming",
   "county_fips": 56015,
   "county_name": "Goshen",
   "lat": 42.0497,
   "lng": -104.1794,
   "population": null,
   "population_proper": null,
   "density": 307.8,
   "source": "point",
   "incorporated": false,
   "timezone": "America/Denver",
   "zips": "82240"
 },
 {
   "City-State": "East Thermopolis-WY",
   "id": 1840021267,
   "city": "East Thermopolis",
   "city_ascii": "East Thermopolis",
   "state_id": "WY",
   "City-State": "East Thermopolis-WY",
   "state_name": "Wyoming",
   "county_fips": 56017,
   "county_name": "Hot Springs",
   "lat": 43.6441,
   "lng": -108.1979,
   "population": 244,
   "population_proper": 244,
   "density": 519,
   "source": "polygon",
   "incorporated": true,
   "timezone": "America/Denver",
   "zips": "82443"
 },
 {
   "City-State": "Manville-WY",
   "id": 1840022356,
   "city": "Manville",
   "city_ascii": "Manville",
   "state_id": "WY",
   "City-State": "Manville-WY",
   "state_name": "Wyoming",
   "county_fips": 56027,
   "county_name": "Niobrara",
   "lat": 42.7795,
   "lng": -104.6173,
   "population": 93,
   "population_proper": 93,
   "density": 132,
   "source": "polygon",
   "incorporated": true,
   "timezone": "America/Denver",
   "zips": "82227"
 },
 {
   "City-State": "Bear River-WY",
   "id": 1840020123,
   "city": "Bear River",
   "city_ascii": "Bear River",
   "state_id": "WY",
   "City-State": "Bear River-WY",
   "state_name": "Wyoming",
   "county_fips": 56041,
   "county_name": "Uinta",
   "lat": 41.3859,
   "lng": -111.0271,
   "population": 517,
   "population_proper": 517,
   "density": 103,
   "source": "polygon",
   "incorporated": true,
   "timezone": "America/Denver",
   "zips": "82930"
 },
 {
   "City-State": "Fort Bridger-WY",
   "id": 1840017483,
   "city": "Fort Bridger",
   "city_ascii": "Fort Bridger",
   "state_id": "WY",
   "City-State": "Fort Bridger-WY",
   "state_name": "Wyoming",
   "county_fips": 56041,
   "county_name": "Uinta",
   "lat": 41.3183,
   "lng": -110.3894,
   "population": null,
   "population_proper": null,
   "density": 39,
   "source": "polygon",
   "incorporated": false,
   "timezone": "America/Denver",
   "zips": "82933"
 },
 {
   "City-State": "Rawlins-WY",
   "id": 1840020094,
   "city": "Rawlins",
   "city_ascii": "Rawlins",
   "state_id": "WY",
   "City-State": "Rawlins-WY",
   "state_name": "Wyoming",
   "county_fips": 56007,
   "county_name": "Carbon",
   "lat": 41.7849,
   "lng": -107.2265,
   "population": 9087,
   "population_proper": 9075,
   "density": 424,
   "source": "polygon",
   "incorporated": true,
   "timezone": "America/Denver",
   "zips": "82301"
 },
 {
   "City-State": "Rock River-WY",
   "id": 1840021315,
   "city": "Rock River",
   "city_ascii": "Rock River",
   "state_id": "WY",
   "City-State": "Rock River-WY",
   "state_name": "Wyoming",
   "county_fips": 56001,
   "county_name": "Albany",
   "lat": 41.7317,
   "lng": -105.9752,
   "population": 244,
   "population_proper": 244,
   "density": 40,
   "source": "polygon",
   "incorporated": true,
   "timezone": "America/Denver",
   "zips": "82083"
 },
 {
   "City-State": "Newcastle-WY",
   "id": 1840020012,
   "city": "Newcastle",
   "city_ascii": "Newcastle",
   "state_id": "WY",
   "City-State": "Newcastle-WY",
   "state_name": "Wyoming",
   "county_fips": 56045,
   "county_name": "Weston",
   "lat": 43.851,
   "lng": -104.2125,
   "population": 3280,
   "population_proper": 3535,
   "density": 532,
   "source": "polygon",
   "incorporated": true,
   "timezone": "America/Denver",
   "zips": "82701"
 },
 {
   "City-State": "Van Tassell-WY",
   "id": 1840022357,
   "city": "Van Tassell",
   "city_ascii": "Van Tassell",
   "state_id": "WY",
   "City-State": "Van Tassell-WY",
   "state_name": "Wyoming",
   "county_fips": 56027,
   "county_name": "Niobrara",
   "lat": 42.6643,
   "lng": -104.0913,
   "population": 15,
   "population_proper": 15,
   "density": 3,
   "source": "polygon",
   "incorporated": true,
   "timezone": "America/Denver",
   "zips": "82242"
 },
 {
   "City-State": "Hawk Springs-WY",
   "id": 1840017459,
   "city": "Hawk Springs",
   "city_ascii": "Hawk Springs",
   "state_id": "WY",
   "City-State": "Hawk Springs-WY",
   "state_name": "Wyoming",
   "county_fips": 56015,
   "county_name": "Goshen",
   "lat": 41.7852,
   "lng": -104.265,
   "population": null,
   "population_proper": null,
   "density": 53.5,
   "source": "polygon",
   "incorporated": false,
   "timezone": "America/Denver",
   "zips": "82244 82217"
 },
 {
   "City-State": "Red Butte-WY",
   "id": 1840018658,
   "city": "Red Butte",
   "city_ascii": "Red Butte",
   "state_id": "WY",
   "City-State": "Red Butte-WY",
   "state_name": "Wyoming",
   "county_fips": 56025,
   "county_name": "Natrona",
   "lat": 42.8051,
   "lng": -106.4338,
   "population": null,
   "population_proper": null,
   "density": 354.3,
   "source": "polygon",
   "incorporated": false,
   "timezone": "America/Denver",
   "zips": "82604"
 },
 {
   "City-State": "Douglas-WY",
   "id": 1840018655,
   "city": "Douglas",
   "city_ascii": "Douglas",
   "state_id": "WY",
   "City-State": "Douglas-WY",
   "state_name": "Wyoming",
   "county_fips": 56009,
   "county_name": "Converse",
   "lat": 42.7547,
   "lng": -105.3834,
   "population": 6600,
   "population_proper": 6541,
   "density": 552,
   "source": "polygon",
   "incorporated": true,
   "timezone": "America/Denver",
   "zips": "82633"
 },
 {
   "City-State": "Guernsey-WY",
   "id": 1840021307,
   "city": "Guernsey",
   "city_ascii": "Guernsey",
   "state_id": "WY",
   "City-State": "Guernsey-WY",
   "state_name": "Wyoming",
   "county_fips": 56031,
   "county_name": "Platte",
   "lat": 42.2658,
   "lng": -104.743,
   "population": 1171,
   "population_proper": 1171,
   "density": 441,
   "source": "polygon",
   "incorporated": true,
   "timezone": "America/Denver",
   "zips": "82214"
 },
 {
   "City-State": "Manderson-WY",
   "id": 1840022342,
   "city": "Manderson",
   "city_ascii": "Manderson",
   "state_id": "WY",
   "City-State": "Manderson-WY",
   "state_name": "Wyoming",
   "county_fips": 56003,
   "county_name": "Big Horn",
   "lat": 44.2699,
   "lng": -107.9641,
   "population": 118,
   "population_proper": 118,
   "density": 53,
   "source": "polygon",
   "incorporated": true,
   "timezone": "America/Denver",
   "zips": "82432"
 },
 {
   "City-State": "Burris-WY",
   "id": 1840038364,
   "city": "Burris",
   "city_ascii": "Burris",
   "state_id": "WY",
   "City-State": "Burris-WY",
   "state_name": "Wyoming",
   "county_fips": 56013,
   "county_name": "Fremont",
   "lat": 43.3641,
   "lng": -109.2749,
   "population": null,
   "population_proper": null,
   "density": 2.5,
   "source": "point",
   "incorporated": false,
   "timezone": "America/Denver",
   "zips": "82512"
 },
 {
   "City-State": "Osage-WY",
   "id": 1840018629,
   "city": "Osage",
   "city_ascii": "Osage",
   "state_id": "WY",
   "City-State": "Osage-WY",
   "state_name": "Wyoming",
   "county_fips": 56045,
   "county_name": "Weston",
   "lat": 43.9848,
   "lng": -104.4269,
   "population": null,
   "population_proper": null,
   "density": 170.7,
   "source": "polygon",
   "incorporated": false,
   "timezone": "America/Denver",
   "zips": "82723"
 },
 {
   "City-State": "Cokeville-WY",
   "id": 1840022363,
   "city": "Cokeville",
   "city_ascii": "Cokeville",
   "state_id": "WY",
   "City-State": "Cokeville-WY",
   "state_name": "Wyoming",
   "county_fips": 56023,
   "county_name": "Lincoln",
   "lat": 42.0712,
   "lng": -110.9598,
   "population": 547,
   "population_proper": 547,
   "density": 179,
   "source": "polygon",
   "incorporated": true,
   "timezone": "America/Denver",
   "zips": "83114"
 },
 {
   "City-State": "Wamsutter-WY",
   "id": 1840022374,
   "city": "Wamsutter",
   "city_ascii": "Wamsutter",
   "state_id": "WY",
   "City-State": "Wamsutter-WY",
   "state_name": "Wyoming",
   "county_fips": 56037,
   "county_name": "Sweetwater",
   "lat": 41.6679,
   "lng": -107.979,
   "population": 484,
   "population_proper": 484,
   "density": 108,
   "source": "polygon",
   "incorporated": true,
   "timezone": "America/Denver",
   "zips": "82336"
 },
 {
   "City-State": "Moorcroft-WY",
   "id": 1840022346,
   "city": "Moorcroft",
   "city_ascii": "Moorcroft",
   "state_id": "WY",
   "City-State": "Moorcroft-WY",
   "state_name": "Wyoming",
   "county_fips": 56011,
   "county_name": "Crook",
   "lat": 44.2646,
   "lng": -104.9476,
   "population": 1063,
   "population_proper": 1063,
   "density": 324,
   "source": "polygon",
   "incorporated": true,
   "timezone": "America/Denver",
   "zips": "82721"
 },
 {
   "City-State": "Egbert-WY",
   "id": 1840038400,
   "city": "Egbert",
   "city_ascii": "Egbert",
   "state_id": "WY",
   "City-State": "Egbert-WY",
   "state_name": "Wyoming",
   "county_fips": 56021,
   "county_name": "Laramie",
   "lat": 41.1697,
   "lng": -104.2569,
   "population": null,
   "population_proper": null,
   "density": 17.6,
   "source": "point",
   "incorporated": false,
   "timezone": "America/Denver",
   "zips": "82053"
 },
 {
   "City-State": "Byron-WY",
   "id": 1840022343,
   "city": "Byron",
   "city_ascii": "Byron",
   "state_id": "WY",
   "City-State": "Byron-WY",
   "state_name": "Wyoming",
   "county_fips": 56003,
   "county_name": "Big Horn",
   "lat": 44.7964,
   "lng": -108.5082,
   "population": 614,
   "population_proper": 614,
   "density": 261,
   "source": "polygon",
   "incorporated": true,
   "timezone": "America/Denver",
   "zips": "82412 82431"
 },
 {
   "City-State": "Auburn-WY",
   "id": 1840017450,
   "city": "Auburn",
   "city_ascii": "Auburn",
   "state_id": "WY",
   "City-State": "Auburn-WY",
   "state_name": "Wyoming",
   "county_fips": 56023,
   "county_name": "Lincoln",
   "lat": 42.7944,
   "lng": -111.0135,
   "population": null,
   "population_proper": null,
   "density": 79.7,
   "source": "polygon",
   "incorporated": false,
   "timezone": "America/Denver",
   "zips": "83111"
 },
 {
   "City-State": "Rozet-WY",
   "id": 1840038386,
   "city": "Rozet",
   "city_ascii": "Rozet",
   "state_id": "WY",
   "City-State": "Rozet-WY",
   "state_name": "Wyoming",
   "county_fips": 56005,
   "county_name": "Campbell",
   "lat": 44.278,
   "lng": -105.2061,
   "population": null,
   "population_proper": null,
   "density": 42.1,
   "source": "point",
   "incorporated": false,
   "timezone": "America/Denver",
   "zips": "82727"
 },
 {
   "City-State": "Orin-WY",
   "id": 1840026161,
   "city": "Orin",
   "city_ascii": "Orin",
   "state_id": "WY",
   "City-State": "Orin-WY",
   "state_name": "Wyoming",
   "county_fips": 56009,
   "county_name": "Converse",
   "lat": 42.6506,
   "lng": -105.1824,
   "population": null,
   "population_proper": null,
   "density": 1.6,
   "source": "polygon",
   "incorporated": false,
   "timezone": "America/Denver",
   "zips": "82633"
 },
 {
   "City-State": "Lonetree-WY",
   "id": 1840017482,
   "city": "Lonetree",
   "city_ascii": "Lonetree",
   "state_id": "WY",
   "City-State": "Lonetree-WY",
   "state_name": "Wyoming",
   "county_fips": 56041,
   "county_name": "Uinta",
   "lat": 41.0273,
   "lng": -110.1536,
   "population": null,
   "population_proper": null,
   "density": 2.1,
   "source": "polygon",
   "incorporated": false,
   "timezone": "America/Denver",
   "zips": "82936"
 },
 {
   "City-State": "Pine Bluffs-WY",
   "id": 1840022387,
   "city": "Pine Bluffs",
   "city_ascii": "Pine Bluffs",
   "state_id": "WY",
   "City-State": "Pine Bluffs-WY",
   "state_name": "Wyoming",
   "county_fips": 56021,
   "county_name": "Laramie",
   "lat": 41.1803,
   "lng": -104.0692,
   "population": 1152,
   "population_proper": 1152,
   "density": 137,
   "source": "polygon",
   "incorporated": true,
   "timezone": "America/Denver",
   "zips": "82082"
 },
 {
   "City-State": "Y-O Ranch-WY",
   "id": 1840038439,
   "city": "Y-O Ranch",
   "city_ascii": "Y-O Ranch",
   "state_id": "WY",
   "City-State": "Y-O Ranch-WY",
   "state_name": "Wyoming",
   "county_fips": 56031,
   "county_name": "Platte",
   "lat": 42.0351,
   "lng": -104.9229,
   "population": null,
   "population_proper": null,
   "density": 16.9,
   "source": "polygon",
   "incorporated": false,
   "timezone": "America/Denver",
   "zips": "82201"
 },
 {
   "City-State": "Cody-WY",
   "id": 1840018595,
   "city": "Cody",
   "city_ascii": "Cody",
   "state_id": "WY",
   "City-State": "Cody-WY",
   "state_name": "Wyoming",
   "county_fips": 56029,
   "county_name": "Park",
   "lat": 44.5212,
   "lng": -109.055,
   "population": 9648,
   "population_proper": 9836,
   "density": 372,
   "source": "polygon",
   "incorporated": true,
   "timezone": "America/Denver",
   "zips": "82414"
 },
 {
   "City-State": "Turnerville-WY",
   "id": 1840018661,
   "city": "Turnerville",
   "city_ascii": "Turnerville",
   "state_id": "WY",
   "City-State": "Turnerville-WY",
   "state_name": "Wyoming",
   "county_fips": 56023,
   "county_name": "Lincoln",
   "lat": 42.8622,
   "lng": -110.9007,
   "population": null,
   "population_proper": null,
   "density": 18.6,
   "source": "polygon",
   "incorporated": false,
   "timezone": "America/Denver",
   "zips": "83112"
 },
 {
   "City-State": "Sleepy Hollow-WY",
   "id": 1840038442,
   "city": "Sleepy Hollow",
   "city_ascii": "Sleepy Hollow",
   "state_id": "WY",
   "City-State": "Sleepy Hollow-WY",
   "state_name": "Wyoming",
   "county_fips": 56005,
   "county_name": "Campbell",
   "lat": 44.2327,
   "lng": -105.4309,
   "population": null,
   "population_proper": null,
   "density": 141.9,
   "source": "polygon",
   "incorporated": false,
   "timezone": "America/Denver",
   "zips": "82718"
 },
 {
   "City-State": "Gillette-WY",
   "id": 1840019978,
   "city": "Gillette",
   "city_ascii": "Gillette",
   "state_id": "WY",
   "City-State": "Gillette-WY",
   "state_name": "Wyoming",
   "county_fips": 56005,
   "county_name": "Campbell",
   "lat": 44.2793,
   "lng": -105.5013,
   "population": 36446,
   "population_proper": 32398,
   "density": 600,
   "source": "polygon",
   "incorporated": true,
   "timezone": "America/Denver",
   "zips": "82718 82716 82717"
 },
 {
   "City-State": "Veteran-WY",
   "id": 1840018685,
   "city": "Veteran",
   "city_ascii": "Veteran",
   "state_id": "WY",
   "City-State": "Veteran-WY",
   "state_name": "Wyoming",
   "county_fips": 56015,
   "county_name": "Goshen",
   "lat": 41.9627,
   "lng": -104.3863,
   "population": null,
   "population_proper": null,
   "density": 33,
   "source": "polygon",
   "incorporated": false,
   "timezone": "America/Denver",
   "zips": "82243"
 },
 {
   "City-State": "Hudson-WY",
   "id": 1840021270,
   "city": "Hudson",
   "city_ascii": "Hudson",
   "state_id": "WY",
   "City-State": "Hudson-WY",
   "state_name": "Wyoming",
   "county_fips": 56013,
   "county_name": "Fremont",
   "lat": 42.9028,
   "lng": -108.5819,
   "population": 454,
   "population_proper": 454,
   "density": 411,
   "source": "polygon",
   "incorporated": true,
   "timezone": "America/Denver",
   "zips": "82515 82520"
 },
 {
   "City-State": "Orchard Valley-WY",
   "id": 1840038410,
   "city": "Orchard Valley",
   "city_ascii": "Orchard Valley",
   "state_id": "WY",
   "City-State": "Orchard Valley-WY",
   "state_name": "Wyoming",
   "county_fips": 56021,
   "county_name": "Laramie",
   "lat": 41.0966,
   "lng": -104.8194,
   "population": null,
   "population_proper": null,
   "density": 354.4,
   "source": "point",
   "incorporated": false,
   "timezone": "America/Denver",
   "zips": "82007"
 },
 {
   "City-State": "Lovell-WY",
   "id": 1840021242,
   "city": "Lovell",
   "city_ascii": "Lovell",
   "state_id": "WY",
   "City-State": "Lovell-WY",
   "state_name": "Wyoming",
   "county_fips": 56003,
   "county_name": "Big Horn",
   "lat": 44.8357,
   "lng": -108.3919,
   "population": 2421,
   "population_proper": 2421,
   "density": 848,
   "source": "polygon",
   "incorporated": true,
   "timezone": "America/Denver",
   "zips": "82431"
 },
 {
   "City-State": "Elk Mountain-WY",
   "id": 1840021311,
   "city": "Elk Mountain",
   "city_ascii": "Elk Mountain",
   "state_id": "WY",
   "City-State": "Elk Mountain-WY",
   "state_name": "Wyoming",
   "county_fips": 56007,
   "county_name": "Carbon",
   "lat": 41.6884,
   "lng": -106.4134,
   "population": 196,
   "population_proper": 196,
   "density": 273,
   "source": "polygon",
   "incorporated": true,
   "timezone": "America/Denver",
   "zips": "82324"
 },
 {
   "City-State": "Bar Nunn-WY",
   "id": 1840020060,
   "city": "Bar Nunn",
   "city_ascii": "Bar Nunn",
   "state_id": "WY",
   "City-State": "Bar Nunn-WY",
   "state_name": "Wyoming",
   "county_fips": 56025,
   "county_name": "Natrona",
   "lat": 42.922,
   "lng": -106.3475,
   "population": 2785,
   "population_proper": 2785,
   "density": 512,
   "source": "polygon",
   "incorporated": true,
   "timezone": "America/Denver",
   "zips": "82601"
 },
 {
   "City-State": "Kinnear-WY",
   "id": 1840038330,
   "city": "Kinnear",
   "city_ascii": "Kinnear",
   "state_id": "WY",
   "City-State": "Kinnear-WY",
   "state_name": "Wyoming",
   "county_fips": 56013,
   "county_name": "Fremont",
   "lat": 43.1519,
   "lng": -108.6776,
   "population": null,
   "population_proper": null,
   "density": 32.8,
   "source": "point",
   "incorporated": false,
   "timezone": "America/Denver",
   "zips": "82501"
 },
 {
   "City-State": "Woods Landing-WY",
   "id": 1840038405,
   "city": "Woods Landing",
   "city_ascii": "Woods Landing",
   "state_id": "WY",
   "City-State": "Woods Landing-WY",
   "state_name": "Wyoming",
   "county_fips": 56001,
   "county_name": "Albany",
   "lat": 41.1105,
   "lng": -106.0133,
   "population": null,
   "population_proper": null,
   "density": 6,
   "source": "point",
   "incorporated": false,
   "timezone": "America/Denver",
   "zips": "82063"
 },
 {
   "City-State": "Moose Wilson Road-WY",
   "id": 1840038434,
   "city": "Moose Wilson Road",
   "city_ascii": "Moose Wilson Road",
   "state_id": "WY",
   "City-State": "Moose Wilson Road-WY",
   "state_name": "Wyoming",
   "county_fips": 56039,
   "county_name": "Teton",
   "lat": 43.5315,
   "lng": -110.834,
   "population": null,
   "population_proper": null,
   "density": 427,
   "source": "polygon",
   "incorporated": false,
   "timezone": "America/Denver",
   "zips": "83014"
 },
 {
   "City-State": "Parkerton-WY",
   "id": 1840038380,
   "city": "Parkerton",
   "city_ascii": "Parkerton",
   "state_id": "WY",
   "City-State": "Parkerton-WY",
   "state_name": "Wyoming",
   "county_fips": 56009,
   "county_name": "Converse",
   "lat": 42.8511,
   "lng": -105.9731,
   "population": null,
   "population_proper": null,
   "density": 1,
   "source": "point",
   "incorporated": false,
   "timezone": "America/Denver",
   "zips": "82637"
 },
 {
   "City-State": "McFadden-WY",
   "id": 1840038415,
   "city": "McFadden",
   "city_ascii": "McFadden",
   "state_id": "WY",
   "City-State": "McFadden-WY",
   "state_name": "Wyoming",
   "county_fips": 56007,
   "county_name": "Carbon",
   "lat": 41.6544,
   "lng": -106.1306,
   "population": null,
   "population_proper": null,
   "density": 5.2,
   "source": "point",
   "incorporated": false,
   "timezone": "America/Denver",
   "zips": "82083"
 },
 {
   "City-State": "Table Rock-WY",
   "id": 1840018693,
   "city": "Table Rock",
   "city_ascii": "Table Rock",
   "state_id": "WY",
   "City-State": "Table Rock-WY",
   "state_name": "Wyoming",
   "county_fips": 56037,
   "county_name": "Sweetwater",
   "lat": 41.622,
   "lng": -108.404,
   "population": null,
   "population_proper": null,
   "density": 0,
   "source": "polygon",
   "incorporated": false,
   "timezone": "America/Denver",
   "zips": "82901"
 },
 {
   "City-State": "Powder River-WY",
   "id": 1840018657,
   "city": "Powder River",
   "city_ascii": "Powder River",
   "state_id": "WY",
   "City-State": "Powder River-WY",
   "state_name": "Wyoming",
   "county_fips": 56025,
   "county_name": "Natrona",
   "lat": 43.049,
   "lng": -106.9932,
   "population": null,
   "population_proper": null,
   "density": 13.4,
   "source": "polygon",
   "incorporated": false,
   "timezone": "America/Denver",
   "zips": "82604 82648"
 },
 {
   "City-State": "Moose-WY",
   "id": 1840038336,
   "city": "Moose",
   "city_ascii": "Moose",
   "state_id": "WY",
   "City-State": "Moose-WY",
   "state_name": "Wyoming",
   "county_fips": 56039,
   "county_name": "Teton",
   "lat": 43.6558,
   "lng": -110.7183,
   "population": null,
   "population_proper": null,
   "density": 27.6,
   "source": "point",
   "incorporated": false,
   "timezone": "America/Denver",
   "zips": "83012"
 },
 {
   "City-State": "Esterbrook-WY",
   "id": 1840017444,
   "city": "Esterbrook",
   "city_ascii": "Esterbrook",
   "state_id": "WY",
   "City-State": "Esterbrook-WY",
   "state_name": "Wyoming",
   "county_fips": 56009,
   "county_name": "Converse",
   "lat": 42.4061,
   "lng": -105.3858,
   "population": null,
   "population_proper": null,
   "density": 6.3,
   "source": "polygon",
   "incorporated": false,
   "timezone": "America/Denver",
   "zips": "82633"
 },
 {
   "City-State": "Garland-WY",
   "id": 1840017425,
   "city": "Garland",
   "city_ascii": "Garland",
   "state_id": "WY",
   "City-State": "Garland-WY",
   "state_name": "Wyoming",
   "county_fips": 56029,
   "county_name": "Park",
   "lat": 44.7777,
   "lng": -108.6542,
   "population": null,
   "population_proper": null,
   "density": 33.2,
   "source": "polygon",
   "incorporated": false,
   "timezone": "America/Denver",
   "zips": "82435"
 },
 {
   "City-State": "Owl Creek-WY",
   "id": 1840018631,
   "city": "Owl Creek",
   "city_ascii": "Owl Creek",
   "state_id": "WY",
   "City-State": "Owl Creek-WY",
   "state_name": "Wyoming",
   "county_fips": 56017,
   "county_name": "Hot Springs",
   "lat": 43.7819,
   "lng": -108.5679,
   "population": null,
   "population_proper": null,
   "density": 0,
   "source": "polygon",
   "incorporated": false,
   "timezone": "America/Denver",
   "zips": "82443"
 },
 {
   "City-State": "Carpenter-WY",
   "id": 1840024139,
   "city": "Carpenter",
   "city_ascii": "Carpenter",
   "state_id": "WY",
   "City-State": "Carpenter-WY",
   "state_name": "Wyoming",
   "county_fips": 56021,
   "county_name": "Laramie",
   "lat": 41.0456,
   "lng": -104.3644,
   "population": null,
   "population_proper": null,
   "density": 147.1,
   "source": "polygon",
   "incorporated": false,
   "timezone": "America/Denver",
   "zips": "82054"
 },
 {
   "City-State": "Pinedale-WY",
   "id": 1840022361,
   "city": "Pinedale",
   "city_ascii": "Pinedale",
   "state_id": "WY",
   "City-State": "Pinedale-WY",
   "state_name": "Wyoming",
   "county_fips": 56035,
   "county_name": "Sublette",
   "lat": 42.868,
   "lng": -109.871,
   "population": 1895,
   "population_proper": 1895,
   "density": 338,
   "source": "polygon",
   "incorporated": true,
   "timezone": "America/Denver",
   "zips": "82941"
 },
 {
   "City-State": "Allendale-WY",
   "id": 1840038314,
   "city": "Allendale",
   "city_ascii": "Allendale",
   "state_id": "WY",
   "City-State": "Allendale-WY",
   "state_name": "Wyoming",
   "county_fips": 56025,
   "county_name": "Natrona",
   "lat": 42.8147,
   "lng": -106.3106,
   "population": null,
   "population_proper": null,
   "density": 43.1,
   "source": "point",
   "incorporated": false,
   "timezone": "America/Denver",
   "zips": "82601"
 },
 {
   "City-State": "Edgerton-WY",
   "id": 1840021289,
   "city": "Edgerton",
   "city_ascii": "Edgerton",
   "state_id": "WY",
   "City-State": "Edgerton-WY",
   "state_name": "Wyoming",
   "county_fips": 56025,
   "county_name": "Natrona",
   "lat": 43.4141,
   "lng": -106.2477,
   "population": 197,
   "population_proper": 197,
   "density": 300,
   "source": "polygon",
   "incorporated": true,
   "timezone": "America/Denver",
   "zips": "82635"
 },
 {
   "City-State": "Smoot-WY",
   "id": 1840018660,
   "city": "Smoot",
   "city_ascii": "Smoot",
   "state_id": "WY",
   "City-State": "Smoot-WY",
   "state_name": "Wyoming",
   "county_fips": 56023,
   "county_name": "Lincoln",
   "lat": 42.6191,
   "lng": -110.9196,
   "population": null,
   "population_proper": null,
   "density": 76.9,
   "source": "polygon",
   "incorporated": false,
   "timezone": "America/Denver",
   "zips": "83126"
 },
 {
   "City-State": "Fairview-WY",
   "id": 1840017453,
   "city": "Fairview",
   "city_ascii": "Fairview",
   "state_id": "WY",
   "City-State": "Fairview-WY",
   "state_name": "Wyoming",
   "county_fips": 56023,
   "county_name": "Lincoln",
   "lat": 42.6871,
   "lng": -110.9866,
   "population": null,
   "population_proper": null,
   "density": 54.1,
   "source": "polygon",
   "incorporated": false,
   "timezone": "America/Denver",
   "zips": "83110 83119"
 },
 {
   "City-State": "Chugcreek-WY",
   "id": 1840038427,
   "city": "Chugcreek",
   "city_ascii": "Chugcreek",
   "state_id": "WY",
   "City-State": "Chugcreek-WY",
   "state_name": "Wyoming",
   "county_fips": 56031,
   "county_name": "Platte",
   "lat": 42.0535,
   "lng": -104.9079,
   "population": null,
   "population_proper": null,
   "density": 136.7,
   "source": "polygon",
   "incorporated": false,
   "timezone": "America/Denver",
   "zips": "82201"
 },
 {
   "City-State": "Arapahoe-WY",
   "id": 1840017433,
   "city": "Arapahoe",
   "city_ascii": "Arapahoe",
   "state_id": "WY",
   "City-State": "Arapahoe-WY",
   "state_name": "Wyoming",
   "county_fips": 56013,
   "county_name": "Fremont",
   "lat": 42.9911,
   "lng": -108.4562,
   "population": null,
   "population_proper": null,
   "density": 42.4,
   "source": "polygon",
   "incorporated": false,
   "timezone": "America/Denver",
   "zips": "82510 82501"
 },
 {
   "City-State": "Banner-WY",
   "id": 1840038358,
   "city": "Banner",
   "city_ascii": "Banner",
   "state_id": "WY",
   "City-State": "Banner-WY",
   "state_name": "Wyoming",
   "county_fips": 56033,
   "county_name": "Sheridan",
   "lat": 44.6014,
   "lng": -106.8653,
   "population": null,
   "population_proper": null,
   "density": 1.7,
   "source": "point",
   "incorporated": false,
   "timezone": "America/Denver",
   "zips": "82832"
 },
 {
   "City-State": "Wheatland-WY",
   "id": 1840022368,
   "city": "Wheatland",
   "city_ascii": "Wheatland",
   "state_id": "WY",
   "City-State": "Wheatland-WY",
   "state_name": "Wyoming",
   "county_fips": 56031,
   "county_name": "Platte",
   "lat": 42.0516,
   "lng": -104.9595,
   "population": 3563,
   "population_proper": 3606,
   "density": 339,
   "source": "polygon",
   "incorporated": true,
   "timezone": "America/Denver",
   "zips": "82201"
 },
 {
   "City-State": "Evanston-WY",
   "id": 1840020122,
   "city": "Evanston",
   "city_ascii": "Evanston",
   "state_id": "WY",
   "City-State": "Evanston-WY",
   "state_name": "Wyoming",
   "county_fips": 56041,
   "county_name": "Uinta",
   "lat": 41.2602,
   "lng": -110.9646,
   "population": 11755,
   "population_proper": 12090,
   "density": 453,
   "source": "polygon",
   "incorporated": true,
   "timezone": "America/Denver",
   "zips": "82930 82931"
 },
 {
   "City-State": "Thermopolis-WY",
   "id": 1840022353,
   "city": "Thermopolis",
   "city_ascii": "Thermopolis",
   "state_id": "WY",
   "City-State": "Thermopolis-WY",
   "state_name": "Wyoming",
   "county_fips": 56017,
   "county_name": "Hot Springs",
   "lat": 43.6479,
   "lng": -108.2139,
   "population": 3218,
   "population_proper": 2937,
   "density": 475,
   "source": "polygon",
   "incorporated": true,
   "timezone": "America/Denver",
   "zips": "82443"
 },
 {
   "City-State": "Sheridan-WY",
   "id": 1840021243,
   "city": "Sheridan",
   "city_ascii": "Sheridan",
   "state_id": "WY",
   "City-State": "Sheridan-WY",
   "state_name": "Wyoming",
   "county_fips": 56033,
   "county_name": "Sheridan",
   "lat": 44.7949,
   "lng": -106.9611,
   "population": 19335,
   "population_proper": 17954,
   "density": 632,
   "source": "polygon",
   "incorporated": true,
   "timezone": "America/Denver",
   "zips": "82801"
 },
 {
   "City-State": "Farson-WY",
   "id": 1840017465,
   "city": "Farson",
   "city_ascii": "Farson",
   "state_id": "WY",
   "City-State": "Farson-WY",
   "state_name": "Wyoming",
   "county_fips": 56037,
   "county_name": "Sweetwater",
   "lat": 42.1528,
   "lng": -109.4283,
   "population": null,
   "population_proper": null,
   "density": 40.7,
   "source": "polygon",
   "incorporated": false,
   "timezone": "America/Denver",
   "zips": "82932"
 },
 {
   "City-State": "Leiter-WY",
   "id": 1840038371,
   "city": "Leiter",
   "city_ascii": "Leiter",
   "state_id": "WY",
   "City-State": "Leiter-WY",
   "state_name": "Wyoming",
   "county_fips": 56033,
   "county_name": "Sheridan",
   "lat": 44.718,
   "lng": -106.2692,
   "population": null,
   "population_proper": null,
   "density": 6.2,
   "source": "point",
   "incorporated": false,
   "timezone": "America/Denver",
   "zips": "82837"
 },
 {
   "City-State": "Hanna-WY",
   "id": 1840021314,
   "city": "Hanna",
   "city_ascii": "Hanna",
   "state_id": "WY",
   "City-State": "Hanna-WY",
   "state_name": "Wyoming",
   "county_fips": 56007,
   "county_name": "Carbon",
   "lat": 41.8698,
   "lng": -106.5596,
   "population": 812,
   "population_proper": 812,
   "density": 153,
   "source": "polygon",
   "incorporated": true,
   "timezone": "America/Denver",
   "zips": "82327"
 },
 {
   "City-State": "Riverton-WY",
   "id": 1840020026,
   "city": "Riverton",
   "city_ascii": "Riverton",
   "state_id": "WY",
   "City-State": "Riverton-WY",
   "state_name": "Wyoming",
   "county_fips": 56013,
   "county_name": "Fremont",
   "lat": 43.0416,
   "lng": -108.4125,
   "population": 12705,
   "population_proper": 10997,
   "density": 424,
   "source": "polygon",
   "incorporated": true,
   "timezone": "America/Denver",
   "zips": "82501"
 },
 {
   "City-State": "Fort Washakie-WY",
   "id": 1840017436,
   "city": "Fort Washakie",
   "city_ascii": "Fort Washakie",
   "state_id": "WY",
   "City-State": "Fort Washakie-WY",
   "state_name": "Wyoming",
   "county_fips": 56013,
   "county_name": "Fremont",
   "lat": 43.0069,
   "lng": -108.9205,
   "population": null,
   "population_proper": null,
   "density": 180.7,
   "source": "polygon",
   "incorporated": false,
   "timezone": "America/Denver",
   "zips": "82514 82520"
 },
 {
   "City-State": "Hillsdale-WY",
   "id": 1840024140,
   "city": "Hillsdale",
   "city_ascii": "Hillsdale",
   "state_id": "WY",
   "City-State": "Hillsdale-WY",
   "state_name": "Wyoming",
   "county_fips": 56021,
   "county_name": "Laramie",
   "lat": 41.208,
   "lng": -104.4744,
   "population": null,
   "population_proper": null,
   "density": 52.8,
   "source": "polygon",
   "incorporated": false,
   "timezone": "America/Denver",
   "zips": "82060"
 },